Type,Units,Time,X Position,Y Position,Y Encoder,Z Position,Z Encoder,Yaw,Pitch,WAFBC Drag,WAFBC Side,WAFBC Lift,WAFBC Roll,WAFBC Pitch,WAFBC Yaw,WAFMC Drag,WAFMC Side,WAFMC Lift,WAFMC Roll,WAFMC Pitch,WAFMC Yaw,BAFMC Axial,BAFMC Side,BAFMC Normal,BAFMC Roll,BAFMC Pitch,BAFMC Yaw,DPT250,DPT251,PT250,TE250,Velocity,Dynamic Pressure,Mach,Reynolds Number per ft,Velocity Setpoint,Temperature Setpoint,cDAQ AI0,cDAQ AI1,cDAQ AI2,cDAQ AI3,cDAQ AI4,cDAQ AI5,cDAQ AI6,cDAQ AI7,cRIO AI0,cRIO AI1,cRIO AI2,cRIO AI3,Drag (raw),Side (raw),Lift (raw),Roll (raw),Pitch (raw),Yaw (raw)
Type,USC / SI,Time,Inches / Millimeters,Inches / Millimeters,Inches / Millimeters,Inches / Millimeters,Inches / Millimeters,Degrees / Degrees,Degrees / Degrees,lb / N,lb / N,lb / N,ft-lb / N-m,ft-lb / N-m,ft-lb / N-m,lb / N,lb / N,lb / N,ft-lb / N-m,ft-lb / N-m,ft-lb / N-m,lb / N,lb / N,lb / N,ft-lb / N-m,ft-lb / N-m,ft-lb / N-m,PSId / Pascals,PSId / Pascals,PSIa / Pascals,F / F,Ft/s / m/s,PSId / Pascals, / ,1/ft / 1/ft,ft/s / m/s,F / F, / , / , / , / , / , / , / , / , / , / , / , / , / , / , / , / , / , / 
Mult,USC,250218 10:02:23.522, 0.000000, 0.000000, 0.000000, 0.000000, 0.000276, 0.000002, 0.000000, 9.655318,-4.863175, 2.561654,-1.995776,-19.504623,23.438967, 9.655318,-4.863175, 2.561654,-1.995776,-19.504623,23.438967, 9.655318,-4.863175, 2.561654,-1.995775,-19.504623,23.438967, 0.156948, 0.720842,14.607069,69.788550,300.450897, 0.725407, 0.266355,1830901.000000,300.000000,69.549992,-0.000000,-0.000001,-0.000001,-0.000001, 0.000000,-0.000001,-0.000001,-0.000001, 1.012842,-0.002933, 0.001682, 0.021460,-0.063655,,,,,
Mult,USC,250218 10:02:23.534, 0.000000, 0.000000, 0.000000, 0.000000, 0.000276, 0.000002, 0.000000,10.390415,-5.519149,13.119657, 2.421523, 0.281603,25.056529,10.390415,-5.519149,13.119657, 2.421523, 0.281603,25.056529,10.390415,-5.519148,13.119657, 2.421523, 0.281603,25.056529, 0.156948, 0.720842,14.607069,69.788550,300.450897, 0.725407, 0.266355,1830901.000000,300.000000,69.549992,-0.000000,-0.000000, 0.000000,-0.000001,-0.000001,-0.000001,-0.000001,-0.000001, 1.015674,-0.003452, 0.001877, 0.021121,-0.068548,,,,,
Mult,USC,250218 10:02:23.546, 0.000000, 0.000000, 0.000000, 0.000000, 0.000276, 0.000002, 0.000000, 9.653919,-6.631322, 0.758165, 0.098962,-27.608043,26.453154, 9.653919,-6.631322, 0.758165, 0.098962,-27.608043,26.453154, 9.653919,-6.631321, 0.758165, 0.098963,-27.608043,26.453154, 0.156948, 0.720842,14.607069,69.788550,300.450897, 0.725407, 0.266355,1830901.000000,300.000000,69.549992,-0.000001,-0.000001,-0.000001, 0.000000, 0.000000, 0.000000,-0.000001, 0.000000, 1.014719,-0.003323, 0.001935, 0.023169,-0.063349,,,,,
Mult,USC,250218 10:02:23.558, 0.000000, 0.000000, 0.000000, 0.000000, 0.000276, 0.000002, 0.000000, 8.178222,-7.212390,-5.911438, 5.609544, 1.051335,26.420894, 8.178222,-7.212390,-5.911438, 5.609544, 1.051335,26.420894, 8.178222,-7.212390,-5.911438, 5.609544, 1.051336,26.420894, 0.156948, 0.720842,14.607069,69.788550,300.450897, 0.725407, 0.266355,1830901.000000,300.000000,69.549992,-0.000001,-0.000000, 0.000000, 0.000000,-0.000001,-0.000001,-0.000001, 0.000001, 1.013614,-0.003082, 0.001968, 0.020486,-0.053493,,,,,
Mult,USC,250218 10:02:23.570, 0.000000, 0.000000, 0.000000, 0.000000, 0.000276, 0.000002, 0.000000, 9.135764,-7.740905, 1.829811, 4.249353,-23.624272,25.409259, 9.135764,-7.740905, 1.829811, 4.249353,-23.624272,25.409259, 9.135765,-7.740905, 1.829811, 4.249354,-23.624272,25.409259, 0.156948, 0.720842,14.607069,69.788550,300.450897, 0.725407, 0.266355,1830901.000000,300.000000,69.549992,-0.000001,-0.000000,-0.000001, 0.000001,-0.000001, 0.000000,-0.000001,-0.000001, 1.012717,-0.002960, 0.001877, 0.020142,-0.059725,,,,,
Mult,USC,250218 10:02:23.582, 0.000000, 0.000000, 0.000000, 0.000000, 0.000276, 0.000002, 0.000000,10.228516,-7.287734,12.210222, 6.238537,-5.730657,23.433200,10.228516,-7.287734,12.210222, 6.238537,-5.730657,23.433200,10.228516,-7.287734,12.210222, 6.238538,-5.730657,23.433200, 0.156948, 0.720842,14.607069,69.788550,300.450897, 0.725407, 0.266355,1830901.000000,300.000000,69.549992,-0.000001,-0.000000,-0.000001, 0.000000,-0.000001,-0.000001,-0.000001,-0.000001, 1.011435,-0.003143, 0.001807, 0.021594,-0.067165,,,,,
Mult,USC,250218 10:02:23.594, 0.000000, 0.000000, 0.000000, 0.000000, 0.000276, 0.000002, 0.000000,10.351392,-6.668508, 1.690449, 0.669243,-23.175971,22.121112,10.351392,-6.668508, 1.690449, 0.669243,-23.175971,22.121112,10.351392,-6.668507, 1.690449, 0.669244,-23.175971,22.121112, 0.156948, 0.720842,14.607069,69.788550,300.450897, 0.725407, 0.266355,1830901.000000,300.000000,69.549992,-0.000001,-0.000001, 0.000001, 0.000000,-0.000001, 0.000000,-0.000001,-0.000001, 1.010062,-0.003363, 0.001813, 0.021817,-0.067937,,,,,
Mult,USC,250218 10:02:23.606, 0.000000, 0.000000, 0.000000, 0.000000, 0.000276, 0.000002, 0.000000, 9.023854,-5.662341,-6.238504, 1.907623,-7.139681,20.961050, 9.023854,-5.662341,-6.238504, 1.907623,-7.139681,20.961050, 9.023854,-5.662341,-6.238504, 1.907623,-7.139681,20.961050, 0.156948, 0.720842,14.607069,69.788550,300.450897, 0.725407, 0.266355,1830901.000000,300.000000,69.549992,-0.000001,-0.000001,-0.000001,-0.000001, 0.000000,-0.000001,-0.000001, 0.000000, 1.013382,-0.002997, 0.001981, 0.020337,-0.059379,,,,,
Mult,USC,250218 10:02:23.618, 0.000000, 0.000000, 0.000000, 0.000000, 0.000276, 0.000002,-0.000002, 8.529527,-4.233502,-3.709522,-0.780180,-16.798712,20.142015, 8.529527,-4.233502,-3.709522,-0.780180,-16.798712,20.142015, 8.529527,-4.233502,-3.709522,-0.780179,-16.798712,20.142015, 0.156923, 0.720448,14.618515,69.788550,300.298798, 0.725241, 0.266220,1831408.250000,300.000000,69.549992,-0.000001,-0.000000, 0.000001, 0.000001, 0.000000,-0.000001, 0.000000, 0.000000, 1.013190,-0.003049, 0.002014, 0.022696,-0.056325,,,,,
Mult,USC,250218 10:02:23.630, 0.000000, 0.000000, 0.000000, 0.000000, 0.000276, 0.000002,-0.000002,10.154745,-4.133078,12.031289, 0.519866,-4.448341,19.304456,10.154745,-4.133078,12.031289, 0.519866,-4.448341,19.304456,10.154746,-4.133078,12.031288, 0.519867,-4.448341,19.304456, 0.156923, 0.720448,14.618515,69.788550,300.298798, 0.725241, 0.266220,1831408.250000,300.000000,69.549992,-0.000001,-0.000001, 0.000000,-0.000001, 0.000000,-0.000001,-0.000001,-0.000001, 1.015167,-0.003296, 0.001910, 0.023615,-0.067187,,,,,
Mult,USC,250218 10:02:23.642, 0.000000, 0.000000, 0.000000, 0.000000, 0.000276, 0.000002,-0.000002,10.668764,-3.928090, 7.534548,-2.797393,-25.462480,19.125915,10.668764,-3.928090, 7.534548,-2.797393,-25.462480,19.125915,10.668764,-3.928090, 7.534548,-2.797391,-25.462480,19.125915, 0.156923, 0.720448,14.618515,69.788550,300.298798, 0.725241, 0.266220,1831408.250000,300.000000,69.549992,-0.000000,-0.000000,-0.000001,-0.000001,-0.000001, 0.000000,-0.000001, 0.000000, 1.012970,-0.003265, 0.001746, 0.019952,-0.070643,,,,,
Mult,USC,250218 10:02:23.654, 0.000000, 0.000000, 0.000000, 0.000000, 0.000276, 0.000002,-0.000002, 9.506680,-3.182246,-4.101009, 0.952514, 3.728282,18.773998, 9.506680,-3.182246,-4.101009, 0.952514, 3.728282,18.773998, 9.506680,-3.182246,-4.101010, 0.952515, 3.728282,18.773998, 0.156923, 0.720448,14.618515,69.788550,300.298798, 0.725241, 0.266220,1831408.250000,300.000000,69.549992,-0.000001,-0.000000,-0.000001,-0.000001, 0.000000,-0.000001,-0.000001, 0.000001, 1.011523,-0.003357, 0.001904, 0.018939,-0.062991,,,,,
Mult,USC,250218 10:02:23.666, 0.000000, 0.000000, 0.000000, 0.000000, 0.000276, 0.000002,-0.000002, 9.958740,-3.609194,-6.822801,-1.558338,-30.301643,18.438122, 9.958740,-3.609194,-6.822801,-1.558338,-30.301643,18.438122, 9.958740,-3.609194,-6.822801,-1.558337,-30.301643,18.438122, 0.156923, 0.720448,14.618515,69.788550,300.298798, 0.725241, 0.266220,1831408.250000,300.000000,69.549992,-0.000001,-0.000000, 0.000000,-0.000001,-0.000001, 0.000000,-0.000001, 0.000000, 1.014050,-0.003052, 0.002390, 0.022665,-0.066108,,,,,
Mult,USC,250218 10:02:23.678, 0.000000, 0.000000, 0.000000, 0.000000, 0.000276, 0.000002,-0.000002,10.870148,-4.060609,10.470139,-3.019660,-4.219847,18.104889,10.870148,-4.060609,10.470139,-3.019660,-4.219847,18.104889,10.870149,-4.060609,10.470138,-3.019659,-4.219847,18.104889, 0.156923, 0.720448,14.618515,69.788550,300.298798, 0.725241, 0.266220,1831408.250000,300.000000,69.549992,-0.000001,-0.000001,-0.000001,-0.000001, 0.000000, 0.000000,-0.000001,-0.000001, 1.010986,-0.002948, 0.001816, 0.022348,-0.071853,,,,,
Mult,USC,250218 10:02:23.690, 0.000000, 0.000000, 0.000000, 0.000000, 0.000276, 0.000002,-0.000002,10.722977,-4.223373, 8.885095,-1.401594,-18.416997,18.788376,10.722977,-4.223373, 8.885095,-1.401594,-18.416997,18.788376,10.722977,-4.223372, 8.885095,-1.401592,-18.416997,18.788376, 0.156923, 0.720448,14.618515,69.788550,300.298798, 0.725241, 0.266220,1831408.250000,300.000000,69.549992,-0.000001,-0.000001,-0.000001,-0.000001, 0.000000, 0.000000, 0.000000,-0.000001, 1.009430,-0.003082, 0.001880, 0.017731,-0.070942,,,,,
Mult,USC,250218 10:02:23.702, 0.000000, 0.000000, 0.000000, 0.000000, 0.000276, 0.000002,-0.000002, 9.473643,-5.166027,-3.130463,-2.707572,-13.118998,20.656919, 9.473643,-5.166027,-3.130463,-2.707572,-13.118998,20.656919, 9.473643,-5.166027,-3.130463,-2.707571,-13.118998,20.656919, 0.156923, 0.720448,14.618515,69.788550,300.298798, 0.725241, 0.266220,1831408.250000,300.000000,69.549992,-0.000001,-0.000001,-0.000001, 0.000000,-0.000001,-0.000001, 0.000000,-0.000001, 1.010236,-0.003201, 0.001782, 0.019385,-0.062330,,,,,
Mult,USC,250218 10:02:23.714, 0.000000, 0.000000, 0.000000, 0.000000, 0.000276,-0.000004, 0.000000,10.489392,-4.069132,-5.752193, 0.689220,-12.868017,18.272393,10.489392,-4.069132,-5.752193, 0.689220,-12.868017,18.272393,10.489392,-4.069133,-5.752193, 0.689219,-12.868017,18.272393, 0.156919, 0.720605,14.621524,69.788550,300.277832, 0.725289, 0.266201,1831657.125000,300.000000,69.549992,-0.000001,-0.000001, 0.000001,-0.000001, 0.000000, 0.000000,-0.000001,-0.000001, 1.012305,-0.003143, 0.001776, 0.022067,-0.069474,,,,,
Mult,USC,250218 10:02:23.726, 0.000000, 0.000000, 0.000000, 0.000000, 0.000276,-0.000004, 0.000000,10.946030,-3.497522, 7.660191,-5.079469,-9.869116,16.685686,10.946030,-3.497522, 7.660191,-5.079469,-9.869116,16.685686,10.946030,-3.497523, 7.660191,-5.079470,-9.869115,16.685686, 0.156919, 0.720605,14.621524,69.788550,300.277832, 0.725289, 0.266201,1831657.125000,300.000000,69.549992,-0.000001,-0.000000, 0.000000, 0.000000, 0.000000, 0.000000, 0.000000, 0.000000, 1.012463,-0.003491, 0.001941, 0.019577,-0.072422,,,,,
Mult,USC,250218 10:02:23.738, 0.000000, 0.000000, 0.000000, 0.000000, 0.000276,-0.000004, 0.000000,10.363088,-2.685671, 7.670332,-1.244804,-17.731122,16.065105,10.363088,-2.685671, 7.670332,-1.244804,-17.731122,16.065105,10.363088,-2.685672, 7.670332,-1.244805,-17.731122,16.065105, 0.156919, 0.720605,14.621524,69.788550,300.277832, 0.725289, 0.266201,1831657.125000,300.000000,69.549992,-0.000001,-0.000001,-0.000001, 0.000000, 0.000000,-0.000001,-0.000001,-0.000001, 1.012265,-0.003308, 0.002103, 0.018314,-0.068850,,,,,
Mult,USC,250218 10:02:23.750, 0.000000, 0.000000, 0.000000, 0.000000, 0.000276,-0.000004, 0.000000, 8.546564,-3.335667,-3.348888,-4.905344,-12.652985,16.634362, 8.546564,-3.335667,-3.348888,-4.905344,-12.652985,16.634362, 8.546563,-3.335667,-3.348888,-4.905345,-12.652984,16.634362, 0.156919, 0.720605,14.621524,69.788550,300.277832, 0.725289, 0.266201,1831657.125000,300.000000,69.549992,-0.000001,-0.000001, 0.000000, 0.000000, 0.000000, 0.000000,-0.000001,-0.000001, 1.012451,-0.003082, 0.001654, 0.020230,-0.056470,,,,,
Mult,USC,250218 10:02:23.762, 0.000000, 0.000000, 0.000000, 0.000000, 0.000276,-0.000004, 0.000000, 8.747276,-3.208113,-5.187977,-2.872536,-13.519705,18.025171, 8.747276,-3.208113,-5.187977,-2.872536,-13.519705,18.025171, 8.747276,-3.208114,-5.187977,-2.872537,-13.519705,18.025171, 0.156919, 0.720605,14.621524,69.788550,300.277832, 0.725289, 0.266201,1831657.125000,300.000000,69.549992,-0.000000,-0.000000, 0.000000,-0.000001,-0.000001, 0.000000, 0.000000,-0.000001, 1.012112,-0.002631, 0.001590, 0.021561,-0.057954,,,,,
Mult,USC,250218 10:02:23.774, 0.000000, 0.000000, 0.000000, 0.000000, 0.000276,-0.000004, 0.000000,10.013581,-4.552144, 6.995549,-2.310828,-15.715925,19.507209,10.013581,-4.552144, 6.995549,-2.310828,-15.715925,19.507209,10.013581,-4.552144, 6.995549,-2.310829,-15.715924,19.507209, 0.156919, 0.720605,14.621524,69.788550,300.277832, 0.725289, 0.266201,1831657.125000,300.000000,69.549992,-0.000000,-0.000001, 0.000000, 0.000000,-0.000001,-0.000001,-0.000001,-0.000001, 1.012201,-0.003207, 0.001813, 0.018723,-0.066086,,,,,
Mult,USC,250218 10:02:23.786, 0.000000, 0.000000, 0.000000, 0.000000, 0.000276,-0.000004, 0.000000,11.005193,-4.620269, 8.442928, 2.561479,-22.231261,20.787140,11.005193,-4.620269, 8.442928, 2.561479,-22.231261,20.787140,11.005192,-4.620269, 8.442928, 2.561477,-22.231261,20.787140, 0.156919, 0.720605,14.621524,69.788550,300.277832, 0.725289, 0.266201,1831657.125000,300.000000,69.549992,-0.000000,-0.000001,-0.000001,-0.000001, 0.000000,-0.000001, 0.000000,-0.000001, 1.013449,-0.002823, 0.001941, 0.019794,-0.072878,,,,,
Mult,USC,250218 10:02:23.798, 0.000000, 0.000000, 0.000000, 0.000000, 0.000276,-0.000004, 0.000000, 9.246384,-5.663451, 1.212630, 1.387563,-14.050094,21.768967, 9.246384,-5.663451, 1.212630, 1.387563,-14.050094,21.768967, 9.246384,-5.663451, 1.212630, 1.387562,-14.050094,21.768967, 0.156919, 0.720605,14.621524,69.788550,300.277832, 0.725289, 0.266201,1831657.125000,300.000000,69.549992,-0.000001,-0.000000,-0.000001,-0.000001,-0.000001,-0.000001, 0.000000,-0.000001, 1.013510,-0.002985, 0.001910, 0.024588,-0.060762,,,,,
Mult,USC,250218 10:02:23.810, 0.000000, 0.000000, 0.000000, 0.000000, 0.000276,-0.000001, 0.000000, 1.673927,-1.341227,-0.928773, 0.360661,-3.219839, 4.488305, 1.673927,-1.341227,-0.928773, 0.360661,-3.219839, 4.488305, 1.673927,-1.341227,-0.928773, 0.360661,-3.219839, 4.488305, 0.156919, 0.720605,14.621524,69.788550,300.277832, 0.725289, 0.266201,1831657.125000,300.000000,69.549992,-0.000001,-0.000000, 0.000000,-0.000001,-0.000001,-0.000001,-0.000001,-0.000001, 1.002237,-0.000656, 0.000400, 0.004471,-0.010960,,,,,
Mult,USC,250218 10:02:23.822, 0.000000, 0.000000, 0.000000, 0.000000, 0.000276,-0.000004, 0.000000,10.942627,-4.016260, 2.022822,-4.589394,-14.800727,17.160924,10.942627,-4.016260, 2.022822,-4.589394,-14.800727,17.160924,10.942626,-4.016261, 2.022822,-4.589395,-14.800727,17.160924, 0.156939, 0.721003,14.625948,69.788550,300.254333, 0.725395, 0.266180,1832068.000000,300.000000,69.549992,-0.000000,-0.000001, 0.000001,-0.000001, 0.000000, 0.000000, 0.000000, 0.000000, 1.011346,-0.003174, 0.001678, 0.018530,-0.072261,,,,,
Mult,USC,250218 10:02:23.834, 0.000000, 0.000000, 0.000000, 0.000000, 0.000276,-0.000004, 0.000000,10.826485,-2.858698,10.646735,-2.196853,-9.261579,16.017148,10.826485,-2.858698,10.646735,-2.196853,-9.261579,16.017148,10.826485,-2.858698,10.646735,-2.196854,-9.261579,16.017148, 0.156939, 0.721003,14.625948,69.788550,300.254333, 0.725395, 0.266180,1832068.000000,300.000000,69.549992,-0.000000,-0.000000, 0.000000,-0.000001,-0.000001, 0.000000, 0.000000,-0.000001, 1.014368,-0.002963, 0.002225, 0.020862,-0.071864,,,,,
Mult,USC,250218 10:02:23.846, 0.000000, 0.000000, 0.000000, 0.000000, 0.000276,-0.000004, 0.000000, 9.281108,-3.043684,-0.146061,-3.311765,-14.363756,16.349346, 9.281108,-3.043684,-0.146061,-3.311765,-14.363756,16.349346, 9.281108,-3.043684,-0.146061,-3.311766,-14.363756,16.349346, 0.156939, 0.721003,14.625948,69.788550,300.254333, 0.725395, 0.266180,1832068.000000,300.000000,69.549992,-0.000000,-0.000001,-0.000001,-0.000001, 0.000000, 0.000000, 0.000000,-0.000001, 1.013788,-0.002991, 0.001810, 0.022122,-0.061410,,,,,
Mult,USC,250218 10:02:23.858, 0.000000, 0.000000, 0.000000, 0.000000, 0.000276,-0.000004, 0.000000, 8.408717,-3.500751,-4.570856,-3.894218,-9.314761,17.628288, 8.408717,-3.500751,-4.570856,-3.894218,-9.314761,17.628288, 8.408716,-3.500751,-4.570856,-3.894219,-9.314760,17.628288, 0.156939, 0.721003,14.625948,69.788550,300.254333, 0.725395, 0.266180,1832068.000000,300.000000,69.549992,-0.000001,-0.000000, 0.000000,-0.000001, 0.000000, 0.000000,-0.000001,-0.000001, 1.013257,-0.003113, 0.002390, 0.018210,-0.055560,,,,,
Mult,USC,250218 10:02:23.870, 0.000000, 0.000000, 0.000000, 0.000000, 0.000276,-0.000004, 0.000000, 9.801085,-3.944342, 3.422698,-2.868293,-15.989994,18.962054, 9.801085,-3.944342, 3.422698,-2.868293,-15.989994,18.962054, 9.801085,-3.944343, 3.422698,-2.868294,-15.989993,18.962054, 0.156939, 0.721003,14.625948,69.788550,300.254333, 0.725395, 0.266180,1832068.000000,300.000000,69.549992,-0.000001,-0.000000,-0.000001,-0.000001,-0.000001,-0.000001, 0.000000, 0.000000, 1.013318,-0.002991, 0.001682, 0.018808,-0.064752,,,,,
Mult,USC,250218 10:02:23.882, 0.000000, 0.000000, 0.000000, 0.000000, 0.000276,-0.000004, 0.000000,10.762117,-4.890528,11.007927, 1.429105,-21.752029,20.298630,10.762117,-4.890528,11.007927, 1.429105,-21.752029,20.298630,10.762116,-4.890529,11.007927, 1.429103,-21.752030,20.298630, 0.156939, 0.721003,14.625948,69.788550,300.254333, 0.725395, 0.266180,1832068.000000,300.000000,69.549992,-0.000001,-0.000000, 0.000000,-0.000001,-0.000001,-0.000001,-0.000001, 0.000000, 1.014334,-0.003357, 0.002045, 0.021530,-0.071182,,,,,
Mult,USC,250218 10:02:23.894, 0.000000, 0.000000, 0.000000, 0.000000, 0.000276,-0.000004, 0.000000, 9.855775,-5.308514, 5.222276, 1.819613,-14.854954,21.496851, 9.855775,-5.308514, 5.222276, 1.819613,-14.854954,21.496851, 9.855774,-5.308515, 5.222276, 1.819612,-14.854954,21.496851, 0.156939, 0.721003,14.625948,69.788550,300.254333, 0.725395, 0.266180,1832068.000000,300.000000,69.549992,-0.000000,-0.000001, 0.000000,-0.000001, 0.000000,-0.000001,-0.000001,-0.000001, 1.011267,-0.003293, 0.001782, 0.022443,-0.064965,,,,,
Mult,USC,250218 10:02:23.906, 0.000000, 0.000000, 0.000000, 0.000000, 0.000276,-0.000004, 0.000000, 8.127404,-6.220191,-5.386427, 1.611729,-15.948977,22.279458, 8.127404,-6.220191,-5.386427, 1.611729,-15.948977,22.279458, 8.127404,-6.220191,-5.386427, 1.611728,-15.948977,22.279458, 0.156939, 0.721003,14.625948,69.788550,300.254333, 0.725395, 0.266180,1832068.000000,300.000000,69.549992,-0.000001,-0.000001,-0.000001, 0.000000,-0.000001, 0.000000,-0.000001, 0.000000, 1.013324,-0.002960, 0.001813, 0.020050,-0.053307,,,,,
Mult,USC,250218 10:02:23.918, 0.000000, 0.000000, 0.000000, 0.000000, 0.000276,-0.000004,-0.000002, 8.686438,-6.275712, 1.403828, 1.327800,-15.880178,22.427749, 8.686438,-6.275712, 1.403828, 1.327800,-15.880178,22.427749, 8.686437,-6.275713, 1.403828, 1.327800,-15.880178,22.427749, 0.156937, 0.721218,14.632467,69.788550,300.445923, 0.725396, 0.266350,1830902.750000,300.000000,69.549992,-0.000001,-0.000000,-0.000001,-0.000001, 0.000000,-0.000001,-0.000001, 0.000000, 1.013861,-0.003369, 0.002133, 0.021213,-0.056904,,,,,
Mult,USC,250218 10:02:23.930, 0.000000, 0.000000, 0.000000, 0.000000, 0.000276,-0.000004,-0.000002, 9.326329,-6.393352, 8.192433, 2.990065,-10.874124,22.154010, 9.326329,-6.393352, 8.192433, 2.990065,-10.874124,22.154010, 9.326329,-6.393353, 8.192433, 2.990065,-10.874124,22.154010, 0.156937, 0.721218,14.632467,69.788550,300.445923, 0.725396, 0.266350,1830902.750000,300.000000,69.549992,-0.000000, 0.000001, 0.000000, 0.000000, 0.000000,-0.000001, 0.000000,-0.000001, 1.011130,-0.002734, 0.002325, 0.023227,-0.061234,,,,,
Mult,USC,250218 10:02:23.942, 0.000000, 0.000000, 0.000000, 0.000000, 0.000276,-0.000004,-0.000002, 9.263513,-6.633758, 0.189730, 2.916638,-12.162969,22.254313, 9.263513,-6.633758, 0.189730, 2.916638,-12.162969,22.254313, 9.263512,-6.633759, 0.189730, 2.916638,-12.162969,22.254313, 0.156937, 0.721218,14.632467,69.788550,300.445923, 0.725396, 0.266350,1830902.750000,300.000000,69.549992,-0.000001,-0.000001, 0.000000,-0.000001,-0.000001, 0.000000, 0.000000,-0.000001, 1.011496,-0.002838, 0.001712, 0.020480,-0.060677,,,,,
Mult,USC,250218 10:02:23.954, 0.000000, 0.000000, 0.000000, 0.000000, 0.000276,-0.000004,-0.000002,10.633750,-5.949527,-2.611238,-0.009709,-6.639059,22.389664,10.633750,-5.949527,-2.611238,-0.009709,-6.639059,22.389664,10.633750,-5.949528,-2.611238,-0.009708,-6.639059,22.389664, 0.156937, 0.721218,14.632467,69.788550,300.445923, 0.725396, 0.266350,1830902.750000,300.000000,69.549992,-0.000001,-0.000001, 0.000000,-0.000001,-0.000001, 0.000000,-0.000001,-0.000001, 1.012009,-0.002979, 0.002167, 0.020108,-0.069926,,,,,
Mult,USC,250218 10:02:23.966, 0.000000, 0.000000, 0.000000, 0.000000, 0.000276,-0.000004,-0.000002,11.237791,-5.534070, 0.112825, 0.035214,-10.609866,22.454884,11.237791,-5.534070, 0.112825, 0.035214,-10.609866,22.454884,11.237791,-5.534071, 0.112824, 0.035214,-10.609866,22.454884, 0.156937, 0.721218,14.632467,69.788550,300.445923, 0.725396, 0.266350,1830902.750000,300.000000,69.549992,-0.000000,-0.000001,-0.000001,-0.000001,-0.000001, 0.000000,-0.000001,-0.000001, 1.013510,-0.003009, 0.002066, 0.022925,-0.074016,,,,,
Mult,USC,250218 10:02:23.978, 0.000000, 0.000000, 0.000000, 0.000000, 0.000276,-0.000004,-0.000002,11.671076,-4.585831, 6.662947, 3.117528,-5.142959,22.121052,11.671076,-4.585831, 6.662947, 3.117528,-5.142959,22.121052,11.671076,-4.585832, 6.662947, 3.117529,-5.142960,22.121052, 0.156937, 0.721218,14.632467,69.788550,300.445923, 0.725396, 0.266350,1830902.750000,300.000000,69.549992,-0.000001,-0.000000,-0.000001,-0.000001,-0.000001,-0.000001,-0.000001, 0.000000, 1.013419,-0.003482, 0.002167, 0.021204,-0.077247,,,,,
Mult,USC,250218 10:02:23.990, 0.000000, 0.000000, 0.000000, 0.000000, 0.000276,-0.000004,-0.000002, 8.996276,-5.322502, 2.263367,-1.049581,-20.612361,22.336686, 8.996276,-5.322502, 2.263367,-1.049581,-20.612361,22.336686, 8.996275,-5.322503, 2.263366,-1.049581,-20.612361,22.336686, 0.156937, 0.721218,14.632467,69.788550,300.445923, 0.725396, 0.266350,1830902.750000,300.000000,69.549992,-0.000001,-0.000001, 0.000000, 0.000000,-0.000001,-0.000001, 0.000000, 0.000000, 1.010428,-0.003247, 0.001846, 0.020047,-0.059164,,,,,
Mult,USC,250218 10:02:24.002, 0.000000, 0.000000, 0.000000, 0.000000, 0.000276,-0.000004,-0.000002, 8.563728,-4.686917,-1.641406, 1.679716,-1.864972,22.006990, 8.563728,-4.686917,-1.641406, 1.679716,-1.864972,22.006990, 8.563727,-4.686917,-1.641406, 1.679717,-1.864972,22.006990, 0.156937, 0.721218,14.632467,69.788550,300.445923, 0.725396, 0.266350,1830902.750000,300.000000,69.549992,-0.000000,-0.000001,-0.000001, 0.000000, 0.000000, 0.000001, 0.000000,-0.000001, 1.012271,-0.003400, 0.001712, 0.018655,-0.056407,,,,,
Mult,USC,250218 10:02:24.014, 0.000000, 0.000000, 0.000000, 0.000000, 0.000276,-0.000004, 0.000000,10.078716,-4.638153, 3.162159,-0.825319,-16.056698,21.562750,10.078716,-4.638153, 3.162159,-0.825319,-16.056698,21.562750,10.078715,-4.638154, 3.162159,-0.825321,-16.056698,21.562750, 0.156938, 0.721462,14.606550,69.788550,300.391541, 0.725095, 0.266302,1830474.250000,300.000000,69.549992,-0.000001,-0.000001,-0.000001, 0.000000,-0.000001,-0.000001,-0.000001,-0.000001, 1.016696,-0.003326, 0.001678, 0.022830,-0.066523,,,,,
Mult,USC,250218 10:02:24.026, 0.000000, 0.000000, 0.000000, 0.000000, 0.000276,-0.000004, 0.000000,10.859202,-5.009665, 5.845871, 1.019789,-18.922013,21.217839,10.859202,-5.009665, 5.845871, 1.019789,-18.922013,21.217839,10.859202,-5.009666, 5.845871, 1.019788,-18.922014,21.217839, 0.156938, 0.721462,14.606550,69.788550,300.391541, 0.725095, 0.266302,1830474.250000,300.000000,69.549992,-0.000001,-0.000000,-0.000001, 0.000000,-0.000001,-0.000001,-0.000001,-0.000001, 1.013828,-0.003207, 0.001782, 0.021341,-0.071730,,,,,
Mult,USC,250218 10:02:24.038, 0.000000, 0.000000, 0.000000, 0.000000, 0.000276,-0.000004, 0.000000,10.210169,-4.833770, 1.934941, 0.951133,-18.774082,21.179420,10.210169,-4.833770, 1.934941, 0.951133,-18.774082,21.179420,10.210168,-4.833770, 1.934941, 0.951131,-18.774082,21.179420, 0.156938, 0.721462,14.606550,69.788550,300.391541, 0.725095, 0.266302,1830474.250000,300.000000,69.549992, 0.000001,-0.000001, 0.000000, 0.000000, 0.000000,-0.000001,-0.000001, 0.000000, 1.014911,-0.003152, 0.001910, 0.021048,-0.067396,,,,,
Mult,USC,250218 10:02:24.050, 0.000000, 0.000000, 0.000000, 0.000000, 0.000276,-0.000004, 0.000000, 8.124307,-5.408723,-1.402006,-1.157352,-18.392719,21.358119, 8.124307,-5.408723,-1.402006,-1.157352,-18.392719,21.358119, 8.124307,-5.408724,-1.402006,-1.157353,-18.392719,21.358119, 0.156938, 0.721462,14.606550,69.788550,300.391541, 0.725095, 0.266302,1830474.250000,300.000000,69.549992,-0.000001,-0.000000,-0.000001,-0.000001,-0.000001,-0.000001, 0.000000, 0.000000, 1.015359,-0.003430, 0.001437, 0.022760,-0.053309,,,,,
Mult,USC,250218 10:02:24.062, 0.000000, 0.000000, 0.000000, 0.000000, 0.000276,-0.000004, 0.000000, 9.189370,-4.604741, 3.554350, 0.440381,-14.994417,21.638760, 9.189370,-4.604741, 3.554350, 0.440381,-14.994417,21.638760, 9.189370,-4.604741, 3.554350, 0.440380,-14.994417,21.638760, 0.156938, 0.721462,14.606550,69.788550,300.391541, 0.725095, 0.266302,1830474.250000,300.000000,69.549992,-0.000001,-0.000000,-0.000001,-0.000001,-0.000001,-0.000001, 0.000000,-0.000001, 1.014172,-0.003323, 0.001712, 0.024179,-0.060631,,,,,
Mult,USC,250218 10:02:24.074, 0.000000, 0.000000, 0.000000, 0.000000, 0.000276,-0.000004, 0.000000,10.733571,-4.736042,10.078502,-0.932543,-8.525018,22.518221,10.733571,-4.736042,10.078502,-0.932543,-8.525018,22.518221,10.733571,-4.736043,10.078502,-0.932544,-8.525018,22.518221, 0.156938, 0.721462,14.606550,69.788550,300.391541, 0.725095, 0.266302,1830474.250000,300.000000,69.549992,-0.000001,-0.000001,-0.000001,-0.000001,-0.000001,-0.000001,-0.000001, 0.000000, 1.012753,-0.002948, 0.002133, 0.021188,-0.070913,,,,,
Mult,USC,250218 10:02:24.086, 0.000000, 0.000000, 0.000000, 0.000000, 0.000276,-0.000004, 0.000000,10.184956,-5.003019,-0.105749, 0.441800,-21.692326,23.617517,10.184956,-5.003019,-0.105749, 0.441800,-21.692326,23.617517,10.184955,-5.003020,-0.105749, 0.441798,-21.692326,23.617517, 0.156938, 0.721462,14.606550,69.788550,300.391541, 0.725095, 0.266302,1830474.250000,300.000000,69.549992,-0.000001,-0.000001,-0.000001, 0.000000,-0.000001,-0.000001, 0.000000, 0.000000, 1.014206,-0.002991, 0.001724, 0.020648,-0.067209,,,,,
Mult,USC,250218 10:02:24.098, 0.000000, 0.000000, 0.000000, 0.000000, 0.000276,-0.000004, 0.000000, 9.121744,-5.307125,-3.566054,-0.335714,-10.130603,24.458902, 9.121744,-5.307125,-3.566054,-0.335714,-10.130603,24.458902, 9.121744,-5.307125,-3.566054,-0.335715,-10.130603,24.458902, 0.156938, 0.721462,14.606550,69.788550,300.391541, 0.725095, 0.266302,1830474.250000,300.000000,69.549992,-0.000001,-0.000001,-0.000001, 0.000000,-0.000001,-0.000001,-0.000001, 0.000000, 1.013638,-0.002988, 0.001877, 0.023898,-0.060052,,,,,
Mult,USC,250218 10:02:24.110, 0.000000, 0.000000, 0.000000, 0.000000, 0.000276,-0.000001, 0.000000, 2.014110,-1.099051, 0.610435, 0.033781,-3.260343, 4.945097, 2.014110,-1.099051, 0.610435, 0.033781,-3.260343, 4.945097, 2.014110,-1.099051, 0.610435, 0.033781,-3.260343, 4.945097, 0.156938, 0.721462,14.606550,69.788550,300.391541, 0.725095, 0.266302,1830474.250000,300.000000,69.549992,-0.000001,-0.000001, 0.000000, 0.000001, 0.000000,-0.000001,-0.000001,-0.000001, 1.002460,-0.000623, 0.000369, 0.004153,-0.013267,,,,,
Mult,USC,250218 10:02:24.122, 0.000000, 0.000000, 0.000000, 0.000000, 0.000276, 0.000000,-0.000002,11.273238,-5.952689, 9.484199, 1.845855,-9.780500,24.649036,11.273238,-5.952689, 9.484199, 1.845855,-9.780500,24.649036,11.273238,-5.952689, 9.484199, 1.845856,-9.780500,24.649036, 0.156952, 0.720610,14.612856,69.788550,300.347504, 0.725807, 0.266263,1832541.250000,300.000000,69.549992,-0.000000,-0.000001, 0.000000, 0.000000, 0.000000, 0.000000,-0.000001,-0.000001, 1.013351,-0.003204, 0.001999, 0.018683,-0.074330,,,,,
Mult,USC,250218 10:02:24.134, 0.000000, 0.000000, 0.000000, 0.000000, 0.000276, 0.000000,-0.000002,10.933321,-6.010911,-0.806132, 5.119797,-8.080989,24.352950,10.933321,-6.010911,-0.806132, 5.119797,-8.080989,24.352950,10.933321,-6.010911,-0.806133, 5.119798,-8.080989,24.352950, 0.156952, 0.720610,14.612856,69.788550,300.347504, 0.725807, 0.266263,1832541.250000,300.000000,69.549992,-0.000001,-0.000001,-0.000001,-0.000001, 0.000000, 0.000000, 0.000000,-0.000001, 1.013489,-0.003012, 0.001981, 0.020932,-0.072043,,,,,
Mult,USC,250218 10:02:24.146, 0.000000, 0.000000, 0.000000, 0.000000, 0.000276, 0.000000,-0.000002, 8.437729,-6.587622,-8.614327, 2.413401,-11.480322,23.379763, 8.437729,-6.587622,-8.614327, 2.413401,-11.480322,23.379763, 8.437728,-6.587622,-8.614328, 2.413402,-11.480322,23.379763, 0.156952, 0.720610,14.612856,69.788550,300.347504, 0.725807, 0.266263,1832541.250000,300.000000,69.549992,-0.000001,-0.000001, 0.000000,-0.000001, 0.000000, 0.000000,-0.000001,-0.000001, 1.010568,-0.003387, 0.001526, 0.022662,-0.055379,,,,,
Mult,USC,250218 10:02:24.158, 0.000000, 0.000000, 0.000000, 0.000000, 0.000276, 0.000000,-0.000002, 8.465849,-5.980444,-0.061466, 3.014376,-14.052779,21.556938, 8.465849,-5.980444,-0.061466, 3.014376,-14.052779,21.556938, 8.465849,-5.980444,-0.061466, 3.014377,-14.052779,21.556938, 0.156952, 0.720610,14.612856,69.788550,300.347504, 0.725807, 0.266263,1832541.250000,300.000000,69.549992,-0.000000,-0.000001,-0.000001,-0.000001, 0.000000,-0.000001,-0.000001,-0.000001, 1.011176,-0.003174, 0.001743, 0.020450,-0.055521,,,,,
Mult,USC,250218 10:02:24.170, 0.000000, 0.000000, 0.000000, 0.000000, 0.000276, 0.000000,-0.000002,11.443604,-5.213116,14.588135, 1.402269,-8.373348,19.572271,11.443604,-5.213116,14.588135, 1.402269,-8.373348,19.572271,11.443604,-5.213116,14.588135, 1.402270,-8.373348,19.572271, 0.156952, 0.720610,14.612856,69.788550,300.347504, 0.725807, 0.266263,1832541.250000,300.000000,69.549992,-0.000001,-0.000001, 0.000000, 0.000000, 0.000000,-0.000001, 0.000000, 0.000000, 1.016473,-0.003491, 0.001712, 0.020581,-0.075609,,,,,
Mult,USC,250218 10:02:24.182, 0.000000, 0.000000, 0.000000, 0.000000, 0.000276, 0.000000,-0.000002,11.346624,-4.728472, 4.026346, 2.362267,-10.331523,18.108129,11.346624,-4.728472, 4.026346, 2.362267,-10.331523,18.108129,11.346624,-4.728472, 4.026345, 2.362268,-10.331523,18.108129, 0.156952, 0.720610,14.612856,69.788550,300.347504, 0.725807, 0.266263,1832541.250000,300.000000,69.549992,-0.000001,-0.000000,-0.000001,-0.000001, 0.000000,-0.000001,-0.000001, 0.000000, 1.013074,-0.003278, 0.001788, 0.023233,-0.074976,,,,,
Mult,USC,250218 10:02:24.194, 0.000000, 0.000000, 0.000000, 0.000000, 0.000276, 0.000000,-0.000002, 9.843633,-4.367853,-9.932775,-2.372596,-11.912154,17.336572, 9.843633,-4.367853,-9.932775,-2.372596,-11.912154,17.336572, 9.843633,-4.367853,-9.932775,-2.372596,-11.912154,17.336572, 0.156952, 0.720610,14.612856,69.788550,300.347504, 0.725807, 0.266263,1832541.250000,300.000000,69.549992,-0.000000,-0.000000, 0.000001,-0.000001, 0.000000,-0.000001,-0.000001, 0.000000, 1.012595,-0.002930, 0.002191, 0.021777,-0.065103,,,,,
Mult,USC,250218 10:02:24.206, 0.000000, 0.000000, 0.000000, 0.000000, 0.000276, 0.000000,-0.000002, 8.494558,-3.718564, 0.463886,-1.882317,-12.333645,16.855684, 8.494558,-3.718564, 0.463886,-1.882317,-12.333645,16.855684, 8.494558,-3.718564, 0.463886,-1.882317,-12.333645,16.855684, 0.156952, 0.720610,14.612856,69.788550,300.347504, 0.725807, 0.266263,1832541.250000,300.000000,69.549992,-0.000000,-0.000001, 0.000000, 0.000000,-0.000001, 0.000000, 0.000000,-0.000001, 1.012036,-0.003204, 0.002103, 0.019122,-0.056041,,,,,
Mult,USC,250218 10:02:24.218, 0.000000, 0.000000, 0.000000, 0.000000, 0.000276,-0.000009, 0.000000, 9.424634,-3.458203,14.026797,-3.873122,-20.505722,16.775998, 9.424634,-3.458203,14.026797,-3.873122,-20.505722,16.775998, 9.424634,-3.458205,14.026797,-3.873125,-20.505721,16.775998, 0.156948, 0.721338,14.628142,69.788550,300.377472, 0.725451, 0.266290,1831459.750000,300.000000,69.549992,-0.000001,-0.000000,-0.000001,-0.000001,-0.000001,-0.000001, 0.000000, 0.000001, 1.011685,-0.003357, 0.001712, 0.020609,-0.062442,,,,,
Mult,USC,250218 10:02:24.230, 0.000000, 0.000000, 0.000000, 0.000000, 0.000276,-0.000009, 0.000000,10.110640,-3.915713, 9.715248,-1.447850,-16.384061,17.692327,10.110640,-3.915713, 9.715248,-1.447850,-16.384061,17.692327,10.110639,-3.915715, 9.715248,-1.447853,-16.384061,17.692327, 0.156948, 0.721338,14.628142,69.788550,300.377472, 0.725451, 0.266290,1831459.750000,300.000000,69.549992,-0.000001,-0.000000, 0.000000, 0.000000,-0.000001,-0.000001, 0.000000, 0.000000, 1.011221,-0.003052, 0.001724, 0.024017,-0.066912,,,,,
Mult,USC,250218 10:02:24.242, 0.000000, 0.000000, 0.000000, 0.000000, 0.000276,-0.000009, 0.000000, 8.675095,-4.696928,-9.419849,-2.173895,-13.535060,19.504008, 8.675095,-4.696928,-9.419849,-2.173895,-13.535060,19.504008, 8.675094,-4.696929,-9.419849,-2.173897,-13.535060,19.504008, 0.156948, 0.721338,14.628142,69.788550,300.377472, 0.725451, 0.266290,1831459.750000,300.000000,69.549992,-0.000001,-0.000001,-0.000001,-0.000001, 0.000000,-0.000001, 0.000001, 0.000000, 1.010358,-0.003491, 0.001846, 0.020398,-0.057263,,,,,
Mult,USC,250218 10:02:24.254, 0.000000, 0.000000, 0.000000, 0.000000, 0.000276,-0.000009, 0.000000, 9.538326,-5.016004,-7.235210, 0.453804,-16.241118,20.987978, 9.538326,-5.016004,-7.235210, 0.453804,-16.241118,20.987978, 9.538326,-5.016005,-7.235210, 0.453801,-16.241118,20.987978, 0.156948, 0.721338,14.628142,69.788550,300.377472, 0.725451, 0.266290,1831459.750000,300.000000,69.549992,-0.000000,-0.000000, 0.000000,-0.000001,-0.000001, 0.000000, 0.000000,-0.000001, 1.010352,-0.003357, 0.002066, 0.018524,-0.062994,,,,,
Mult,USC,250218 10:02:24.266, 0.000000, 0.000000, 0.000000, 0.000000, 0.000276,-0.000009, 0.000000, 9.522284,-5.678249,10.456063, 1.175427,-20.230749,22.145270, 9.522284,-5.678249,10.456063, 1.175427,-20.230749,22.145270, 9.522284,-5.678251,10.456063, 1.175424,-20.230749,22.145270, 0.156948, 0.721338,14.628142,69.788550,300.377472, 0.725451, 0.266290,1831459.750000,300.000000,69.549992,-0.000001,-0.000001,-0.000001, 0.000000,-0.000001,-0.000001, 0.000000, 0.000000, 1.010992,-0.003204, 0.001807, 0.022449,-0.062733,,,,,
Mult,USC,250218 10:02:24.278, 0.000000, 0.000000, 0.000000, 0.000000, 0.000276,-0.000009, 0.000000, 9.786225,-6.676117,11.767451, 1.769984,-14.857192,23.041870, 9.786225,-6.676117,11.767451, 1.769984,-14.857192,23.041870, 9.786224,-6.676119,11.767451, 1.769982,-14.857192,23.041870, 0.156948, 0.721338,14.628142,69.788550,300.377472, 0.725451, 0.266290,1831459.750000,300.000000,69.549992,-0.000001,-0.000000, 0.000000,-0.000001,-0.000001,-0.000001, 0.000000,-0.000001, 1.011786,-0.003186, 0.001935, 0.022668,-0.064274,,,,,
Mult,USC,250218 10:02:24.290, 0.000000, 0.000000, 0.000000, 0.000000, 0.000276,-0.000009, 0.000000, 9.110153,-6.745815,-3.462130, 2.004312,-6.077941,24.085804, 9.110153,-6.745815,-3.462130, 2.004312,-6.077941,24.085804, 9.110152,-6.745816,-3.462130, 2.004311,-6.077941,24.085804, 0.156948, 0.721338,14.628142,69.788550,300.377472, 0.725451, 0.266290,1831459.750000,300.000000,69.549992,-0.000001,-0.000001, 0.000000,-0.000001, 0.000001,-0.000001,-0.000001,-0.000001, 1.009943,-0.002808, 0.001822, 0.021689,-0.059674,,,,,
Mult,USC,250218 10:02:24.302, 0.000000, 0.000000, 0.000000, 0.000000, 0.000276,-0.000009, 0.000000, 8.305055,-7.195779,-13.151222, 3.337998,-9.592401,24.377938, 8.305055,-7.195779,-13.151222, 3.337998,-9.592401,24.377938, 8.305054,-7.195781,-13.151222, 3.337996,-9.592401,24.377938, 0.156948, 0.721338,14.628142,69.788550,300.377472, 0.725451, 0.266290,1831459.750000,300.000000,69.549992,-0.000001,-0.000000, 0.000001, 0.000000,-0.000001,-0.000001, 0.000001,-0.000001, 1.010706,-0.003461, 0.001877, 0.021695,-0.054489,,,,,
Mult,USC,250218 10:02:24.314, 0.000000, 0.000000, 0.000000, 0.000000, 0.000276, 0.000002,-0.000002,11.383084,-6.003901, 7.735424, 5.461488,-4.472938,23.776551,11.383084,-6.003901, 7.735424, 5.461488,-4.472938,23.776551,11.383085,-6.003901, 7.735423, 5.461489,-4.472938,23.776551, 0.156936, 0.721186,14.619362,69.788550,300.372650, 0.725639, 0.266285,1831964.625000,300.000000,69.549992, 0.000001,-0.000000,-0.000001,-0.000001, 0.000000,-0.000001,-0.000001, 0.000000, 1.010767,-0.003021, 0.001935, 0.023395,-0.075091,,,,,
Mult,USC,250218 10:02:24.326, 0.000000, 0.000000, 0.000000, 0.000000, 0.000276, 0.000002,-0.000002,12.362188,-5.842786,16.851787,-0.117285,-21.650318,23.322011,12.362188,-5.842786,16.851787,-0.117285,-21.650318,23.322011,12.362188,-5.842785,16.851787,-0.117283,-21.650318,23.322011, 0.156936, 0.721186,14.619362,69.788550,300.372650, 0.725639, 0.266285,1831964.625000,300.000000,69.549992, 0.000001,-0.000001,-0.000001,-0.000001, 0.000000, 0.000000, 0.000000, 0.000000, 1.011716,-0.003143, 0.002103, 0.021844,-0.081693,,,,,
Mult,USC,250218 10:02:24.338, 0.000000, 0.000000, 0.000000, 0.000000, 0.000276, 0.000002,-0.000002,10.936997,-5.096157,-0.956032, 0.468244,-16.646208,22.995323,10.936997,-5.096157,-0.956032, 0.468244,-16.646208,22.995323,10.936998,-5.096157,-0.956033, 0.468246,-16.646208,22.995323, 0.156936, 0.721186,14.619362,69.788550,300.372650, 0.725639, 0.266285,1831964.625000,300.000000,69.549992,-0.000001,-0.000000, 0.000000, 0.000000,-0.000001,-0.000001,-0.000001,-0.000001, 1.016727,-0.002899, 0.001877, 0.020584,-0.072185,,,,,
Mult,USC,250218 10:02:24.350, 0.000000, 0.000000, 0.000000, 0.000000, 0.000276, 0.000002,-0.000002, 9.126905,-4.219754,-10.001992,-1.515997,-1.748486,22.961457, 9.126905,-4.219754,-10.001992,-1.515997,-1.748486,22.961457, 9.126905,-4.219754,-10.001992,-1.515996,-1.748486,22.961457, 0.156936, 0.721186,14.619362,69.788550,300.372650, 0.725639, 0.266285,1831964.625000,300.000000,69.549992,-0.000000,-0.000000,-0.000001, 0.000000,-0.000001,-0.000001, 0.000000, 0.000000, 1.013354,-0.003369, 0.001422, 0.023074,-0.060398,,,,,
Mult,USC,250218 10:02:24.362, 0.000000, 0.000000, 0.000000, 0.000000, 0.000276, 0.000002,-0.000002, 8.835510,-4.162387,-3.601749, 1.311413,-19.851611,22.590968, 8.835510,-4.162387,-3.601749, 1.311413,-19.851611,22.590968, 8.835510,-4.162387,-3.601749, 1.311415,-19.851611,22.590968, 0.156936, 0.721186,14.619362,69.788550,300.372650, 0.725639, 0.266285,1831964.625000,300.000000,69.549992,-0.000001, 0.000001, 0.000000,-0.000001, 0.000000,-0.000001, 0.000000,-0.000001, 1.012170,-0.003082, 0.002225, 0.023602,-0.058483,,,,,
Mult,USC,250218 10:02:24.374, 0.000000, 0.000000, 0.000000, 0.000000, 0.000276, 0.000002,-0.000002, 9.656669,-4.514706,17.604712,-3.047395,-7.035382,22.203145, 9.656669,-4.514706,17.604712,-3.047395,-7.035382,22.203145, 9.656670,-4.514706,17.604712,-3.047394,-7.035382,22.203145, 0.156936, 0.721186,14.619362,69.788550,300.372650, 0.725639, 0.266285,1831964.625000,300.000000,69.549992,-0.000000,-0.000000,-0.000001,-0.000001, 0.000000, 0.000000,-0.000001,-0.000001, 1.010425,-0.003174, 0.001776, 0.019669,-0.063801,,,,,
Mult,USC,250218 10:02:24.386, 0.000000, 0.000000, 0.000000, 0.000000, 0.000276, 0.000002,-0.000002, 9.455281,-5.090375, 6.190495, 1.452834,-17.946772,22.245904, 9.455281,-5.090375, 6.190495, 1.452834,-17.946772,22.245904, 9.455281,-5.090374, 6.190495, 1.452836,-17.946772,22.245904, 0.156936, 0.721186,14.619362,69.788550,300.372650, 0.725639, 0.266285,1831964.625000,300.000000,69.549992,-0.000000,-0.000001,-0.000001,-0.000001,-0.000001,-0.000001, 0.000000,-0.000001, 1.012140,-0.002826, 0.001712, 0.020267,-0.062372,,,,,
Mult,USC,250218 10:02:24.398, 0.000000, 0.000000, 0.000000, 0.000000, 0.000276, 0.000002,-0.000002, 9.572416,-5.143585,-11.794412, 2.000009,-16.456002,22.176983, 9.572416,-5.143585,-11.794412, 2.000009,-16.456002,22.176983, 9.572416,-5.143585,-11.794412, 2.000011,-16.456002,22.176982, 0.156936, 0.721186,14.619362,69.788550,300.372650, 0.725639, 0.266285,1831964.625000,300.000000,69.549992,-0.000001,-0.000001, 0.000000, 0.000000, 0.000000, 0.000000,-0.000001, 0.000000, 1.014340,-0.002917, 0.001678, 0.022339,-0.063358,,,,,
Mult,USC,250218 10:02:24.410, 0.000000, 0.000000, 0.000000, 0.000000, 0.000276, 0.000000,-0.000000, 2.353472,-0.901112,-0.564544, 0.660782,-0.710194, 4.287418, 2.353472,-0.901112,-0.564544, 0.660782,-0.710194, 4.287418, 2.353472,-0.901112,-0.564544, 0.660782,-0.710194, 4.287418, 0.156936, 0.721186,14.619362,69.788550,300.372650, 0.725639, 0.266285,1831964.625000,300.000000,69.549992,-0.000000,-0.000001, 0.000001, 0.000000,-0.000001,-0.000001, 0.000001,-0.000001, 1.002618,-0.000623, 0.000336, 0.004437,-0.015578,,,,,
Mult,USC,250218 10:02:24.422, 0.000000, 0.000000, 0.000000, 0.000000, 0.000276,-0.000002, 0.000000,12.228782,-5.101414,11.477441,-3.358314,-30.630546,21.079425,12.228782,-5.101414,11.477441,-3.358314,-30.630546,21.079425,12.228782,-5.101415,11.477441,-3.358315,-30.630546,21.079425, 0.156948, 0.720924,14.622090,69.819475,300.317200, 0.725465, 0.266228,1831778.500000,300.000000,69.549992,-0.000000,-0.000001,-0.000001, 0.000000, 0.000000, 0.000000, 0.000000,-0.000001, 1.013733,-0.002979, 0.001840, 0.019949,-0.080857,,,,,
Mult,USC,250218 10:02:24.434, 0.000000, 0.000000, 0.000000, 0.000000, 0.000276,-0.000002, 0.000000, 9.776188,-4.511577,13.089223,-0.128900,-2.975265,21.007534, 9.776188,-4.511577,13.089223,-0.128900,-2.975265,21.007534, 9.776188,-4.511577,13.089223,-0.128900,-2.975265,21.007534, 0.156948, 0.720924,14.622090,69.819475,300.317200, 0.725465, 0.266228,1831778.500000,300.000000,69.549992,-0.000000,-0.000001,-0.000001,-0.000001, 0.000000, 0.000000, 0.000001,-0.000001, 1.014597,-0.003207, 0.002069, 0.022122,-0.064583,,,,,
Mult,USC,250218 10:02:24.446, 0.000000, 0.000000, 0.000000, 0.000000, 0.000276,-0.000002, 0.000000, 7.429535,-5.331677,-7.968306,-1.374087,-21.057373,22.079525, 7.429535,-5.331677,-7.968306,-1.374087,-21.057373,22.079525, 7.429535,-5.331677,-7.968306,-1.374088,-21.057373,22.079525, 0.156948, 0.720924,14.622090,69.819475,300.317200, 0.725465, 0.266228,1831778.500000,300.000000,69.549992,-0.000001,-0.000001, 0.000001, 0.000000, 0.000000,-0.000001, 0.000000, 0.000000, 1.014218,-0.002768, 0.002133, 0.022815,-0.048868,,,,,
Mult,USC,250218 10:02:24.458, 0.000000, 0.000000, 0.000000, 0.000000, 0.000276,-0.000002, 0.000000, 8.020343,-5.047905,-6.321597, 1.298514,-1.653296,22.866558, 8.020343,-5.047905,-6.321597, 1.298514,-1.653296,22.866558, 8.020343,-5.047906,-6.321597, 1.298514,-1.653296,22.866558, 0.156948, 0.720924,14.622090,69.819475,300.317200, 0.725465, 0.266228,1831778.500000,300.000000,69.549992,-0.000001,-0.000001,-0.000001,-0.000001, 0.000000,-0.000001,-0.000001,-0.000001, 1.012683,-0.003296, 0.002493, 0.019385,-0.052809,,,,,
Mult,USC,250218 10:02:24.470, 0.000000, 0.000000, 0.000000, 0.000000, 0.000276,-0.000002, 0.000000,10.275473,-5.604125, 7.996554, 0.468680,-18.173890,23.232020,10.275473,-5.604125, 7.996554, 0.468680,-18.173890,23.232020,10.275473,-5.604126, 7.996554, 0.468679,-18.173890,23.232020, 0.156948, 0.720924,14.622090,69.819475,300.317200, 0.725465, 0.266228,1831778.500000,300.000000,69.549992,-0.000000,-0.000001,-0.000001,-0.000001,-0.000001,-0.000001,-0.000001, 0.000000, 1.013824,-0.003082, 0.001974, 0.019260,-0.067730,,,,,
Mult,USC,250218 10:02:24.482, 0.000000, 0.000000, 0.000000, 0.000000, 0.000276,-0.000002, 0.000000,10.867873,-5.926364,10.474053, 3.785609,-13.885097,22.938494,10.867873,-5.926364,10.474053, 3.785609,-13.885097,22.938494,10.867872,-5.926365,10.474053, 3.785608,-13.885097,22.938494, 0.156948, 0.720924,14.622090,69.819475,300.317200, 0.725465, 0.266228,1831778.500000,300.000000,69.549992,-0.000001,-0.000001, 0.000000,-0.000001, 0.000000,-0.000001,-0.000001,-0.000001, 1.013092,-0.002899, 0.001660, 0.022101,-0.071697,,,,,
Mult,USC,250218 10:02:24.494, 0.000000, 0.000000, 0.000000, 0.000000, 0.000276,-0.000002, 0.000000,10.807864,-5.920979,-1.270879, 3.606758,-9.978437,22.246648,10.807864,-5.920979,-1.270879, 3.606758,-9.978437,22.246648,10.807864,-5.920980,-1.270879, 3.606758,-9.978437,22.246648, 0.156948, 0.720924,14.622090,69.819475,300.317200, 0.725465, 0.266228,1831778.500000,300.000000,69.549992,-0.000001,-0.000000,-0.000001, 0.000001,-0.000001,-0.000001,-0.000001,-0.000001, 1.013098,-0.003140, 0.002130, 0.021060,-0.071178,,,,,
Mult,USC,250218 10:02:24.506, 0.000000, 0.000000, 0.000000, 0.000000, 0.000276,-0.000002, 0.000000, 9.583799,-6.469299,-6.169671, 1.810825,-8.526845,20.828911, 9.583799,-6.469299,-6.169671, 1.810825,-8.526845,20.828911, 9.583799,-6.469299,-6.169671, 1.810825,-8.526846,20.828911, 0.156948, 0.720924,14.622090,69.819475,300.317200, 0.725465, 0.266228,1831778.500000,300.000000,69.549992,-0.000001,-0.000001, 0.000000,-0.000001,-0.000001,-0.000001,-0.000001, 0.000000, 1.015173,-0.003085, 0.002225, 0.019379,-0.062927,,,,,
Mult,USC,250218 10:02:24.518, 0.000000, 0.000000, 0.000000, 0.000000, 0.000276,-0.000002,-0.000002, 9.896668,-5.672277, 3.883584, 0.131607,-16.516163,19.394383, 9.896668,-5.672277, 3.883584, 0.131607,-16.516163,19.394383, 9.896668,-5.672277, 3.883584, 0.131607,-16.516163,19.394383, 0.156942, 0.720755,14.609407,69.819475,300.277771, 0.725379, 0.266193,1831802.125000,300.000000,69.549992,-0.000000,-0.000000,-0.000001, 0.000000,-0.000001,-0.000001, 0.000001,-0.000001, 1.017044,-0.003085, 0.001648, 0.021121,-0.065074,,,,,
Mult,USC,250218 10:02:24.530, 0.000000, 0.000000, 0.000000, 0.000000, 0.000276,-0.000002,-0.000002, 9.372808,-4.946236,12.360131, 0.768281,-2.365472,18.737054, 9.372808,-4.946236,12.360131, 0.768281,-2.365472,18.737054, 9.372808,-4.946237,12.360131, 0.768282,-2.365472,18.737054, 0.156942, 0.720755,14.609407,69.819475,300.277771, 0.725379, 0.266193,1831802.125000,300.000000,69.549992,-0.000001,-0.000001,-0.000001, 0.000000,-0.000001, 0.000000,-0.000001, 0.000000, 1.016226,-0.002960, 0.001880, 0.022220,-0.061775,,,,,
Mult,USC,250218 10:02:24.542, 0.000000, 0.000000, 0.000000, 0.000000, 0.000276,-0.000002,-0.000002, 8.341788,-4.909660,-2.472348,-2.083013,-30.705366,19.330682, 8.341788,-4.909660,-2.472348,-2.083013,-30.705366,19.330682, 8.341787,-4.909660,-2.472349,-2.083014,-30.705366,19.330682, 0.156942, 0.720755,14.609407,69.819475,300.277771, 0.725379, 0.266193,1831802.125000,300.000000,69.549992,-0.000001,-0.000001, 0.000000,-0.000001,-0.000001,-0.000001,-0.000001, 0.000000, 1.010733,-0.003265, 0.001776, 0.019327,-0.054919,,,,,
Mult,USC,250218 10:02:24.554, 0.000000, 0.000000, 0.000000, 0.000000, 0.000276,-0.000002,-0.000002, 9.395874,-4.611873, 0.966105,-1.267784, 4.842339,19.962197, 9.395874,-4.611873, 0.966105,-1.267784, 4.842339,19.962197, 9.395874,-4.611874, 0.966105,-1.267783, 4.842339,19.962197, 0.156942, 0.720755,14.609407,69.819475,300.277771, 0.725379, 0.266193,1831802.125000,300.000000,69.549992,-0.000001,-0.000001, 0.000000, 0.000000,-0.000001,-0.000001, 0.000000, 0.000000, 1.011536,-0.002991, 0.001910, 0.018747,-0.061780,,,,,
Mult,USC,250218 10:02:24.566, 0.000000, 0.000000, 0.000000, 0.000000, 0.000276,-0.000002,-0.000002,11.134653,-4.735507, 0.922601,-0.327404,-35.852453,20.882686,11.134653,-4.735507, 0.922601,-0.327404,-35.852453,20.882686,11.134653,-4.735507, 0.922600,-0.327405,-35.852453,20.882686, 0.156942, 0.720755,14.609407,69.819475,300.277771, 0.725379, 0.266193,1831802.125000,300.000000,69.549992,-0.000000,-0.000001,-0.000001, 0.000000, 0.000000, 0.000000,-0.000001, 0.000000, 1.013760,-0.003235, 0.002002, 0.022220,-0.073630,,,,,
Mult,USC,250218 10:02:24.578, 0.000000, 0.000000, 0.000000, 0.000000, 0.000276,-0.000002,-0.000002, 9.779040,-4.572980, 7.860924, 2.334893,-9.888330,20.953581, 9.779040,-4.572980, 7.860924, 2.334893,-9.888330,20.953581, 9.779040,-4.572981, 7.860924, 2.334893,-9.888330,20.953581, 0.156942, 0.720755,14.609407,69.819475,300.277771, 0.725379, 0.266193,1831802.125000,300.000000,69.549992,-0.000001,-0.000001,-0.000001,-0.000001,-0.000001,-0.000001, 0.000001,-0.000001, 1.014789,-0.003021, 0.001941, 0.019925,-0.064634,,,,,
Mult,USC,250218 10:02:24.590, 0.000000, 0.000000, 0.000000, 0.000000, 0.000276,-0.000002,-0.000002, 7.704224,-5.249419,-0.512517, 1.020753,-18.528180,21.074271, 7.704224,-5.249419,-0.512517, 1.020753,-18.528180,21.074271, 7.704223,-5.249419,-0.512517, 1.020753,-18.528180,21.074271, 0.156942, 0.720755,14.609407,69.819475,300.277771, 0.725379, 0.266193,1831802.125000,300.000000,69.549992,-0.000001,-0.000000, 0.000000,-0.000001,-0.000001,-0.000001,-0.000001, 0.000000, 1.012457,-0.003296, 0.001944, 0.017447,-0.050580,,,,,
Mult,USC,250218 10:02:24.602, 0.000000, 0.000000, 0.000000, 0.000000, 0.000276,-0.000002,-0.000002, 8.398087,-5.400888,-2.505208, 1.070848,-6.018851,20.621580, 8.398087,-5.400888,-2.505208, 1.070848,-6.018851,20.621580, 8.398087,-5.400888,-2.505208, 1.070848,-6.018851,20.621580, 0.156942, 0.720755,14.609407,69.819475,300.277771, 0.725379, 0.266193,1831802.125000,300.000000,69.549992,-0.000001,-0.000001,-0.000001,-0.000001, 0.000000,-0.000001,-0.000001,-0.000001, 1.013098,-0.003052, 0.002133, 0.019073,-0.055144,,,,,
Mult,USC,250218 10:02:24.614, 0.000000, 0.000000, 0.000000, 0.000000, 0.000276,-0.000002, 0.000000,11.020141,-5.261307, 3.464941, 0.232908,-12.740653,20.074695,11.020141,-5.261307, 3.464941, 0.232908,-12.740653,20.074695,11.020141,-5.261308, 3.464941, 0.232907,-12.740653,20.074695, 0.156931, 0.720381,14.610608,69.819475,300.453522, 0.725553, 0.266349,1831171.000000,300.000000,69.549992,-0.000001,-0.000001,-0.000001,-0.000001, 0.000000, 0.000000,-0.000001,-0.000001, 1.012555,-0.003113, 0.001746, 0.022220,-0.072649,,,,,
Mult,USC,250218 10:02:24.626, 0.000000, 0.000000, 0.000000, 0.000000, 0.000276,-0.000002, 0.000000,11.536287,-4.996190, 4.750415, 1.615957,-9.819455,19.981921,11.536287,-4.996190, 4.750415, 1.615957,-9.819455,19.981921,11.536287,-4.996190, 4.750415, 1.615956,-9.819456,19.981921, 0.156931, 0.720381,14.610608,69.819475,300.453522, 0.725553, 0.266349,1831171.000000,300.000000,69.549992,-0.000000,-0.000000,-0.000001, 0.000001,-0.000001,-0.000001, 0.000000, 0.000000, 1.012131,-0.003021, 0.001776, 0.019199,-0.076188,,,,,
Mult,USC,250218 10:02:24.638, 0.000000, 0.000000, 0.000000, 0.000000, 0.000276,-0.000002, 0.000000,10.308081,-4.482341,-2.178442, 0.283064,-16.122656,20.352138,10.308081,-4.482341,-2.178442, 0.283064,-16.122656,20.352138,10.308081,-4.482341,-2.178442, 0.283063,-16.122656,20.352138, 0.156931, 0.720381,14.610608,69.819475,300.453522, 0.725553, 0.266349,1831171.000000,300.000000,69.549992,-0.000001,-0.000001, 0.000000,-0.000001, 0.000000, 0.000000,-0.000001, 0.000000, 1.012292,-0.002991, 0.001910, 0.018747,-0.068118,,,,,
Mult,USC,250218 10:02:24.650, 0.000000, 0.000000, 0.000000, 0.000000, 0.000276,-0.000002, 0.000000, 9.929590,-5.062069,-0.547497,-2.649493,-4.476488,21.415264, 9.929590,-5.062069,-0.547497,-2.649493,-4.476488,21.415264, 9.929590,-5.062069,-0.547497,-2.649494,-4.476488,21.415264, 0.156931, 0.720381,14.610608,69.819475,300.453522, 0.725553, 0.266349,1831171.000000,300.000000,69.549992, 0.000001, 0.000001, 0.000000,-0.000001, 0.000000, 0.000000,-0.000001,-0.000001, 1.011844,-0.003522, 0.001743, 0.020267,-0.065299,,,,,
Mult,USC,250218 10:02:24.662, 0.000000, 0.000000, 0.000000, 0.000000, 0.000276,-0.000002, 0.000000,11.305580,-4.106988, 6.655581,-1.819181,-18.873232,22.721446,11.305580,-4.106988, 6.655581,-1.819181,-18.873232,22.721446,11.305579,-4.106988, 6.655581,-1.819182,-18.873232,22.721446, 0.156931, 0.720381,14.610608,69.819475,300.453522, 0.725553, 0.266349,1831171.000000,300.000000,69.549992,-0.000000,-0.000001,-0.000001,-0.000001, 0.000000, 0.000000, 0.000000,-0.000001, 1.012845,-0.003357, 0.001724, 0.021780,-0.074874,,,,,
Mult,USC,250218 10:02:24.674, 0.000000, 0.000000, 0.000000, 0.000000, 0.000276,-0.000002, 0.000000,10.993288,-4.378902, 4.848054, 0.602411,-11.084814,23.789945,10.993288,-4.378902, 4.848054, 0.602411,-11.084814,23.789945,10.993287,-4.378902, 4.848054, 0.602410,-11.084814,23.789945, 0.156931, 0.720381,14.610608,69.819475,300.453522, 0.725553, 0.266349,1831171.000000,300.000000,69.549992,-0.000001,-0.000000,-0.000002,-0.000001,-0.000001,-0.000001,-0.000001, 0.000000, 1.010358,-0.003082, 0.001999, 0.019046,-0.072740,,,,,
Mult,USC,250218 10:02:24.686, 0.000000, 0.000000, 0.000000, 0.000000, 0.000276,-0.000002, 0.000000, 8.386313,-5.422258,-7.298360, 2.447836,-14.634173,24.701842, 8.386313,-5.422258,-7.298360, 2.447836,-14.634173,24.701842, 8.386312,-5.422258,-7.298360, 2.447835,-14.634173,24.701842, 0.156931, 0.720381,14.610608,69.819475,300.453522, 0.725553, 0.266349,1831171.000000,300.000000,69.549992,-0.000001,-0.000001, 0.000000, 0.000000,-0.000001, 0.000000,-0.000001,-0.000001, 1.012112,-0.003204, 0.001712, 0.019983,-0.055312,,,,,
Mult,USC,250218 10:02:24.698, 0.000000, 0.000000, 0.000000, 0.000000, 0.000276,-0.000002, 0.000000, 8.075878,-6.532212,-0.865003,-1.429680,-14.304102,24.814338, 8.075878,-6.532212,-0.865003,-1.429680,-14.304102,24.814338, 8.075878,-6.532212,-0.865003,-1.429681,-14.304102,24.814338, 0.156931, 0.720381,14.610608,69.819475,300.453522, 0.725553, 0.266349,1831171.000000,300.000000,69.549992,-0.000001,-0.000001,-0.000001, 0.000000, 0.000000, 0.000000,-0.000001,-0.000001, 1.012106,-0.003113, 0.002167, 0.022192,-0.052729,,,,,
Mult,USC,250218 10:02:24.710, 0.000000, 0.000000, 0.000000, 0.000000, 0.000276,-0.000000, 0.000000, 2.013205,-1.298116, 1.968101, 0.392927,-3.225534, 4.900317, 2.013205,-1.298116, 1.968101, 0.392927,-3.225534, 4.900317, 2.013205,-1.298116, 1.968101, 0.392926,-3.225534, 4.900317, 0.156931, 0.720381,14.610608,69.819475,300.453522, 0.725553, 0.266349,1831171.000000,300.000000,69.549992,-0.000000,-0.000000, 0.000000, 0.000000, 0.000000,-0.000001, 0.000000,-0.000001, 1.002203,-0.000562, 0.000464, 0.003964,-0.013239,,,,,
Mult,USC,250218 10:02:24.722, 0.000000, 0.000000, 0.000000, 0.000000, 0.000276, 0.000002, 0.000000,10.707425,-6.476995, 6.624810, 4.445556,-15.731268,24.186385,10.707425,-6.476995, 6.624810, 4.445556,-15.731268,24.186385,10.707425,-6.476995, 6.624810, 4.445556,-15.731268,24.186385, 0.156918, 0.720737,14.624119,69.819475,300.468323, 0.726382, 0.266362,1833172.625000,300.000000,69.549992,-0.000000, 0.000001,-0.000001, 0.000000, 0.000000, 0.000000,-0.000001, 0.000000, 1.009488,-0.003217, 0.001880, 0.018692,-0.070501,,,,,
Mult,USC,250218 10:02:24.734, 0.000000, 0.000000, 0.000000, 0.000000, 0.000276, 0.000002, 0.000000, 9.208145,-6.425647,-5.876053, 4.542708,-15.841784,23.556711, 9.208145,-6.425647,-5.876053, 4.542708,-15.841784,23.556711, 9.208145,-6.425647,-5.876053, 4.542709,-15.841783,23.556711, 0.156918, 0.720737,14.624119,69.819475,300.468323, 0.726382, 0.266362,1833172.625000,300.000000,69.549992,-0.000001,-0.000001,-0.000001, 0.000001,-0.000001,-0.000001,-0.000001, 0.000000, 1.015256,-0.003143, 0.002069, 0.019232,-0.060575,,,,,
Mult,USC,250218 10:02:24.746, 0.000000, 0.000000, 0.000000, 0.000000, 0.000276, 0.000002, 0.000000, 8.326909,-6.331342,-3.872519,-1.204446,-16.073946,22.717327, 8.326909,-6.331342,-3.872519,-1.204446,-16.073946,22.717327, 8.326909,-6.331341,-3.872519,-1.204445,-16.073946,22.717327, 0.156918, 0.720737,14.624119,69.819475,300.468323, 0.726382, 0.266362,1833172.625000,300.000000,69.549992,-0.000001,-0.000001,-0.000001, 0.000000, 0.000000,-0.000001, 0.000000,-0.000001, 1.012817,-0.003174, 0.002133, 0.022357,-0.054508,,,,,
Mult,USC,250218 10:02:24.758, 0.000000, 0.000000, 0.000000, 0.000000, 0.000276, 0.000002, 0.000000,10.506932,-4.857712,11.208119, 0.945546,-10.302219,21.453077,10.506932,-4.857712,11.208119, 0.945546,-10.302219,21.453077,10.506932,-4.857712,11.208119, 0.945546,-10.302219,21.453077, 0.156918, 0.720737,14.624119,69.819475,300.468323, 0.726382, 0.266362,1833172.625000,300.000000,69.549992,-0.000001,-0.000001, 0.000000,-0.000001,-0.000001,-0.000001,-0.000001,-0.000001, 1.011176,-0.002960, 0.001746, 0.019357,-0.069430,,,,,
Mult,USC,250218 10:02:24.770, 0.000000, 0.000000, 0.000000, 0.000000, 0.000276, 0.000002, 0.000000,10.902057,-4.365306,10.737254, 0.021097,-22.348973,20.544657,10.902057,-4.365306,10.737254, 0.021097,-22.348973,20.544657,10.902057,-4.365305,10.737254, 0.021098,-22.348973,20.544657, 0.156918, 0.720737,14.624119,69.819475,300.468323, 0.726382, 0.266362,1833172.625000,300.000000,69.549992,-0.000001,-0.000001,-0.000001, 0.000000, 0.000000, 0.000000, 0.000000, 0.000000, 1.012909,-0.003174, 0.001743, 0.017767,-0.072202,,,,,
Mult,USC,250218 10:02:24.782, 0.000000, 0.000000, 0.000000, 0.000000, 0.000276, 0.000002, 0.000000, 9.894551,-4.280496,-4.784522, 1.087111,-9.055302,19.993341, 9.894551,-4.280496,-4.784522, 1.087111,-9.055302,19.993341, 9.894551,-4.280496,-4.784522, 1.087111,-9.055302,19.993341, 0.156918, 0.720737,14.624119,69.819475,300.468323, 0.726382, 0.266362,1833172.625000,300.000000,69.549992,-0.000001,-0.000001,-0.000001,-0.000001,-0.000001,-0.000001, 0.000000,-0.000001, 1.012689,-0.003247, 0.001999, 0.019852,-0.065448,,,,,
Mult,USC,250218 10:02:24.794, 0.000000, 0.000000, 0.000000, 0.000000, 0.000276, 0.000002, 0.000000, 8.818952,-4.366996,-8.509270,-3.188840,-10.106536,19.466334, 8.818952,-4.366996,-8.509270,-3.188840,-10.106536,19.466334, 8.818952,-4.366996,-8.509270,-3.188840,-10.106536,19.466334, 0.156918, 0.720737,14.624119,69.819475,300.468323, 0.726382, 0.266362,1833172.625000,300.000000,69.549992,-0.000001,-0.000000,-0.000001,-0.000001,-0.000001, 0.000000,-0.000001,-0.000001, 1.012869,-0.003052, 0.001910, 0.019165,-0.058234,,,,,
Mult,USC,250218 10:02:24.806, 0.000000, 0.000000, 0.000000, 0.000000, 0.000276, 0.000002, 0.000000, 9.750090,-4.638253, 6.012913,-0.970096,-13.151059,18.958785, 9.750090,-4.638253, 6.012913,-0.970096,-13.151059,18.958785, 9.750090,-4.638252, 6.012913,-0.970096,-13.151059,18.958785, 0.156918, 0.720737,14.624119,69.819475,300.468323, 0.726382, 0.266362,1833172.625000,300.000000,69.549992,-0.000001, 0.000001, 0.000000, 0.000000, 0.000000,-0.000001, 0.000000, 0.000000, 1.009848,-0.003113, 0.001712, 0.017578,-0.064309,,,,,
Mult,USC,250218 10:02:24.818, 0.000000, 0.000000, 0.000000, 0.000000, 0.000276,-0.000002, 0.000002,11.660027,-4.095535,12.445877, 0.753374,-8.341684,18.777025,11.660027,-4.095535,12.445877, 0.753374,-8.341684,18.777025,11.660026,-4.095536,12.445877, 0.753373,-8.341684,18.777026, 0.156924, 0.721108,14.620213,69.819475,300.374817, 0.725650, 0.266279,1831894.750000,300.000000,69.549992,-0.000001,-0.000001,-0.000001,-0.000001, 0.000000,-0.000001,-0.000001,-0.000001, 1.009366,-0.003018, 0.001999, 0.019638,-0.077260,,,,,
Mult,USC,250218 10:02:24.830, 0.000000, 0.000000, 0.000000, 0.000000, 0.000276,-0.000002, 0.000002, 9.740930,-5.678300,-1.222377,-1.089677,-15.572379,19.636986, 9.740930,-5.678300,-1.222377,-1.089677,-15.572379,19.636986, 9.740930,-5.678300,-1.222377,-1.089678,-15.572379,19.636986, 0.156924, 0.721108,14.620213,69.819475,300.374817, 0.725650, 0.266279,1831894.750000,300.000000,69.549992,-0.000001,-0.000000, 0.000000, 0.000001,-0.000001,-0.000001,-0.000001,-0.000001, 1.011624,-0.002930, 0.001816, 0.020654,-0.063993,,,,,
Mult,USC,250218 10:02:24.842, 0.000000, 0.000000, 0.000000, 0.000000, 0.000276,-0.000002, 0.000002, 9.336743,-5.208509,-9.179011, 1.792343,-7.289171,20.513084, 9.336743,-5.208509,-9.179011, 1.792343,-7.289171,20.513084, 9.336744,-5.208510,-9.179010, 1.792342,-7.289171,20.513084, 0.156924, 0.721108,14.620213,69.819475,300.374817, 0.725650, 0.266279,1831894.750000,300.000000,69.549992,-0.000001,-0.000001,-0.000001, 0.000000, 0.000000, 0.000000, 0.000000, 0.000000, 1.012912,-0.003171, 0.001590, 0.020081,-0.061632,,,,,
Mult,USC,250218 10:02:24.854, 0.000000, 0.000000, 0.000000, 0.000000, 0.000276,-0.000002, 0.000002, 9.518687,-5.586072, 4.446459, 0.173575,-9.843021,21.098517, 9.518687,-5.586072, 4.446459, 0.173575,-9.843021,21.098517, 9.518687,-5.586072, 4.446459, 0.173573,-9.843021,21.098517, 0.156924, 0.721108,14.620213,69.819475,300.374817, 0.725650, 0.266279,1831894.750000,300.000000,69.549992,-0.000001,-0.000001,-0.000001,-0.000001,-0.000001,-0.000001,-0.000001,-0.000001, 1.014017,-0.002643, 0.001846, 0.018817,-0.062567,,,,,
