#version,serial,flight,call,time,rssi,lqi,state,state_name,acceleration,pressure,altitude,height,speed,temperature,drogue_voltage,main_voltage,battery_voltage,accel_x,accel_y,accel_z,gyro_roll,gyro_pitch,gyro_yaw,mag_x,mag_y,mag_z,tilt,pyro,igniter_a,igniter_b,igniter_c,igniter_d,connected,locked,nsat,latitude,longitude,altitude,year,month,day,hour,minute,second,pad_dist,pad_range,pad_az,pad_el,pdop,hdop,vdop,sat01,sat02,sat03,sat04,sat05,sat06,sat07,sat08,sat09,sat10,sat11,sat12,sat13,sat14,sat15,sat16,sat17,sat18,sat19,sat20,sat21,sat22,sat23,sat24,sat25,sat26,sat27,sat28,sat29,sat30,sat31,sat32
6, 11044, 1,N0CALL,    -1.84, -67,   7, 3,   boost,   -0.00,  99034.00,  192.48,    0.17,    0.00,  6.1, 3.83, 3.83, 3.87,  -9.89,  -0.07,   0.04,   0.06,  -0.31,  -0.12,  -0.98,  -0.11,   0.14,   1.00, 3.86, 0.00, 0.00, 0.00, 0.00, 1, 1, 13,  42.6264331, -88.1615022,   237.0, 2024,  2, 11, 20, 19,  6,        0,        0, 270,   0,   1.3,   0.8,   1.0,  0, 30, 39,  0,  0,  0, 36, 33,  0,  0,  0,  0, 30, 24, 37,  0, 16,  0, 34,  0, 36, 31,  0,  0,  0,  0,  0,  0,  0, 32,  0,  0
6, 11044, 1,N0CALL,    -1.84, -68,   6, 3,   boost,   -0.00,  99034.00,  192.48,    0.17,    0.00,  6.1, 3.83, 3.83, 3.87,  -9.89,  -0.07,   0.04,   0.06,  -0.31,  -0.12,  -0.98,  -0.11,   0.14,   1.00, 3.86, 0.00, 0.00, 0.00, 0.00, 1, 1, 13,  42.6264331, -88.1615022,   237.0, 2024,  2, 11, 20, 19,  6,        0,        0, 270,   0,   1.3,   0.8,   1.0,  0, 30, 39,  0,  0,  0, 36, 33,  0,  0,  0,  0, 30, 24, 37,  0, 16,  0, 34,  0, 36, 31,  0,  0,  0,  0,  0,  0,  0, 32,  0,  0
6, 11044, 1,N0CALL,    -1.41, -67,   9, 3,   boost,   -0.00,  99034.00,  192.48,    0.17,    0.00,  6.1, 3.83, 3.83, 3.87,  -9.89,  -0.07,   0.04,   0.06,  -0.31,  -0.12,  -0.98,  -0.11,   0.14,   1.00, 3.86, 0.00, 0.00, 0.00, 0.00, 1, 1, 13,  42.6264331, -88.1615022,   237.0, 2024,  2, 11, 20, 19,  6,        0,        0, 270,   0,   1.3,   0.8,   1.0,  0, 30, 39,  0,  0,  0, 36, 33,  0,  0,  0,  0, 30, 24, 37,  0, 16,  0, 34,  0, 36, 31,  0,  0,  0,  0,  0,  0,  0, 32,  0,  0
6, 11044, 1,N0CALL,    -1.38, -68,   6, 3,   boost,   -0.00,  99034.00,  192.48,    0.17,    0.00,  6.1, 3.83, 3.83, 3.87,  -9.89,  -0.07,   0.04,   0.06,  -0.31,  -0.12,  -0.98,  -0.11,   0.14,   1.00, 3.86, 0.00, 0.00, 0.00, 0.00, 1, 1, 13,  42.6264331, -88.1615022,   237.0, 2024,  2, 11, 20, 19,  6,        0,        0, 270,   0,   1.3,   0.8,   1.0,  0, 30, 39,  0,  0,  0, 36, 33,  0,  0,  0,  0, 30, 24, 37,  0, 16,  0, 34,  0, 36, 31,  0,  0,  0,  0,  0,  0,  0, 32,  0,  0
6, 11044, 1,N0CALL,    -0.84, -68,   6, 3,   boost,   -0.00,  99034.00,  192.48,    0.17,    0.00,  6.1, 3.83, 3.83, 3.87,  -9.89,  -0.07,   0.04,   0.06,  -0.31,  -0.12,  -0.98,  -0.11,   0.14,   1.00, 3.86, 0.00, 0.00, 0.00, 0.00, 1, 1, 13,  42.6264331, -88.1614974,   237.0, 2024,  2, 11, 20, 19,  7,        0,        0,   0,   0,   1.3,   0.8,   1.0,  0, 31, 39,  0,  0,  0, 35, 33,  0,  0,  0,  0, 30, 23, 37,  0, 16,  0, 34,  0, 36, 30,  0,  0,  0,  0,  0,  0,  0, 32,  0,  0
6, 11044, 1,N0CALL,    -0.84, -68,   8, 3,   boost,   -0.00,  99034.00,  192.48,    0.17,    0.00,  6.1, 3.83, 3.83, 3.87,  -9.89,  -0.07,   0.04,   0.06,  -0.31,  -0.12,  -0.98,  -0.11,   0.14,   1.00, 3.86, 0.00, 0.00, 0.00, 0.00, 1, 1, 13,  42.6264331, -88.1614974,   237.0, 2024,  2, 11, 20, 19,  7,        0,        0,   0,   0,   1.3,   0.8,   1.0,  0, 31, 39,  0,  0,  0, 35, 33,  0,  0,  0,  0, 30, 23, 37,  0, 16,  0, 34,  0, 36, 30,  0,  0,  0,  0,  0,  0,  0, 32,  0,  0
6, 11044, 1,N0CALL,    -0.84, -68,  10, 3,   boost,   -0.00,  99034.00,  192.48,    0.17,    0.00,  6.1, 3.83, 3.83, 3.87,  -9.89,  -0.07,   0.04,   0.06,  -0.31,  -0.12,  -0.98,  -0.11,   0.14,   1.00, 3.86, 0.00, 0.00, 0.00, 0.00, 1, 1, 13,  42.6264331, -88.1614974,   237.0, 2024,  2, 11, 20, 19,  7,        0,        0,   0,   0,   1.3,   0.8,   1.0,  0, 31, 39,  0,  0,  0, 35, 33,  0,  0,  0,  0, 30, 23, 37,  0, 16,  0, 34,  0, 36, 30,  0,  0,  0,  0,  0,  0,  0, 32,  0,  0
6, 11044, 1,N0CALL,    -0.84, -60,   6, 3,   boost,   -0.00,  99034.00,  192.48,    0.17,    0.00,  6.1, 3.83, 3.83, 3.87,  -9.89,  -0.07,   0.04,   0.06,  -0.31,  -0.12,  -0.98,  -0.11,   0.14,   1.00, 3.86, 0.00, 0.00, 0.00, 0.00, 1, 1, 13,  42.6264331, -88.1614974,   237.0, 2024,  2, 11, 20, 19,  7,        0,        0,   0,   0,   1.3,   0.8,   1.0,  0, 31, 39,  0,  0,  0, 35, 33,  0,  0,  0,  0, 30, 23, 37,  0, 16,  0, 34,  0, 36, 30,  0,  0,  0,  0,  0,  0,  0, 32,  0,  0
6, 11044, 1,N0CALL,    -0.40, -69,   7, 3,   boost,   -1.44,  99034.00,  192.48,    0.17,    0.00,  6.2, 3.83, 3.83, 3.87,  -9.85,  -0.16,  -0.08,   0.12,  -0.24,   0.06,  -0.98,  -0.11,   0.14,   1.00, 3.86, 0.00, 0.00, 0.00, 0.00, 1, 1, 13,  42.6264331, -88.1614974,   237.0, 2024,  2, 11, 20, 19,  7,        0,        0,   0,   0,   1.3,   0.8,   1.0,  0, 31, 39,  0,  0,  0, 35, 33,  0,  0,  0,  0, 30, 23, 37,  0, 16,  0, 34,  0, 36, 30,  0,  0,  0,  0,  0,  0,  0, 32,  0,  0
6, 11044, 1,N0CALL,    -0.37, -69,   6, 3,   boost,   -1.44,  99034.00,  192.48,    0.17,    0.00,  6.2, 3.83, 3.83, 3.87,  -9.85,  -0.16,  -0.08,   0.12,  -0.24,   0.06,  -0.98,  -0.11,   0.14,   1.00, 3.87, 0.00, 0.00, 0.00, 0.00, 1, 1, 13,  42.6264331, -88.1614974,   237.0, 2024,  2, 11, 20, 19,  7,        0,        0,   0,   0,   1.3,   0.8,   1.0,  0, 31, 39,  0,  0,  0, 35, 33,  0,  0,  0,  0, 30, 23, 37,  0, 16,  0, 34,  0, 36, 30,  0,  0,  0,  0,  0,  0,  0, 32,  0,  0
6, 11044, 1,N0CALL,    -0.03, -62,   8, 3,   boost,   50.23,  99031.00,  192.73,    0.42,    8.30,  6.2, 3.83, 3.83, 3.87, -59.96,  -3.10,  -0.65,   7.26,   2.69,  -0.49,  -0.97,  -0.11,   0.14,   1.00, 3.87, 0.00, 0.00, 0.00, 0.00, 1, 1, 13,  42.6264331, -88.1614974,   237.0, 2024,  2, 11, 20, 19,  7,        0,        0,   0,   0,   1.3,   0.8,   1.0,  0, 31, 39,  0,  0,  0, 35, 33,  0,  0,  0,  0, 30, 23, 37,  0, 16,  0, 34,  0, 36, 30,  0,  0,  0,  0,  0,  0,  0, 32,  0,  0
6, 11044, 1,N0CALL,     0.00, -62,   6, 3,   boost,   50.23,  99031.00,  192.73,    0.42,    8.30,  6.2, 3.83, 3.83, 3.86, -59.96,  -3.10,  -0.65,   7.26,   2.69,  -0.49,  -0.97,  -0.11,   0.14,   1.00, 3.87, 0.00, 0.00, 0.00, 0.00, 1, 1, 13,  42.6264331, -88.1614974,   237.0, 2024,  2, 11, 20, 19,  7,        0,        0,   0,   0,   1.3,   0.8,   1.0,  0, 31, 39,  0,  0,  0, 35, 33,  0,  0,  0,  0, 30, 23, 37,  0, 16,  0, 34,  0, 36, 30,  0,  0,  0,  0,  0,  0,  0, 32,  0,  0
6, 11044, 1,N0CALL,     0.07, -67,   7, 3,   boost,   53.10,  99029.00,  192.90,    0.59,   13.46,  6.2, 3.83, 3.83, 3.86, -64.08,   0.42,  -0.78, -13.61,  -0.24,   0.85,  -0.97,  -0.11,   0.14,   1.00, 3.87, 0.00, 0.00, 0.00, 0.00, 1, 1, 13,  42.6264331, -88.1614974,   237.0, 2024,  2, 11, 20, 19,  7,        0,        0,   0,   0,   1.3,   0.8,   1.0,  0, 31, 39,  0,  0,  0, 35, 33,  0,  0,  0,  0, 30, 23, 37,  0, 16,  0, 34,  0, 36, 30,  0,  0,  0,  0,  0,  0,  0, 32,  0,  0
6, 11044, 1,N0CALL,     0.10, -60,   5, 3,   boost,   53.10,  99029.00,  192.90,    0.59,   13.46,  6.2, 3.83, 3.83, 3.86, -64.08,   0.42,  -0.78, -13.61,  -0.24,   0.85,  -0.97,  -0.11,   0.14,   1.00, 3.86, 0.00, 0.00, 0.00, 0.00, 1, 1, 13,  42.6264331, -88.1614974,   237.0, 2024,  2, 11, 20, 19,  7,        0,        0,   0,   0,   1.3,   0.8,   1.0,  0, 31, 39,  0,  0,  0, 35, 33,  0,  0,  0,  0, 30, 23, 37,  0, 16,  0, 34,  0, 36, 30,  0,  0,  0,  0,  0,  0,  0, 32,  0,  0
6, 11044, 1,N0CALL,     0.16, -59,   9, 3,   boost,   53.10,  99029.00,  192.90,    0.59,   13.46,  6.2, 3.83, 3.83, 3.86, -64.08,   0.42,  -0.78, -13.61,  -0.24,   0.85,  -0.97,  -0.11,   0.14,   1.00, 3.86, 0.00, 0.00, 0.00, 0.00, 1, 1, 13,  42.6264269, -88.1614791,   241.0, 2024,  2, 11, 20, 19,  8,        2,        4, 115,  68,   1.3,   0.8,   1.0,  0, 31, 38,  0,  0,  0, 35, 32,  0,  0,  0,  0, 31, 23, 37,  0, 16,  0, 34,  0, 36, 30,  0,  0,  0,  0,  0,  0,  0, 32,  0,  0
6, 11044, 1,N0CALL,     0.18, -62,   8, 3,   boost,   57.88,  99007.00,  194.77,    2.46,   19.57,  6.2, 3.83, 3.83, 3.86, -67.89,  -0.48,   8.61,  29.48,  -1.65,   1.10,  -0.97,  -0.11,   0.14,   1.00, 3.86, 0.00, 0.00, 0.00, 0.00, 1, 1, 13,  42.6264269, -88.1614791,   241.0, 2024,  2, 11, 20, 19,  8,        2,        4, 115,  68,   1.3,   0.8,   1.0,  0, 31, 38,  0,  0,  0, 35, 32,  0,  0,  0,  0, 31, 23, 37,  0, 16,  0, 34,  0, 36, 30,  0,  0,  0,  0,  0,  0,  0, 32,  0,  0
6, 11044, 1,N0CALL,     0.21, -61,   6, 3,   boost,   57.88,  99007.00,  194.77,    2.46,   19.57,  6.2, 3.83, 3.83, 3.86, -67.89,  -0.48,   8.61,  29.48,  -1.65,   1.10,  -0.97,  -0.11,   0.14,   1.00, 3.86, 0.00, 0.00, 0.00, 0.00, 1, 1, 13,  42.6264269, -88.1614791,   241.0, 2024,  2, 11, 20, 19,  8,        2,        4, 115,  68,   1.3,   0.8,   1.0,  0, 31, 38,  0,  0,  0, 35, 32,  0,  0,  0,  0, 31, 23, 37,  0, 16,  0, 34,  0, 36, 30,  0,  0,  0,  0,  0,  0,  0, 32,  0,  0
6, 11044, 1,N0CALL,     0.29, -61,   7, 3,   boost,   58.84,  98989.00,  196.29,    3.99,   25.99,  6.2, 3.83, 3.83, 3.86, -70.28,  -2.00,   1.13,  46.39,  -0.06,   0.61,  -0.96,  -0.10,   0.15,   0.00, 3.86, 0.00, 0.00, 0.00, 0.00, 1, 1, 13,  42.6264269, -88.1614791,   241.0, 2024,  2, 11, 20, 19,  8,        2,        4, 115,  68,   1.3,   0.8,   1.0,  0, 31, 38,  0,  0,  0, 35, 32,  0,  0,  0,  0, 31, 23, 37,  0, 16,  0, 34,  0, 36, 30,  0,  0,  0,  0,  0,  0,  0, 32,  0,  0
6, 11044, 1,N0CALL,     0.32, -60,   7, 3,   boost,   58.84,  98989.00,  196.29,    3.99,   25.99,  6.2, 3.83, 3.83, 3.86, -70.28,  -2.00,   1.13,  46.39,  -0.06,   0.61,  -0.96,  -0.10,   0.15,   0.00, 3.84, 0.00, 0.00, 0.00, 0.00, 1, 1, 13,  42.6264269, -88.1614791,   241.0, 2024,  2, 11, 20, 19,  8,        2,        4, 115,  68,   1.3,   0.8,   1.0,  0, 31, 38,  0,  0,  0, 35, 32,  0,  0,  0,  0, 31, 23, 37,  0, 16,  0, 34,  0, 36, 30,  0,  0,  0,  0,  0,  0,  0, 32,  0,  0
6, 11044, 1,N0CALL,     0.32, -59,   9, 3,   boost,   58.84,  98989.00,  196.29,    3.99,   25.99,  6.2, 3.83, 3.83, 3.86, -70.28,  -2.00,   1.13,  46.39,  -0.06,   0.61,  -0.96,  -0.10,   0.15,   0.00, 3.84, 0.00, 0.00, 0.00, 0.00, 1, 1, 13,  42.6264269, -88.1614791,   241.0, 2024,  2, 11, 20, 19,  8,        2,        4, 115,  68,   1.3,   0.8,   1.0,  0, 31, 38,  0,  0,  0, 35, 32,  0,  0,  0,  0, 31, 23, 37,  0, 16,  0, 34,  0, 36, 30,  0,  0,  0,  0,  0,  0,  0, 32,  0,  0
6, 11044, 1,N0CALL,     0.40, -59,   5, 3,   boost,   61.23,  98944.00,  200.11,    7.80,   32.59,  6.2, 3.83, 3.83, 3.86, -72.22,  -0.22,   2.00,  45.78,   4.64,   5.55,  -0.96,  -0.08,   0.17,   1.00, 3.84, 0.00, 0.00, 0.00, 0.00, 1, 1, 13,  42.6264269, -88.1614791,   241.0, 2024,  2, 11, 20, 19,  8,        2,        4, 115,  68,   1.3,   0.8,   1.0,  0, 31, 38,  0,  0,  0, 35, 32,  0,  0,  0,  0, 31, 23, 37,  0, 16,  0, 34,  0, 36, 30,  0,  0,  0,  0,  0,  0,  0, 32,  0,  0
6, 11044, 1,N0CALL,     0.43, -59,   8, 3,   boost,   61.23,  98944.00,  200.11,    7.80,   32.59,  6.2, 3.83, 3.83, 3.85, -72.22,  -0.22,   2.00,  45.78,   4.64,   5.55,  -0.96,  -0.08,   0.17,   1.00, 3.84, 0.00, 0.00, 0.00, 0.00, 1, 1, 13,  42.6264269, -88.1614791,   241.0, 2024,  2, 11, 20, 19,  8,        2,        4, 115,  68,   1.3,   0.8,   1.0,  0, 31, 38,  0,  0,  0, 35, 32,  0,  0,  0,  0, 31, 23, 37,  0, 16,  0, 34,  0, 36, 30,  0,  0,  0,  0,  0,  0,  0, 32,  0,  0
6, 11044, 1,N0CALL,     0.43, -58,   5, 3,   boost,   61.23,  98944.00,  200.11,    7.80,   32.59,  6.2, 3.83, 3.83, 3.85, -72.22,  -0.22,   2.00,  45.78,   4.64,   5.55,  -0.96,  -0.08,   0.17,   1.00, 3.84, 0.00, 0.00, 0.00, 0.00, 1, 1, 13,  42.6264269, -88.1614791,   241.0, 2024,  2, 11, 20, 19,  8,        2,        4, 115,  68,   1.3,   0.8,   1.0,  0, 31, 38,  0,  0,  0, 35, 32,  0,  0,  0,  0, 31, 23, 37,  0, 16,  0, 34,  0, 36, 30,  0,  0,  0,  0,  0,  0,  0, 32,  0,  0
6, 11044, 1,N0CALL,     0.51, -59,   8, 3,   boost,   62.19,  98918.00,  202.32,   10.01,   39.37,  6.2, 3.83, 3.83, 3.85, -74.23,  -1.27,   0.70,  45.72,   9.46,   8.97,  -0.96,  -0.06,   0.18,   2.00, 3.84, 0.00, 0.00, 0.00, 0.00, 1, 1, 13,  42.6264269, -88.1614791,   241.0, 2024,  2, 11, 20, 19,  8,        2,        4, 115,  68,   1.3,   0.8,   1.0,  0, 31, 38,  0,  0,  0, 35, 32,  0,  0,  0,  0, 31, 23, 37,  0, 16,  0, 34,  0, 36, 30,  0,  0,  0,  0,  0,  0,  0, 32,  0,  0
6, 11044, 1,N0CALL,     0.54, -59,   6, 3,   boost,   62.19,  98918.00,  202.32,   10.01,   39.37,  6.2, 3.83, 3.83, 3.85, -74.23,  -1.27,   0.70,  45.72,   9.46,   8.97,  -0.96,  -0.06,   0.18,   2.00, 3.84, 0.00, 0.00, 0.00, 0.00, 1, 1, 13,  42.6264269, -88.1614791,   241.0, 2024,  2, 11, 20, 19,  8,        2,        4, 115,  68,   1.3,   0.8,   1.0,  0, 31, 38,  0,  0,  0, 35, 32,  0,  0,  0,  0, 31, 23, 37,  0, 16,  0, 34,  0, 36, 30,  0,  0,  0,  0,  0,  0,  0, 32,  0,  0
6, 11044, 1,N0CALL,     0.62, -59,   6, 3,   boost,   63.62,  98873.00,  206.14,   13.83,   46.28,  6.2, 3.83, 3.83, 3.85, -77.24,  -0.96,   0.83,  45.23,  13.61,  12.82,  -0.96,  -0.04,   0.20,   4.00, 3.84, 0.00, 0.00, 0.00, 0.00, 1, 1, 13,  42.6264269, -88.1614791,   241.0, 2024,  2, 11, 20, 19,  8,        2,        4, 115,  68,   1.3,   0.8,   1.0,  0, 31, 38,  0,  0,  0, 35, 32,  0,  0,  0,  0, 31, 23, 37,  0, 16,  0, 34,  0, 36, 30,  0,  0,  0,  0,  0,  0,  0, 32,  0,  0
6, 11044, 1,N0CALL,     0.65, -58,   7, 3,   boost,   63.62,  98873.00,  206.14,   13.83,   46.28,  6.2, 3.83, 3.83, 3.86, -77.24,  -0.96,   0.83,  45.23,  13.61,  12.82,  -0.96,  -0.04,   0.20,   4.00, 3.85, 0.00, 0.00, 0.00, 0.00, 1, 1, 13,  42.6264269, -88.1614791,   241.0, 2024,  2, 11, 20, 19,  8,        2,        4, 115,  68,   1.3,   0.8,   1.0,  0, 31, 38,  0,  0,  0, 35, 32,  0,  0,  0,  0, 31, 23, 37,  0, 16,  0, 34,  0, 36, 30,  0,  0,  0,  0,  0,  0,  0, 32,  0,  0
6, 11044, 1,N0CALL,     0.73, -58,   9, 3,   boost,   63.62,  98817.00,  210.90,   18.59,   53.25,  6.2, 3.83, 3.83, 3.86, -77.42,  -0.39,   0.60,  44.19,  17.82,  16.60,  -0.96,  -0.01,   0.23,   6.00, 3.85, 0.00, 0.00, 0.00, 0.00, 1, 1, 13,  42.6264269, -88.1614791,   241.0, 2024,  2, 11, 20, 19,  8,        2,        4, 115,  68,   1.3,   0.8,   1.0,  0, 31, 38,  0,  0,  0, 35, 32,  0,  0,  0,  0, 31, 23, 37,  0, 16,  0, 34,  0, 36, 30,  0,  0,  0,  0,  0,  0,  0, 32,  0,  0
6, 11044, 1,N0CALL,     0.76, -58,   4, 3,   boost,   63.62,  98817.00,  210.90,   18.59,   53.25,  6.2, 3.83, 3.83, 3.86, -77.42,  -0.39,   0.60,  44.19,  17.82,  16.60,  -0.96,  -0.01,   0.23,   6.00, 3.85, 0.00, 0.00, 0.00, 0.00, 1, 1, 13,  42.6264269, -88.1614791,   241.0, 2024,  2, 11, 20, 19,  8,        2,        4, 115,  68,   1.3,   0.8,   1.0,  0, 31, 38,  0,  0,  0, 35, 32,  0,  0,  0,  0, 31, 23, 37,  0, 16,  0, 34,  0, 36, 30,  0,  0,  0,  0,  0,  0,  0, 32,  0,  0
6, 11044, 1,N0CALL,     0.84, -58,  12, 3,   boost,   65.54,  98746.00,  216.93,   24.62,   60.28,  6.2, 3.83, 3.83, 3.86, -78.70,   0.01,   0.07,  46.88,  18.19,  17.64,  -0.95,   0.03,   0.25,   9.00, 3.85, 0.00, 0.00, 0.00, 0.00, 1, 1, 13,  42.6264269, -88.1614791,   241.0, 2024,  2, 11, 20, 19,  8,        2,        4, 115,  68,   1.3,   0.8,   1.0,  0, 31, 38,  0,  0,  0, 35, 32,  0,  0,  0,  0, 31, 23, 37,  0, 16,  0, 34,  0, 36, 30,  0,  0,  0,  0,  0,  0,  0, 32,  0,  0
6, 11044, 1,N0CALL,     0.87, -58,   8, 3,   boost,   65.54,  98746.00,  216.93,   24.62,   60.28,  6.2, 3.83, 3.83, 3.86, -78.70,   0.01,   0.07,  46.88,  18.19,  17.64,  -0.95,   0.03,   0.25,   9.00, 3.85, 0.00, 0.00, 0.00, 0.00, 1, 1, 13,  42.6264269, -88.1614791,   241.0, 2024,  2, 11, 20, 19,  8,        2,        4, 115,  68,   1.3,   0.8,   1.0,  0, 31, 38,  0,  0,  0, 35, 32,  0,  0,  0,  0, 31, 23, 37,  0, 16,  0, 34,  0, 36, 30,  0,  0,  0,  0,  0,  0,  0, 32,  0,  0
6, 11044, 1,N0CALL,     0.95, -58,   8, 3,   boost,   66.97,  98684.00,  222.20,   29.89,   67.42,  6.2, 3.83, 3.83, 3.86, -79.09,   1.49,  -0.39,  54.38,  16.85,  16.42,  -0.94,   0.07,   0.26,  12.00, 3.85, 0.00, 0.00, 0.00, 0.00, 1, 1, 13,  42.6264269, -88.1614791,   241.0, 2024,  2, 11, 20, 19,  8,        2,        4, 115,  68,   1.3,   0.8,   1.0,  0, 31, 38,  0,  0,  0, 35, 32,  0,  0,  0,  0, 31, 23, 37,  0, 16,  0, 34,  0, 36, 30,  0,  0,  0,  0,  0,  0,  0, 32,  0,  0
6, 11044, 1,N0CALL,     0.98, -58,  10, 3,   boost,   66.97,  98684.00,  222.20,   29.89,   67.42,  6.2, 3.83, 3.83, 3.86, -79.09,   1.49,  -0.39,  54.38,  16.85,  16.42,  -0.94,   0.07,   0.26,  12.00, 3.85, 0.00, 0.00, 0.00, 0.00, 1, 1, 13,  42.6264269, -88.1614791,   241.0, 2024,  2, 11, 20, 19,  8,        2,        4, 115,  68,   1.3,   0.8,   1.0,  0, 31, 38,  0,  0,  0, 35, 32,  0,  0,  0,  0, 31, 23, 37,  0, 16,  0, 34,  0, 36, 30,  0,  0,  0,  0,  0,  0,  0, 32,  0,  0
6, 11044, 1,N0CALL,     1.06, -58,   8, 3,   boost,   67.45,  98582.00,  230.88,   38.57,   74.60,  6.2, 3.83, 3.83, 3.86, -79.57,   2.04,  -1.18,  61.83,  12.63,  11.23,  -0.93,   0.11,   0.27,  14.00, 3.85, 0.00, 0.00, 0.00, 0.00, 1, 1, 13,  42.6264269, -88.1614791,   241.0, 2024,  2, 11, 20, 19,  8,        2,        4, 115,  68,   1.3,   0.8,   1.0,  0, 31, 38,  0,  0,  0, 35, 32,  0,  0,  0,  0, 31, 23, 37,  0, 16,  0, 34,  0, 36, 30,  0,  0,  0,  0,  0,  0,  0, 32,  0,  0
6, 11044, 1,N0CALL,     1.09, -58,   8, 3,   boost,   67.45,  98582.00,  230.88,   38.57,   74.60,  6.2, 3.83, 3.83, 3.86, -79.57,   2.04,  -1.18,  61.83,  12.63,  11.23,  -0.93,   0.11,   0.27,  14.00, 3.85, 0.00, 0.00, 0.00, 0.00, 1, 1, 13,  42.6264269, -88.1614791,   241.0, 2024,  2, 11, 20, 19,  8,        2,        4, 115,  68,   1.3,   0.8,   1.0,  0, 31, 38,  0,  0,  0, 35, 32,  0,  0,  0,  0, 31, 23, 37,  0, 16,  0, 34,  0, 36, 30,  0,  0,  0,  0,  0,  0,  0, 32,  0,  0
6, 11044, 1,N0CALL,     1.15, -67,  11, 3,   boost,   67.45,  98582.00,  230.88,   38.57,   74.60,  6.2, 3.83, 3.83, 3.86, -79.57,   2.04,  -1.18,  61.83,  12.63,  11.23,  -0.93,   0.11,   0.27,  14.00, 3.85, 0.00, 0.00, 0.00, 0.00, 1, 1, 10,  42.6264599, -88.1614862,   281.0, 2024,  2, 11, 20, 19,  9,        3,       44,  17,  86,   1.5,   1.0,   1.2,  0, 31, 38,  0,  0,  0, 35, 32,  0,  0,  0,  0, 31, 23, 37,  0, 16,  0, 34,  0, 36, 30,  0,  0,  0,  0,  0,  0,  0, 32,  0,  0
6, 11044, 1,N0CALL,     1.20, -58,   8, 3,   boost,   67.45,  98582.00,  230.88,   38.57,   74.60,  6.2, 3.83, 3.83, 3.86, -79.57,   2.04,  -1.18,  61.83,  12.63,  11.23,  -0.93,   0.11,   0.27,  14.00, 3.85, 0.00, 0.00, 0.00, 0.00, 1, 1, 10,  42.6264599, -88.1614862,   281.0, 2024,  2, 11, 20, 19,  9,        3,       44,  17,  86,   1.5,   1.0,   1.2,  0, 31, 38,  0,  0,  0, 35, 32,  0,  0,  0,  0, 31, 23, 37,  0, 16,  0, 34,  0, 36, 30,  0,  0,  0,  0,  0,  0,  0, 32,  0,  0
6, 11044, 1,N0CALL,     1.28, -58,  12, 3,   boost,   67.93,  98400.00,  246.38,   54.07,   88.95,  6.2, 3.83, 3.83, 3.86, -79.78,   2.95,  -0.92,  84.17,   4.09,  -6.29,  -0.93,   0.18,   0.26,  15.00, 3.85, 0.00, 0.00, 0.00, 0.00, 1, 1, 10,  42.6264599, -88.1614862,   281.0, 2024,  2, 11, 20, 19,  9,        3,       44,  17,  86,   1.5,   1.0,   1.2,  0, 31, 38,  0,  0,  0, 35, 32,  0,  0,  0,  0, 31, 23, 37,  0, 16,  0, 34,  0, 36, 30,  0,  0,  0,  0,  0,  0,  0, 32,  0,  0
6, 11044, 1,N0CALL,     1.31, -58,   6, 3,   boost,   67.93,  98400.00,  246.38,   54.07,   88.95,  6.2, 3.83, 3.83, 3.86, -79.78,   2.95,  -0.92,  84.17,   4.09,  -6.29,  -0.93,   0.18,   0.26,  15.00, 3.85, 0.00, 0.00, 0.00, 0.00, 1, 1, 10,  42.6264599, -88.1614862,   281.0, 2024,  2, 11, 20, 19,  9,        3,       44,  17,  86,   1.5,   1.0,   1.2,  0, 31, 38,  0,  0,  0, 35, 32,  0,  0,  0,  0, 31, 23, 37,  0, 16,  0, 34,  0, 36, 30,  0,  0,  0,  0,  0,  0,  0, 32,  0,  0
6, 11044, 1,N0CALL,     1.39, -60,  14, 3,   boost,   67.45,  98334.00,  252.01,   59.70,   96.12,  6.2, 3.83, 3.83, 3.86, -79.90,   1.19,  -1.11, 109.86,   3.42, -12.02,  -0.93,   0.22,   0.24,  14.00, 3.85, 0.00, 0.00, 0.00, 0.00, 1, 1, 10,  42.6264599, -88.1614862,   281.0, 2024,  2, 11, 20, 19,  9,        3,       44,  17,  86,   1.5,   1.0,   1.2,  0, 31, 38,  0,  0,  0, 35, 32,  0,  0,  0,  0, 31, 23, 37,  0, 16,  0, 34,  0, 36, 30,  0,  0,  0,  0,  0,  0,  0, 32,  0,  0
6, 11044, 1,N0CALL,     1.42, -60,   6, 3,   boost,   67.45,  98334.00,  252.01,   59.70,   96.12,  6.2, 3.83, 3.83, 3.85, -79.90,   1.19,  -1.11, 109.86,   3.42, -12.02,  -0.93,   0.22,   0.24,  14.00, 3.85, 0.00, 0.00, 0.00, 0.00, 1, 1, 10,  42.6264599, -88.1614862,   281.0, 2024,  2, 11, 20, 19,  9,        3,       44,  17,  86,   1.5,   1.0,   1.2,  0, 34, 32,  0,  0,  0, 35, 33,  0,  0,  0,  0, 26, 22, 30,  0, 18,  0, 31,  0, 36, 23,  0,  0,  0,  0,  0,  0,  0, 32,  0,  0
6, 11044, 1,N0CALL,     1.42, -61,   9, 3,   boost,   67.45,  98334.00,  252.01,   59.70,   96.12,  6.2, 3.83, 3.83, 3.85, -79.90,   1.19,  -1.11, 109.86,   3.42, -12.02,  -0.93,   0.22,   0.24,  14.00, 3.85, 0.00, 0.00, 0.00, 0.00, 1, 1, 10,  42.6264599, -88.1614862,   281.0, 2024,  2, 11, 20, 19,  9,        3,       44,  17,  86,   1.5,   1.0,   1.2,  0, 34, 32,  0,  0,  0, 35, 33,  0,  0,  0,  0, 26, 22, 30,  0, 18,  0, 31,  0, 36, 23,  0,  0,  0,  0,  0,  0,  0, 32,  0,  0
6, 11044, 1,N0CALL,     1.50, -61,   6, 3,   boost,   66.97,  98218.00,  261.91,   69.60,  103.28,  6.2, 3.83, 3.83, 3.85, -78.36,  -0.63,  -0.95, 129.09,   5.00, -12.02,  -0.93,   0.25,   0.20,  13.00, 3.85, 0.00, 0.00, 0.00, 0.00, 1, 1, 10,  42.6264599, -88.1614862,   281.0, 2024,  2, 11, 20, 19,  9,        3,       44,  17,  86,   1.5,   1.0,   1.2,  0, 34, 32,  0,  0,  0, 35, 33,  0,  0,  0,  0, 26, 22, 30,  0, 18,  0, 31,  0, 36, 23,  0,  0,  0,  0,  0,  0,  0, 32,  0,  0
6, 11044, 1,N0CALL,     1.53, -61,   5, 3,   boost,   66.97,  98218.00,  261.91,   69.60,  103.28,  6.2, 3.83, 3.83, 3.86, -78.36,  -0.63,  -0.95, 129.09,   5.00, -12.02,  -0.93,   0.25,   0.20,  13.00, 3.85, 0.00, 0.00, 0.00, 0.00, 1, 1, 10,  42.6264599, -88.1614862,   281.0, 2024,  2, 11, 20, 19,  9,        3,       44,  17,  86,   1.5,   1.0,   1.2,  0, 34, 32,  0,  0,  0, 35, 33,  0,  0,  0,  0, 26, 22, 30,  0, 18,  0, 31,  0, 36, 23,  0,  0,  0,  0,  0,  0,  0, 32,  0,  0
6, 11044, 1,N0CALL,     1.61, -62,   6, 3,   boost,   64.58,  98111.00,  271.04,   78.74,  110.32,  6.2, 3.83, 3.83, 3.86, -76.08,  -1.02,  -0.52, 139.22,   5.43,  -6.84,  -0.93,   0.28,   0.15,  12.00, 3.85, 0.00, 0.00, 0.00, 0.00, 1, 1, 10,  42.6264599, -88.1614862,   281.0, 2024,  2, 11, 20, 19,  9,        3,       44,  17,  86,   1.5,   1.0,   1.2,  0, 34, 32,  0,  0,  0, 35, 33,  0,  0,  0,  0, 26, 22, 30,  0, 18,  0, 31,  0, 36, 23,  0,  0,  0,  0,  0,  0,  0, 32,  0,  0
6, 11044, 1,N0CALL,     1.64, -62,   8, 3,   boost,   64.58,  98111.00,  271.04,   78.74,  110.32,  6.2, 3.83, 3.83, 3.85, -76.08,  -1.02,  -0.52, 139.22,   5.43,  -6.84,  -0.93,   0.28,   0.15,  12.00, 3.85, 0.00, 0.00, 0.00, 0.00, 1, 1, 10,  42.6264599, -88.1614862,   281.0, 2024,  2, 11, 20, 19,  9,        3,       44,  17,  86,   1.5,   1.0,   1.2,  0, 34, 32,  0,  0,  0, 35, 33,  0,  0,  0,  0, 26, 22, 30,  0, 18,  0, 31,  0, 36, 23,  0,  0,  0,  0,  0,  0,  0, 32,  0,  0
6, 11044, 1,N0CALL,     1.72, -63,   9, 3,   boost,   60.28,  97981.00,  282.16,   89.85,  117.02,  6.2, 3.83, 3.83, 3.85, -73.35,  -0.60,  -1.95, 151.12,   2.14,  -1.46,  -0.94,   0.30,   0.09,  11.00, 3.85, 0.00, 0.00, 0.00, 0.00, 1, 1, 10,  42.6264599, -88.1614862,   281.0, 2024,  2, 11, 20, 19,  9,        3,       44,  17,  86,   1.5,   1.0,   1.2,  0, 34, 32,  0,  0,  0, 35, 33,  0,  0,  0,  0, 26, 22, 30,  0, 18,  0, 31,  0, 36, 23,  0,  0,  0,  0,  0,  0,  0, 32,  0,  0
6, 11044, 1,N0CALL,     1.75, -62,   8, 3,   boost,   60.28,  97981.00,  282.16,   89.85,  117.02,  6.2, 3.83, 3.83, 3.86, -73.35,  -0.60,  -1.95, 151.12,   2.14,  -1.46,  -0.94,   0.30,   0.09,  11.00, 3.86, 0.00, 0.00, 0.00, 0.00, 1, 1, 10,  42.6264599, -88.1614862,   281.0, 2024,  2, 11, 20, 19,  9,        3,       44,  17,  86,   1.5,   1.0,   1.2,  0, 34, 32,  0,  0,  0, 35, 33,  0,  0,  0,  0, 26, 22, 30,  0, 18,  0, 31,  0, 36, 23,  0,  0,  0,  0,  0,  0,  0, 32,  0,  0
6, 11044, 1,N0CALL,     1.83, -62,   5, 3,   boost,   59.32,  97870.00,  291.66,   99.35,  123.46,  6.2, 3.83, 3.83, 3.86, -70.75,  -0.01,  -1.44, 168.76,  -1.95,  -1.46,  -0.94,   0.30,   0.01,  11.00, 3.86, 0.00, 0.00, 0.00, 0.00, 1, 1, 10,  42.6264599, -88.1614862,   281.0, 2024,  2, 11, 20, 19,  9,        3,       44,  17,  86,   1.5,   1.0,   1.2,  0, 34, 32,  0,  0,  0, 35, 33,  0,  0,  0,  0, 26, 22, 30,  0, 18,  0, 31,  0, 36, 23,  0,  0,  0,  0,  0,  0,  0, 32,  0,  0
6, 11044, 1,N0CALL,     1.86, -62,   6, 3,   boost,   59.32,  97870.00,  291.66,   99.35,  123.46,  6.2, 3.83, 3.83, 3.86, -70.75,  -0.01,  -1.44, 168.76,  -1.95,  -1.46,  -0.94,   0.30,   0.01,  11.00, 3.85, 0.00, 0.00, 0.00, 0.00, 1, 1, 10,  42.6264599, -88.1614862,   281.0, 2024,  2, 11, 20, 19,  9,        3,       44,  17,  86,   1.5,   1.0,   1.2,  0, 34, 32,  0,  0,  0, 35, 33,  0,  0,  0,  0, 26, 22, 30,  0, 18,  0, 31,  0, 36, 23,  0,  0,  0,  0,  0,  0,  0, 32,  0,  0
6, 11044, 1,N0CALL,     1.94, -61,   7, 3,   boost,   56.93,  97716.00,  304.85,  112.54,  129.72,  6.2, 3.83, 3.83, 3.86, -68.87,   0.01,  -1.31, 191.53,   0.06,  -3.17,  -0.94,   0.27,  -0.07,  11.00, 3.85, 0.00, 0.00, 0.00, 0.00, 1, 1, 10,  42.6264599, -88.1614862,   281.0, 2024,  2, 11, 20, 19,  9,        3,       44,  17,  86,   1.5,   1.0,   1.2,  0, 34, 32,  0,  0,  0, 35, 33,  0,  0,  0,  0, 26, 22, 30,  0, 18,  0, 31,  0, 36, 23,  0,  0,  0,  0,  0,  0,  0, 32,  0,  0
6, 11044, 1,N0CALL,     1.97, -61,   8, 3,   boost,   56.93,  97716.00,  304.85,  112.54,  129.72,  6.2, 3.83, 3.83, 3.86, -68.87,   0.01,  -1.31, 191.53,   0.06,  -3.17,  -0.94,   0.27,  -0.07,  11.00, 3.86, 0.00, 0.00, 0.00, 0.00, 1, 1, 10,  42.6264599, -88.1614862,   281.0, 2024,  2, 11, 20, 19,  9,        3,       44,  17,  86,   1.5,   1.0,   1.2,  0, 34, 32,  0,  0,  0, 35, 33,  0,  0,  0,  0, 26, 22, 30,  0, 18,  0, 31,  0, 36, 23,  0,  0,  0,  0,  0,  0,  0, 32,  0,  0
6, 11044, 1,N0CALL,     2.05, -61,   6, 3,   boost,   54.06,  97578.00,  316.69,  124.38,  135.69,  6.2, 3.83, 3.83, 3.86, -67.83,  -0.91,   1.14, 213.44,   1.65,  -1.89,  -0.94,   0.21,  -0.15,  11.00, 3.86, 0.00, 0.00, 0.00, 0.00, 1, 1, 10,  42.6264599, -88.1614862,   281.0, 2024,  2, 11, 20, 19,  9,        3,       44,  17,  86,   1.5,   1.0,   1.2,  0, 34, 32,  0,  0,  0, 35, 33,  0,  0,  0,  0, 26, 22, 30,  0, 18,  0, 31,  0, 36, 23,  0,  0,  0,  0,  0,  0,  0, 32,  0,  0
6, 11044, 1,N0CALL,     2.08, -60,   4, 3,   boost,   54.06,  97578.00,  316.69,  124.38,  135.69,  6.2, 3.83, 3.83, 3.86, -67.83,  -0.91,   1.14, 213.44,   1.65,  -1.89,  -0.94,   0.21,  -0.15,  11.00, 3.85, 0.00, 0.00, 0.00, 0.00, 1, 1, 10,  42.6264599, -88.1614862,   281.0, 2024,  2, 11, 20, 19,  9,        3,       44,  17,  86,   1.5,   1.0,   1.2,  0, 34, 32,  0,  0,  0, 35, 33,  0,  0,  0,  0, 26, 22, 30,  0, 18,  0, 31,  0, 36, 23,  0,  0,  0,  0,  0,  0,  0, 32,  0,  0
6, 11044, 1,N0CALL,     2.15, -77,   7, 3,   boost,   54.06,  97578.00,  316.69,  124.38,  135.69,  6.2, 3.83, 3.83, 3.86, -67.83,  -0.91,   1.14, 213.44,   1.65,  -1.89,  -0.94,   0.21,  -0.15,  11.00, 3.85, 0.00, 0.00, 0.00, 0.00, 1, 1,  8,  42.6266891, -88.1616322,   381.0, 2024,  2, 11, 20, 19, 10,       31,      147, 339,  78,   1.9,   1.2,   1.4,  0, 34, 32,  0,  0,  0, 35, 33,  0,  0,  0,  0, 26, 22, 30,  0, 18,  0, 31,  0, 36, 23,  0,  0,  0,  0,  0,  0,  0, 32,  0,  0
6, 11044, 1,N0CALL,     2.16, -61,   7, 3,   boost,   53.10,  97407.00,  331.37,  139.06,  141.47,  6.2, 3.83, 3.83, 3.86, -64.61,   0.50,   0.14, 235.11,   3.91,   0.18,  -0.95,   0.11,  -0.20,  10.00, 3.85, 0.00, 0.00, 0.00, 0.00, 1, 1,  8,  42.6266891, -88.1616322,   381.0, 2024,  2, 11, 20, 19, 10,       31,      147, 339,  78,   1.9,   1.2,   1.4,  0, 34, 32,  0,  0,  0, 35, 33,  0,  0,  0,  0, 26, 22, 30,  0, 18,  0, 31,  0, 36, 23,  0,  0,  0,  0,  0,  0,  0, 32,  0,  0
6, 11044, 1,N0CALL,     2.19, -61,   6, 3,   boost,   53.10,  97407.00,  331.37,  139.06,  141.47,  6.2, 3.83, 3.83, 3.86, -64.61,   0.50,   0.14, 235.11,   3.91,   0.18,  -0.95,   0.11,  -0.20,  10.00, 3.85, 0.00, 0.00, 0.00, 0.00, 1, 1,  8,  42.6266891, -88.1616322,   381.0, 2024,  2, 11, 20, 19, 10,       31,      147, 339,  78,   1.9,   1.2,   1.4,  0, 34, 32,  0,  0,  0, 35, 33,  0,  0,  0,  0, 26, 22, 30,  0, 18,  0, 31,  0, 36, 23,  0,  0,  0,  0,  0,  0,  0, 32,  0,  0
6, 11044, 1,N0CALL,     2.27, -63,  17, 3,   boost,   51.19,  97270.00,  343.15,  150.84,  147.10,  6.2, 3.83, 3.83, 3.86, -62.40,   1.26,  -0.85, 258.00,   3.97,  -1.04,  -0.95,  -0.00,  -0.20,  10.00, 3.85, 0.00, 0.00, 0.00, 0.00, 1, 1,  8,  42.6266891, -88.1616322,   381.0, 2024,  2, 11, 20, 19, 10,       31,      147, 339,  78,   1.9,   1.2,   1.4,  0, 34, 32,  0,  0,  0, 35, 33,  0,  0,  0,  0, 26, 22, 30,  0, 18,  0, 31,  0, 36, 23,  0,  0,  0,  0,  0,  0,  0, 32,  0,  0
6, 11044, 1,N0CALL,     2.30, -63,   6, 3,   boost,   51.19,  97270.00,  343.15,  150.84,  147.10,  6.2, 3.83, 3.83, 3.86, -62.40,   1.26,  -0.85, 258.00,   3.97,  -1.04,  -0.95,  -0.00,  -0.20,  10.00, 3.86, 0.00, 0.00, 0.00, 0.00, 1, 1,  8,  42.6266891, -88.1616322,   381.0, 2024,  2, 11, 20, 19, 10,       31,      147, 339,  78,   1.9,   1.2,   1.4,  0, 34, 32,  0,  0,  0, 35, 33,  0,  0,  0,  0, 26, 22, 30,  0, 18,  0, 31,  0, 36, 23,  0,  0,  0,  0,  0,  0,  0, 32,  0,  0
6, 11044, 1,N0CALL,     2.38, -66,   6, 3,   boost,   48.32,  97096.00,  358.13,  165.83,  152.47,  6.2, 3.83, 3.83, 3.86, -60.00,   1.24,  -0.85, 271.55,   6.77,  -4.27,  -0.95,  -0.12,  -0.15,  10.00, 3.86, 0.00, 0.00, 0.00, 0.00, 1, 1,  8,  42.6266891, -88.1616322,   381.0, 2024,  2, 11, 20, 19, 10,       31,      147, 339,  78,   1.9,   1.2,   1.4,  0, 34, 32,  0,  0,  0, 35, 33,  0,  0,  0,  0, 26, 22, 30,  0, 18,  0, 31,  0, 36, 23,  0,  0,  0,  0,  0,  0,  0, 32,  0,  0
6, 11044, 1,N0CALL,     2.41, -66,   6, 3,   boost,   48.32,  97096.00,  358.13,  165.83,  152.47,  6.2, 3.83, 3.83, 3.86, -60.00,   1.24,  -0.85, 271.55,   6.77,  -4.27,  -0.95,  -0.12,  -0.15,  10.00, 3.85, 0.00, 0.00, 0.00, 0.00, 1, 1,  8,  42.6266891, -88.1616322,   381.0, 2024,  2, 11, 20, 19, 10,       31,      147, 339,  78,   1.9,   1.2,   1.4,  0, 34, 32,  0,  0,  0, 35, 33,  0,  0,  0,  0, 26, 22, 30,  0, 18,  0, 31,  0, 36, 23,  0,  0,  0,  0,  0,  0,  0, 32,  0,  0
6, 11044, 1,N0CALL,     2.49, -67,   7, 3,   boost,   46.40,  96946.00,  371.07,  178.76,  157.58,  6.2, 3.83, 3.83, 3.86, -58.21,   1.17,  -2.07, 288.15,   7.26,  -4.58,  -0.95,  -0.19,  -0.04,  11.00, 3.85, 0.00, 0.00, 0.00, 0.00, 1, 1,  8,  42.6266891, -88.1616322,   381.0, 2024,  2, 11, 20, 19, 10,       31,      147, 339,  78,   1.9,   1.2,   1.4,  0, 34, 32,  0,  0,  0, 35, 33,  0,  0,  0,  0, 26, 22, 30,  0, 18,  0, 31,  0, 36, 23,  0,  0,  0,  0,  0,  0,  0, 32,  0,  0
6, 11044, 1,N0CALL,     2.52, -67,   8, 3,   boost,   46.40,  96946.00,  371.07,  178.76,  157.58,  6.2, 3.83, 3.83, 3.86, -58.21,   1.17,  -2.07, 288.15,   7.26,  -4.58,  -0.95,  -0.19,  -0.04,  11.00, 3.86, 0.00, 0.00, 0.00, 0.00, 1, 1,  8,  42.6266891, -88.1616322,   381.0, 2024,  2, 11, 20, 19, 10,       31,      147, 339,  78,   1.9,   1.2,   1.4,  0, 27, 29,  0,  0,  0,  0, 32,  0,  0,  0,  0, 37, 19, 38,  0, 17,  0, 35,  0, 34, 19,  0,  0,  0,  0,  0,  0,  0, 27,  0,  0
6, 11044, 1,N0CALL,     2.52, -67,   9, 3,   boost,   46.40,  96946.00,  371.07,  178.76,  157.58,  6.2, 3.83, 3.83, 3.86, -58.21,   1.17,  -2.07, 288.15,   7.26,  -4.58,  -0.95,  -0.19,  -0.04,  11.00, 3.86, 0.00, 0.00, 0.00, 0.00, 1, 1,  8,  42.6266891, -88.1616322,   381.0, 2024,  2, 11, 20, 19, 10,       31,      147, 339,  78,   1.9,   1.2,   1.4,  0, 27, 29,  0,  0,  0,  0, 32,  0,  0,  0,  0, 37, 19, 38,  0, 17,  0, 35,  0, 34, 19,  0,  0,  0,  0,  0,  0,  0, 27,  0,  0
6, 11044, 1,N0CALL,     2.60, -66,   7, 3,   boost,   44.97,  96746.00,  388.34,  196.03,  162.48,  6.2, 3.83, 3.83, 3.86, -55.77,   1.44,  -2.59, 309.75,   6.77,  -4.39,  -0.94,  -0.18,   0.11,  12.00, 3.86, 0.00, 0.00, 0.00, 0.00, 1, 1,  8,  42.6266891, -88.1616322,   381.0, 2024,  2, 11, 20, 19, 10,       31,      147, 339,  78,   1.9,   1.2,   1.4,  0, 27, 29,  0,  0,  0,  0, 32,  0,  0,  0,  0, 37, 19, 38,  0, 17,  0, 35,  0, 34, 19,  0,  0,  0,  0,  0,  0,  0, 27,  0,  0
6, 11044, 1,N0CALL,     2.63, -65,   5, 3,   boost,   44.97,  96746.00,  388.34,  196.03,  162.48,  6.2, 3.83, 3.83, 3.85, -55.77,   1.44,  -2.59, 309.75,   6.77,  -4.39,  -0.94,  -0.18,   0.11,  12.00, 3.85, 0.00, 0.00, 0.00, 0.00, 1, 1,  8,  42.6266891, -88.1616322,   381.0, 2024,  2, 11, 20, 19, 10,       31,      147, 339,  78,   1.9,   1.2,   1.4,  0, 27, 29,  0,  0,  0,  0, 32,  0,  0,  0,  0, 37, 19, 38,  0, 17,  0, 35,  0, 34, 19,  0,  0,  0,  0,  0,  0,  0, 27,  0,  0
6, 11044, 1,N0CALL,     2.71, -65,   8, 3,   boost,   44.01,  96581.00,  402.61,  210.30,  167.23,  6.2, 3.83, 3.83, 3.85, -55.28,   0.75,  -3.51, 329.47,   7.63,  -4.27,  -0.94,  -0.09,   0.23,  13.00, 3.85, 0.00, 0.00, 0.00, 0.00, 1, 1,  8,  42.6266891, -88.1616322,   381.0, 2024,  2, 11, 20, 19, 10,       31,      147, 339,  78,   1.9,   1.2,   1.4,  0, 27, 29,  0,  0,  0,  0, 32,  0,  0,  0,  0, 37, 19, 38,  0, 17,  0, 35,  0, 34, 19,  0,  0,  0,  0,  0,  0,  0, 27,  0,  0
6, 11044, 1,N0CALL,     2.74, -65,   9, 3,   boost,   44.01,  96581.00,  402.61,  210.30,  167.23,  6.2, 3.83, 3.83, 3.86, -55.28,   0.75,  -3.51, 329.47,   7.63,  -4.27,  -0.94,  -0.09,   0.23,  13.00, 3.87, 0.00, 0.00, 0.00, 0.00, 1, 1,  8,  42.6266891, -88.1616322,   381.0, 2024,  2, 11, 20, 19, 10,       31,      147, 339,  78,   1.9,   1.2,   1.4,  0, 27, 29,  0,  0,  0,  0, 32,  0,  0,  0,  0, 37, 19, 38,  0, 17,  0, 35,  0, 34, 19,  0,  0,  0,  0,  0,  0,  0, 27,  0,  0
6, 11044, 1,N0CALL,     2.82, -67,   6, 3,   boost,    6.70,  96373.00,  420.62,  228.31,  169.92,  6.2, 3.83, 3.83, 3.86, -26.22,   3.87,  -2.01, 346.01,   8.12,  -5.92,  -0.93,   0.06,   0.29,  13.00, 3.87, 0.00, 0.00, 0.00, 0.00, 1, 1,  8,  42.6266891, -88.1616322,   381.0, 2024,  2, 11, 20, 19, 10,       31,      147, 339,  78,   1.9,   1.2,   1.4,  0, 27, 29,  0,  0,  0,  0, 32,  0,  0,  0,  0, 37, 19, 38,  0, 17,  0, 35,  0, 34, 19,  0,  0,  0,  0,  0,  0,  0, 27,  0,  0
6, 11044, 1,N0CALL,     2.85, -70,   9, 3,   boost,    6.70,  96373.00,  420.62,  228.31,  169.92,  6.2, 3.83, 3.83, 3.86, -26.22,   3.87,  -2.01, 346.01,   8.12,  -5.92,  -0.93,   0.06,   0.29,  13.00, 3.85, 0.00, 0.00, 0.00, 0.00, 1, 1,  8,  42.6266891, -88.1616322,   381.0, 2024,  2, 11, 20, 19, 10,       31,      147, 339,  78,   1.9,   1.2,   1.4,  0, 27, 29,  0,  0,  0,  0, 32,  0,  0,  0,  0, 37, 19, 38,  0, 17,  0, 35,  0, 34, 19,  0,  0,  0,  0,  0,  0,  0, 27,  0,  0
6, 11044, 1,N0CALL,     2.93, -71,   7, 3,   boost,  -13.87,  96196.00,  435.98,  243.67,  169.51,  6.2, 3.83, 3.83, 3.86,   6.72,   2.90,  -4.69, 351.93,   9.16,  -6.96,  -0.93,   0.22,   0.24,  13.00, 3.85, 0.00, 0.00, 0.00, 0.00, 1, 1,  8,  42.6266891, -88.1616322,   381.0, 2024,  2, 11, 20, 19, 10,       31,      147, 339,  78,   1.9,   1.2,   1.4,  0, 27, 29,  0,  0,  0,  0, 32,  0,  0,  0,  0, 37, 19, 38,  0, 17,  0, 35,  0, 34, 19,  0,  0,  0,  0,  0,  0,  0, 27,  0,  0
6, 11044, 1,N0CALL,     2.96, -72,   6, 3,   boost,  -13.87,  96196.00,  435.98,  243.67,  169.51,  6.2, 3.83, 3.83, 3.86,   6.72,   2.90,  -4.69, 351.93,   9.16,  -6.96,  -0.93,   0.22,   0.24,  13.00, 3.85, 0.00, 0.00, 0.00, 0.00, 1, 1,  8,  42.6266891, -88.1616322,   381.0, 2024,  2, 11, 20, 19, 10,       31,      147, 339,  78,   1.9,   1.2,   1.4,  0, 27, 29,  0,  0,  0,  0, 32,  0,  0,  0,  0, 37, 19, 38,  0, 17,  0, 35,  0, 34, 19,  0,  0,  0,  0,  0,  0,  0, 27,  0,  0
6, 11044, 1,N0CALL,     3.04, -74,   8, 3,   boost,  -16.74,  95932.00,  458.92,  266.61,  167.84,  6.2, 3.83, 3.83, 3.86,   7.41,   2.40,  -4.00, 355.90,   5.19, -10.74,  -0.93,   0.31,   0.09,  12.00, 3.85, 0.00, 0.00, 0.00, 0.00, 1, 1,  8,  42.6266891, -88.1616322,   381.0, 2024,  2, 11, 20, 19, 10,       31,      147, 339,  78,   1.9,   1.2,   1.4,  0, 27, 29,  0,  0,  0,  0, 32,  0,  0,  0,  0, 37, 19, 38,  0, 17,  0, 35,  0, 34, 19,  0,  0,  0,  0,  0,  0,  0, 27,  0,  0
6, 11044, 1,N0CALL,     3.07, -73,   8, 5,   coast,  -16.74,  95932.00,  458.92,  266.61,  167.84,  6.2, 3.83, 3.83, 3.86,   7.41,   2.40,  -4.00, 355.90,   5.19, -10.74,  -0.93,   0.31,   0.09,  12.00, 3.86, 0.00, 0.00, 0.00, 0.00, 1, 1,  8,  42.6266891, -88.1616322,   381.0, 2024,  2, 11, 20, 19, 10,       31,      147, 339,  78,   1.9,   1.2,   1.4,  0, 27, 29,  0,  0,  0,  0, 32,  0,  0,  0,  0, 37, 19, 38,  0, 17,  0, 35,  0, 34, 19,  0,  0,  0,  0,  0,  0,  0, 27,  0,  0
6, 11044, 1,N0CALL,     3.15, -71,   9, 5,   coast,  -17.22,  95724.00,  477.04,  284.73,  165.99,  6.2, 3.83, 3.83, 3.86,   7.26,  -0.02,  -3.61, 350.34,   1.95, -11.41,  -0.94,   0.27,  -0.07,  11.00, 3.86, 0.00, 0.00, 0.00, 0.00, 1, 1,  8,  42.6266891, -88.1616322,   381.0, 2024,  2, 11, 20, 19, 10,       31,      147, 339,  78,   1.9,   1.2,   1.4,  0, 27, 29,  0,  0,  0,  0, 32,  0,  0,  0,  0, 37, 19, 38,  0, 17,  0, 35,  0, 34, 19,  0,  0,  0,  0,  0,  0,  0, 27,  0,  0
6, 11044, 1,N0CALL,     3.18, -70,   6, 5,   coast,  -17.22,  95724.00,  477.04,  284.73,  165.99,  6.2, 3.83, 3.83, 3.86,   7.26,  -0.02,  -3.61, 350.34,   1.95, -11.41,  -0.94,   0.27,  -0.07,  11.00, 3.85, 0.00, 0.00, 0.00, 0.00, 1, 1,  8,  42.6266891, -88.1616322,   381.0, 2024,  2, 11, 20, 19, 10,       31,      147, 339,  78,   1.9,   1.2,   1.4,  0, 27, 29,  0,  0,  0,  0, 32,  0,  0,  0,  0, 37, 19, 38,  0, 17,  0, 35,  0, 34, 19,  0,  0,  0,  0,  0,  0,  0, 27,  0,  0
6, 11044, 1,N0CALL,     3.26, -69,   6, 5,   coast,  -17.70,  95472.00,  499.02,  306.72,  164.08,  6.2, 3.83, 3.83, 3.86,   7.08,   0.54,  -3.28, 339.11,  -1.34,  -9.46,  -0.95,   0.15,  -0.18,  11.00, 3.85, 0.00, 0.00, 0.00, 0.00, 1, 1,  8,  42.6266891, -88.1616322,   381.0, 2024,  2, 11, 20, 19, 10,       31,      147, 339,  78,   1.9,   1.2,   1.4,  0, 27, 29,  0,  0,  0,  0, 32,  0,  0,  0,  0, 37, 19, 38,  0, 17,  0, 35,  0, 34, 19,  0,  0,  0,  0,  0,  0,  0, 27,  0,  0
6, 11044, 1,N0CALL,     3.29, -70,   7, 5,   coast,  -17.70,  95472.00,  499.02,  306.72,  164.08,  6.2, 3.83, 3.83, 3.85,   7.08,   0.54,  -3.28, 339.11,  -1.34,  -9.46,  -0.95,   0.15,  -0.18,  11.00, 3.85, 0.00, 0.00, 0.00, 0.00, 1, 1,  8,  42.6266891, -88.1616322,   381.0, 2024,  2, 11, 20, 19, 10,       31,      147, 339,  78,   1.9,   1.2,   1.4,  0, 27, 29,  0,  0,  0,  0, 32,  0,  0,  0,  0, 37, 19, 38,  0, 17,  0, 35,  0, 34, 19,  0,  0,  0,  0,  0,  0,  0, 27,  0,  0
6, 11044, 1,N0CALL,     3.37, -72,   6, 5,   coast,  -16.26,  95269.00,  516.77,  324.46,  162.23,  6.2, 3.83, 3.83, 3.85,   6.85,  -0.34,  -2.72, 329.90,  -2.87,  -7.45,  -0.95,  -0.01,  -0.20,  12.00, 3.85, 0.00, 0.00, 0.00, 0.00, 1, 1,  8,  42.6266891, -88.1616322,   381.0, 2024,  2, 11, 20, 19, 10,       31,      147, 339,  78,   1.9,   1.2,   1.4,  0, 27, 29,  0,  0,  0,  0, 32,  0,  0,  0,  0, 37, 19, 38,  0, 17,  0, 35,  0, 34, 19,  0,  0,  0,  0,  0,  0,  0, 27,  0,  0
6, 11044, 1,N0CALL,     3.40, -73,   6, 5,   coast,  -16.26,  95269.00,  516.77,  324.46,  162.23,  6.2, 3.83, 3.83, 3.86,   6.85,  -0.34,  -2.72, 329.90,  -2.87,  -7.45,  -0.95,  -0.01,  -0.20,  12.00, 3.85, 0.00, 0.00, 0.00, 0.00, 1, 1,  8,  42.6266891, -88.1616322,   381.0, 2024,  2, 11, 20, 19, 10,       31,      147, 339,  78,   1.9,   1.2,   1.4,  0, 27, 29,  0,  0,  0,  0, 32,  0,  0,  0,  0, 37, 19, 38,  0, 17,  0, 35,  0, 34, 19,  0,  0,  0,  0,  0,  0,  0, 27,  0,  0
6, 11044, 1,N0CALL,     3.48, -76,  11, 5,   coast,  -17.22,  95025.00,  538.15,  345.84,  160.40,  6.2, 3.83, 3.83, 3.86,   6.84,  -0.73,  -0.76, 323.67,  -3.30,  -6.90,  -0.95,  -0.15,  -0.13,  12.00, 3.85, 0.00, 0.00, 0.00, 0.00, 1, 1,  8,  42.6266891, -88.1616322,   381.0, 2024,  2, 11, 20, 19, 10,       31,      147, 339,  78,   1.9,   1.2,   1.4,  0, 27, 29,  0,  0,  0,  0, 32,  0,  0,  0,  0, 37, 19, 38,  0, 17,  0, 35,  0, 34, 19,  0,  0,  0,  0,  0,  0,  0, 27,  0,  0
6, 11044, 1,N0CALL,     3.51, -77,   6, 5,   coast,  -17.22,  95025.00,  538.15,  345.84,  160.40,  6.2, 3.83, 3.83, 3.86,   6.84,  -0.73,  -0.76, 323.67,  -3.30,  -6.90,  -0.95,  -0.15,  -0.13,  12.00, 3.85, 0.00, 0.00, 0.00, 0.00, 1, 1,  8,  42.6266891, -88.1616322,   381.0, 2024,  2, 11, 20, 19, 10,       31,      147, 339,  78,   1.9,   1.2,   1.4,  0, 27, 29,  0,  0,  0,  0, 32,  0,  0,  0,  0, 37, 19, 38,  0, 17,  0, 35,  0, 34, 19,  0,  0,  0,  0,  0,  0,  0, 27,  0,  0
6, 11044, 1,N0CALL,     3.59, -77,   9, 5,   coast,  -15.79,  94835.00,  554.82,  362.51,  158.61,  6.2, 3.83, 3.83, 3.86,   6.63,  -1.57,  -1.18, 314.94,  -0.73,  -5.31,  -0.94,  -0.21,   0.01,  13.00, 3.85, 0.00, 0.00, 0.00, 0.00, 1, 1,  8,  42.6266891, -88.1616322,   381.0, 2024,  2, 11, 20, 19, 10,       31,      147, 339,  78,   1.9,   1.2,   1.4,  0, 27, 29,  0,  0,  0,  0, 32,  0,  0,  0,  0, 37, 19, 38,  0, 17,  0, 35,  0, 34, 19,  0,  0,  0,  0,  0,  0,  0, 27,  0,  0
6, 11044, 1,N0CALL,     3.62, -76,   8, 5,   coast,  -15.79,  94835.00,  554.82,  362.51,  158.61,  6.2, 3.83, 3.83, 3.86,   6.63,  -1.57,  -1.18, 314.94,  -0.73,  -5.31,  -0.94,  -0.21,   0.01,  13.00, 3.84, 0.00, 0.00, 0.00, 0.00, 1, 1,  8,  42.6266891, -88.1616322,   381.0, 2024,  2, 11, 20, 19, 10,       31,      147, 339,  78,   1.9,   1.2,   1.4,  0, 35, 33,  0,  0,  0,  0, 36,  0,  0,  0,  0, 34,  9, 38,  0, 11,  0,  0,  0, 39,  0,  0,  0,  0,  0,  0,  0,  0, 19,  0,  0
6, 11044, 1,N0CALL,     3.62, -73,   6, 5,   coast,  -15.79,  94835.00,  554.82,  362.51,  158.61,  6.2, 3.83, 3.83, 3.86,   6.63,  -1.57,  -1.18, 314.94,  -0.73,  -5.31,  -0.94,  -0.21,   0.01,  13.00, 3.84, 0.00, 0.00, 0.00, 0.00, 1, 1,  8,  42.6266891, -88.1616322,   381.0, 2024,  2, 11, 20, 19, 10,       31,      147, 339,  78,   1.9,   1.2,   1.4,  0, 35, 33,  0,  0,  0,  0, 36,  0,  0,  0,  0, 34,  9, 38,  0, 11,  0,  0,  0, 39,  0,  0,  0,  0,  0,  0,  0,  0, 19,  0,  0
6, 11044, 1,N0CALL,     3.70, -73,   7, 5,   coast,  -16.26,  94603.00,  575.21,  382.91,  156.86,  6.2, 3.83, 3.83, 3.86,   6.58,  -0.96,  -1.47, 308.29,  -1.28,  -2.08,  -0.94,  -0.18,   0.16,  13.00, 3.84, 0.00, 0.00, 0.00, 0.00, 1, 1,  8,  42.6266891, -88.1616322,   381.0, 2024,  2, 11, 20, 19, 10,       31,      147, 339,  78,   1.9,   1.2,   1.4,  0, 35, 33,  0,  0,  0,  0, 36,  0,  0,  0,  0, 34,  9, 38,  0, 11,  0,  0,  0, 39,  0,  0,  0,  0,  0,  0,  0,  0, 19,  0,  0
6, 11044, 1,N0CALL,     3.73, -73,   7, 5,   coast,  -16.26,  94603.00,  575.21,  382.91,  156.86,  6.2, 3.83, 3.83, 3.85,   6.58,  -0.96,  -1.47, 308.29,  -1.28,  -2.08,  -0.94,  -0.18,   0.16,  13.00, 3.84, 0.00, 0.00, 0.00, 0.00, 1, 1,  8,  42.6266891, -88.1616322,   381.0, 2024,  2, 11, 20, 19, 10,       31,      147, 339,  78,   1.9,   1.2,   1.4,  0, 35, 33,  0,  0,  0,  0, 36,  0,  0,  0,  0, 34,  9, 38,  0, 11,  0,  0,  0, 39,  0,  0,  0,  0,  0,  0,  0,  0, 19,  0,  0
6, 11044, 1,N0CALL,     3.81, -72,   7, 5,   coast,  -14.35,  94411.00,  592.12,  399.82,  155.19,  6.2, 3.83, 3.83, 3.85,   6.44,   0.85,  -1.08, 311.10,   1.46,  -2.08,  -0.93,  -0.06,   0.26,  13.00, 3.84, 0.00, 0.00, 0.00, 0.00, 1, 1,  8,  42.6266891, -88.1616322,   381.0, 2024,  2, 11, 20, 19, 10,       31,      147, 339,  78,   1.9,   1.2,   1.4,  0, 35, 33,  0,  0,  0,  0, 36,  0,  0,  0,  0, 34,  9, 38,  0, 11,  0,  0,  0, 39,  0,  0,  0,  0,  0,  0,  0,  0, 19,  0,  0
6, 11044, 1,N0CALL,     3.84, -72,   7, 5,   coast,  -14.35,  94411.00,  592.12,  399.82,  155.19,  6.2, 3.83, 3.83, 3.85,   6.44,   0.85,  -1.08, 311.10,   1.46,  -2.08,  -0.93,  -0.06,   0.26,  13.00, 3.86, 0.00, 0.00, 0.00, 0.00, 1, 1,  8,  42.6266891, -88.1616322,   381.0, 2024,  2, 11, 20, 19, 10,       31,      147, 339,  78,   1.9,   1.2,   1.4,  0, 35, 33,  0,  0,  0,  0, 36,  0,  0,  0,  0, 34,  9, 38,  0, 11,  0,  0,  0, 39,  0,  0,  0,  0,  0,  0,  0,  0, 19,  0,  0
6, 11044, 1,N0CALL,     3.92, -73,   4, 5,   coast,  -14.83,  94177.00,  612.77,  420.46,  153.60,  6.2, 3.83, 3.83, 3.85,   6.32,   0.64,  -0.85, 312.62,   2.01,  -1.77,  -0.93,   0.09,   0.29,  13.00, 3.86, 0.00, 0.00, 0.00, 0.00, 1, 1,  8,  42.6266891, -88.1616322,   381.0, 2024,  2, 11, 20, 19, 10,       31,      147, 339,  78,   1.9,   1.2,   1.4,  0, 35, 33,  0,  0,  0,  0, 36,  0,  0,  0,  0, 34,  9, 38,  0, 11,  0,  0,  0, 39,  0,  0,  0,  0,  0,  0,  0,  0, 19,  0,  0
6, 11044, 1,N0CALL,     3.95, -74,   7, 5,   coast,  -14.83,  94177.00,  612.77,  420.46,  153.60,  6.2, 3.83, 3.83, 3.86,   6.32,   0.64,  -0.85, 312.62,   2.01,  -1.77,  -0.93,   0.09,   0.29,  13.00, 3.86, 0.00, 0.00, 0.00, 0.00, 1, 1,  8,  42.6266891, -88.1616322,   381.0, 2024,  2, 11, 20, 19, 10,       31,      147, 339,  78,   1.9,   1.2,   1.4,  0, 35, 33,  0,  0,  0,  0, 36,  0,  0,  0,  0, 34,  9, 38,  0, 11,  0,  0,  0, 39,  0,  0,  0,  0,  0,  0,  0,  0, 19,  0,  0
6, 11044, 1,N0CALL,     4.03, -77,   6, 5,   coast,  -13.87,  93983.00,  629.92,  437.61,  152.03,  6.2, 3.83, 3.83, 3.86,   6.02,   0.47,  -0.69, 313.11,   2.87,  -1.95,  -0.93,   0.23,   0.22,  13.00, 3.86, 0.00, 0.00, 0.00, 0.00, 1, 1,  8,  42.6266891, -88.1616322,   381.0, 2024,  2, 11, 20, 19, 10,       31,      147, 339,  78,   1.9,   1.2,   1.4,  0, 35, 33,  0,  0,  0,  0, 36,  0,  0,  0,  0, 34,  9, 38,  0, 11,  0,  0,  0, 39,  0,  0,  0,  0,  0,  0,  0,  0, 19,  0,  0
6, 11044, 1,N0CALL,     4.06, -80,   8, 5,   coast,  -13.87,  93983.00,  629.92,  437.61,  152.03,  6.2, 3.83, 3.83, 3.86,   6.02,   0.47,  -0.69, 313.11,   2.87,  -1.95,  -0.93,   0.23,   0.22,  13.00, 3.85, 0.00, 0.00, 0.00, 0.00, 1, 1,  8,  42.6266891, -88.1616322,   381.0, 2024,  2, 11, 20, 19, 10,       31,      147, 339,  78,   1.9,   1.2,   1.4,  0, 35, 33,  0,  0,  0,  0, 36,  0,  0,  0,  0, 34,  9, 38,  0, 11,  0,  0,  0, 39,  0,  0,  0,  0,  0,  0,  0,  0, 19,  0,  0
6, 11044, 1,N0CALL,     4.14, -79,   5, 5,   coast,  -16.74,  93757.00,  649.93,  457.63,  150.37,  6.2, 3.83, 3.83, 3.86,   5.88,   0.52,  -1.86, 310.91,   1.53,  -1.77,  -0.93,   0.31,   0.10,  13.00, 3.85, 0.00, 0.00, 0.00, 0.00, 1, 1,  8,  42.6266891, -88.1616322,   381.0, 2024,  2, 11, 20, 19, 10,       31,      147, 339,  78,   1.9,   1.2,   1.4,  0, 35, 33,  0,  0,  0,  0, 36,  0,  0,  0,  0, 34,  9, 38,  0, 11,  0,  0,  0, 39,  0,  0,  0,  0,  0,  0,  0,  0, 19,  0,  0
6, 11044, 1,N0CALL,     4.15, -82,   7, 5,   coast,  -16.74,  93757.00,  649.93,  457.63,  150.37,  6.2, 3.83, 3.83, 3.86,   5.88,   0.52,  -1.86, 310.91,   1.53,  -1.77,  -0.93,   0.31,   0.10,  13.00, 3.85, 0.00, 0.00, 0.00, 0.00, 1, 1,  9,  42.6270155, -88.1622956,   677.0, 2024,  2, 11, 20, 19, 12,       92,      450, 315,  78,   2.1,   1.0,   1.8,  0, 35, 33,  0,  0,  0,  0, 36,  0,  0,  0,  0, 34,  9, 38,  0, 11,  0,  0,  0, 39,  0,  0,  0,  0,  0,  0,  0,  0, 19,  0,  0
6, 11044, 1,N0CALL,     4.17, -78,   9, 5,   coast,  -16.74,  93757.00,  649.93,  457.63,  150.37,  6.2, 3.83, 3.83, 3.86,   5.88,   0.52,  -1.86, 310.91,   1.53,  -1.77,  -0.93,   0.31,   0.10,  13.00, 3.85, 0.00, 0.00, 0.00, 0.00, 1, 1,  9,  42.6270155, -88.1622956,   677.0, 2024,  2, 11, 20, 19, 12,       92,      450, 315,  78,   2.1,   1.0,   1.8,  0, 35, 33,  0,  0,  0,  0, 36,  0,  0,  0,  0, 34,  9, 38,  0, 11,  0,  0,  0, 39,  0,  0,  0,  0,  0,  0,  0,  0, 19,  0,  0
6, 11044, 1,N0CALL,     4.25, -75,   7, 5,   coast,  -15.79,  93572.00,  666.35,  474.04,  148.59,  6.2, 3.83, 3.83, 3.86,   5.91,  -0.56,  -2.87, 310.79,   2.38,  -2.75,  -0.94,   0.29,  -0.05,  13.00, 3.85, 0.00, 0.00, 0.00, 0.00, 1, 1,  9,  42.6270155, -88.1622956,   677.0, 2024,  2, 11, 20, 19, 12,       92,      450, 315,  78,   2.1,   1.0,   1.8,  0, 35, 33,  0,  0,  0,  0, 36,  0,  0,  0,  0, 34,  9, 38,  0, 11,  0,  0,  0, 39,  0,  0,  0,  0,  0,  0,  0,  0, 19,  0,  0
6, 11044, 1,N0CALL,     4.28, -74,   5, 5,   coast,  -15.79,  93572.00,  666.35,  474.04,  148.59,  6.2, 3.83, 3.83, 3.86,   5.91,  -0.56,  -2.87, 310.79,   2.38,  -2.75,  -0.94,   0.29,  -0.05,  13.00, 3.85, 0.00, 0.00, 0.00, 0.00, 1, 1,  9,  42.6270155, -88.1622956,   677.0, 2024,  2, 11, 20, 19, 12,       92,      450, 315,  78,   2.1,   1.0,   1.8,  0, 35, 33,  0,  0,  0,  0, 36,  0,  0,  0,  0, 34,  9, 38,  0, 11,  0,  0,  0, 39,  0,  0,  0,  0,  0,  0,  0,  0, 19,  0,  0
6, 11044, 1,N0CALL,     4.36, -73,   6, 5,   coast,  -14.83,  93353.00,  685.81,  493.50,  146.93,  6.2, 3.83, 3.83, 3.86,   5.71,  -0.33,  -2.16, 307.98,  -0.37,  -3.66,  -0.94,   0.19,  -0.17,  13.00, 3.85, 0.00, 0.00, 0.00, 0.00, 1, 1,  9,  42.6270155, -88.1622956,   677.0, 2024,  2, 11, 20, 19, 12,       92,      450, 315,  78,   2.1,   1.0,   1.8,  0, 35, 33,  0,  0,  0,  0, 36,  0,  0,  0,  0, 34,  9, 38,  0, 11,  0,  0,  0, 39,  0,  0,  0,  0,  0,  0,  0,  0, 19,  0,  0
6, 11044, 1,N0CALL,     4.39, -73,   8, 5,   coast,  -14.83,  93353.00,  685.81,  493.50,  146.93,  6.2, 3.83, 3.83, 3.86,   5.71,  -0.33,  -2.16, 307.98,  -0.37,  -3.66,  -0.94,   0.19,  -0.17,  13.00, 3.85, 0.00, 0.00, 0.00, 0.00, 1, 1,  9,  42.6270155, -88.1622956,   677.0, 2024,  2, 11, 20, 19, 12,       92,      450, 315,  78,   2.1,   1.0,   1.8,  0, 35, 33,  0,  0,  0,  0, 36,  0,  0,  0,  0, 34,  9, 38,  0, 11,  0,  0,  0, 39,  0,  0,  0,  0,  0,  0,  0,  0, 19,  0,  0
6, 11044, 1,N0CALL,     4.47, -74,   5, 5,   coast,  -15.31,  93179.00,  701.30,  508.99,  145.28,  6.2, 3.83, 3.83, 3.86,   5.50,   0.70,  -2.34, 301.21,  -0.79,  -4.03,  -0.94,   0.05,  -0.22,  13.00, 3.85, 0.00, 0.00, 0.00, 0.00, 1, 1,  9,  42.6270155, -88.1622956,   677.0, 2024,  2, 11, 20, 19, 12,       92,      450, 315,  78,   2.1,   1.0,   1.8,  0, 35, 33,  0,  0,  0,  0, 36,  0,  0,  0,  0, 34,  9, 38,  0, 11,  0,  0,  0, 39,  0,  0,  0,  0,  0,  0,  0,  0, 19,  0,  0
6, 11044, 1,N0CALL,     4.50, -75,   7, 5,   coast,  -15.31,  93179.00,  701.30,  508.99,  145.28,  6.2, 3.83, 3.83, 3.86,   5.50,   0.70,  -2.34, 301.21,  -0.79,  -4.03,  -0.94,   0.05,  -0.22,  13.00, 3.86, 0.00, 0.00, 0.00, 0.00, 1, 1,  9,  42.6270155, -88.1622956,   677.0, 2024,  2, 11, 20, 19, 12,       92,      450, 315,  78,   2.1,   1.0,   1.8,  0, 35, 33,  0,  0,  0,  0, 36,  0,  0,  0,  0, 34,  9, 38,  0, 11,  0,  0,  0, 39,  0,  0,  0,  0,  0,  0,  0,  0, 19,  0,  0
6, 11044, 1,N0CALL,     4.58, -78,   7, 5,   coast,  -14.83,  92962.00,  720.65,  528.34,  143.64,  6.2, 3.83, 3.83, 3.86,   5.40,   1.11,  -1.24, 297.67,  -0.31,  -4.76,  -0.94,  -0.10,  -0.19,  13.00, 3.86, 0.00, 0.00, 0.00, 0.00, 1, 1,  9,  42.6270155, -88.1622956,   677.0, 2024,  2, 11, 20, 19, 12,       92,      450, 315,  78,   2.1,   1.0,   1.8,  0, 35, 33,  0,  0,  0,  0, 36,  0,  0,  0,  0, 34,  9, 38,  0, 11,  0,  0,  0, 39,  0,  0,  0,  0,  0,  0,  0,  0, 19,  0,  0
6, 11044, 1,N0CALL,     4.61, -80,   7, 5,   coast,  -14.83,  92962.00,  720.65,  528.34,  143.64,  6.2, 3.83, 3.83, 3.86,   5.40,   1.11,  -1.24, 297.67,  -0.31,  -4.76,  -0.94,  -0.10,  -0.19,  13.00, 3.85, 0.00, 0.00, 0.00, 0.00, 1, 1,  9,  42.6270155, -88.1622956,   677.0, 2024,  2, 11, 20, 19, 12,       92,      450, 315,  78,   2.1,   1.0,   1.8,  0, 35, 33,  0,  0,  0,  0, 36,  0,  0,  0,  0, 34,  9, 38,  0, 11,  0,  0,  0, 39,  0,  0,  0,  0,  0,  0,  0,  0, 19,  0,  0
6, 11044, 1,N0CALL,     4.72, -85,  13, 5,   coast,  -14.83,  92962.00,  720.65,  528.34,  143.64,  6.2, 3.83, 3.83, 3.86,   5.40,   1.11,  -1.24, 297.67,  -0.31,  -4.76,  -0.94,  -0.10,  -0.19,  13.00, 3.85, 0.00, 0.00, 0.00, 0.00, 1, 1,  9,  42.6270155, -88.1622956,   677.0, 2024,  2, 11, 20, 19, 12,       92,      450, 315,  78,   2.1,   1.0,   1.8,  0, 36, 31,  0,  0,  0, 32, 33,  0,  0,  0,  0, 36, 24, 37,  0,  0,  0,  0,  0, 35,  0,  0,  0,  0,  0,  0,  0,  0, 12,  0,  0
6, 11044, 1,N0CALL,     4.72, -82,   6, 5,   coast,  -14.83,  92962.00,  720.65,  528.34,  143.64,  6.2, 3.83, 3.83, 3.86,   5.40,   1.11,  -1.24, 297.67,  -0.31,  -4.76,  -0.94,  -0.10,  -0.19,  13.00, 3.85, 0.00, 0.00, 0.00, 0.00, 1, 1,  9,  42.6270155, -88.1622956,   677.0, 2024,  2, 11, 20, 19, 12,       92,      450, 315,  78,   2.1,   1.0,   1.8,  0, 36, 31,  0,  0,  0, 32, 33,  0,  0,  0,  0, 36, 24, 37,  0,  0,  0,  0,  0, 35,  0,  0,  0,  0,  0,  0,  0,  0, 12,  0,  0
6, 11044, 1,N0CALL,     4.80, -79,   6, 5,   coast,  -16.74,  92565.00,  756.14,  563.83,  140.21,  6.2, 3.83, 3.83, 3.86,   5.23,   0.60,  -1.44, 293.82,   1.40,  -6.77,  -0.93,  -0.22,   0.07,  14.00, 3.85, 0.00, 0.00, 0.00, 0.00, 1, 1,  9,  42.6270155, -88.1622956,   677.0, 2024,  2, 11, 20, 19, 12,       92,      450, 315,  78,   2.1,   1.0,   1.8,  0, 36, 31,  0,  0,  0, 32, 33,  0,  0,  0,  0, 36, 24, 37,  0,  0,  0,  0,  0, 35,  0,  0,  0,  0,  0,  0,  0,  0, 12,  0,  0
6, 11044, 1,N0CALL,     4.83, -76,   6, 5,   coast,  -16.74,  92565.00,  756.14,  563.83,  140.21,  6.2, 3.83, 3.83, 3.85,   5.23,   0.60,  -1.44, 293.82,   1.40,  -6.77,  -0.93,  -0.22,   0.07,  14.00, 3.85, 0.00, 0.00, 0.00, 0.00, 1, 1,  9,  42.6270155, -88.1622956,   677.0, 2024,  2, 11, 20, 19, 12,       92,      450, 315,  78,   2.1,   1.0,   1.8,  0, 36, 31,  0,  0,  0, 32, 33,  0,  0,  0,  0, 36, 24, 37,  0,  0,  0,  0,  0, 35,  0,  0,  0,  0,  0,  0,  0,  0, 12,  0,  0
6, 11044, 1,N0CALL,     4.91, -75,   9, 5,   coast,  -13.87,  92408.00,  770.21,  577.91,  138.54,  6.2, 3.83, 3.83, 3.85,   4.94,   0.45,  -0.96, 293.27,   3.05,  -6.47,  -0.93,  -0.16,   0.20,  15.00, 3.85, 0.00, 0.00, 0.00, 0.00, 1, 1,  9,  42.6270155, -88.1622956,   677.0, 2024,  2, 11, 20, 19, 12,       92,      450, 315,  78,   2.1,   1.0,   1.8,  0, 36, 31,  0,  0,  0, 32, 33,  0,  0,  0,  0, 36, 24, 37,  0,  0,  0,  0,  0, 35,  0,  0,  0,  0,  0,  0,  0,  0, 12,  0,  0
6, 11044, 1,N0CALL,     4.94, -74,   7, 5,   coast,  -13.87,  92408.00,  770.21,  577.91,  138.54,  6.2, 3.83, 3.83, 3.86,   4.94,   0.45,  -0.96, 293.27,   3.05,  -6.47,  -0.93,  -0.16,   0.20,  15.00, 3.85, 0.00, 0.00, 0.00, 0.00, 1, 1,  9,  42.6270155, -88.1622956,   677.0, 2024,  2, 11, 20, 19, 12,       92,      450, 315,  78,   2.1,   1.0,   1.8,  0, 36, 31,  0,  0,  0, 32, 33,  0,  0,  0,  0, 36, 24, 37,  0,  0,  0,  0,  0, 35,  0,  0,  0,  0,  0,  0,  0,  0, 12,  0,  0
6, 11044, 1,N0CALL,     5.02, -74,   7, 5,   coast,  -14.83,  92208.00,  788.17,  595.86,  136.98,  6.2, 3.83, 3.83, 3.86,   4.91,   0.00,  -1.46, 288.21,   2.75,  -4.52,  -0.92,  -0.03,   0.29,  15.00, 3.85, 0.00, 0.00, 0.00, 0.00, 1, 1,  9,  42.6270155, -88.1622956,   677.0, 2024,  2, 11, 20, 19, 12,       92,      450, 315,  78,   2.1,   1.0,   1.8,  0, 36, 31,  0,  0,  0, 32, 33,  0,  0,  0,  0, 36, 24, 37,  0,  0,  0,  0,  0, 35,  0,  0,  0,  0,  0,  0,  0,  0, 12,  0,  0
6, 11044, 1,N0CALL,     5.05, -74,  12, 5,   coast,  -14.83,  92208.00,  788.17,  595.86,  136.98,  6.2, 3.83, 3.83, 3.86,   4.91,   0.00,  -1.46, 288.21,   2.75,  -4.52,  -0.92,  -0.03,   0.29,  15.00, 3.85, 0.00, 0.00, 0.00, 0.00, 1, 1,  9,  42.6270155, -88.1622956,   677.0, 2024,  2, 11, 20, 19, 12,       92,      450, 315,  78,   2.1,   1.0,   1.8,  0, 36, 31,  0,  0,  0, 32, 33,  0,  0,  0,  0, 36, 24, 37,  0,  0,  0,  0,  0, 35,  0,  0,  0,  0,  0,  0,  0,  0, 12,  0,  0
6, 11044, 1,N0CALL,     5.13, -76,   6, 5,   coast,  -14.35,  92043.00,  803.00,  610.70,  135.39,  6.2, 3.83, 3.83, 3.86,   4.71,   0.42,  -0.85, 281.13,   1.89,  -3.23,  -0.92,   0.12,   0.30,  16.00, 3.85, 0.00, 0.00, 0.00, 0.00, 1, 1,  9,  42.6270155, -88.1622956,   677.0, 2024,  2, 11, 20, 19, 12,       92,      450, 315,  78,   2.1,   1.0,   1.8,  0, 36, 31,  0,  0,  0, 32, 33,  0,  0,  0,  0, 36, 24, 37,  0,  0,  0,  0,  0, 35,  0,  0,  0,  0,  0,  0,  0,  0, 12,  0,  0
6, 11044, 1,N0CALL,     5.15, -76,   7, 5,   coast,  -14.35,  92043.00,  803.00,  610.70,  135.39,  6.2, 3.83, 3.83, 3.86,   4.71,   0.42,  -0.85, 281.13,   1.89,  -3.23,  -0.92,   0.12,   0.30,  16.00, 3.85, 0.00, 0.00, 0.00, 0.00, 1, 1,  7,  42.6270416, -88.1626269,   820.0, 2024,  2, 11, 20, 19, 13,      115,      594, 306,  79,   2.4,   1.0,   2.2,  0, 36, 31,  0,  0,  0, 32, 33,  0,  0,  0,  0, 36, 24, 37,  0,  0,  0,  0,  0, 35,  0,  0,  0,  0,  0,  0,  0,  0, 12,  0,  0
6, 11044, 1,N0CALL,     5.16, -76,   8, 5,   coast,  -14.35,  92043.00,  803.00,  610.70,  135.39,  6.2, 3.83, 3.83, 3.86,   4.71,   0.42,  -0.85, 281.13,   1.89,  -3.23,  -0.92,   0.12,   0.30,  16.00, 3.85, 0.00, 0.00, 0.00, 0.00, 1, 1,  7,  42.6270416, -88.1626269,   820.0, 2024,  2, 11, 20, 19, 13,      115,      594, 306,  79,   2.4,   1.0,   2.2,  0, 36, 31,  0,  0,  0, 32, 33,  0,  0,  0,  0, 36, 24, 37,  0,  0,  0,  0,  0, 35,  0,  0,  0,  0,  0,  0,  0,  0, 12,  0,  0
6, 11044, 1,N0CALL,     5.24, -80,   7, 5,   coast,  -13.39,  91847.00,  820.65,  628.35,  133.88,  6.2, 3.83, 3.83, 3.86,   4.66,   0.39,  -1.66, 279.11,  -0.06,  -3.23,  -0.92,   0.25,   0.23,  15.00, 3.85, 0.00, 0.00, 0.00, 0.00, 1, 1,  7,  42.6270416, -88.1626269,   820.0, 2024,  2, 11, 20, 19, 13,      115,      594, 306,  79,   2.4,   1.0,   2.2,  0, 36, 31,  0,  0,  0, 32, 33,  0,  0,  0,  0, 36, 24, 37,  0,  0,  0,  0,  0, 35,  0,  0,  0,  0,  0,  0,  0,  0, 12,  0,  0
6, 11044, 1,N0CALL,     5.27, -83,   5, 5,   coast,  -13.39,  91847.00,  820.65,  628.35,  133.88,  6.2, 3.83, 3.83, 3.86,   4.66,   0.39,  -1.66, 279.11,  -0.06,  -3.23,  -0.92,   0.25,   0.23,  15.00, 3.85, 0.00, 0.00, 0.00, 0.00, 1, 1,  7,  42.6270416, -88.1626269,   820.0, 2024,  2, 11, 20, 19, 13,      115,      594, 306,  79,   2.4,   1.0,   2.2,  0, 36, 31,  0,  0,  0, 32, 33,  0,  0,  0,  0, 36, 24, 37,  0,  0,  0,  0,  0, 35,  0,  0,  0,  0,  0,  0,  0,  0, 12,  0,  0
6, 11044, 1,N0CALL,     5.35, -82,   6, 5,   coast,  -13.87,  91684.00,  835.36,  643.05,  132.40,  6.2, 3.83, 3.83, 3.86,   4.52,  -0.37,  -1.00, 273.25,   0.24,  -2.62,  -0.92,   0.32,   0.11,  15.00, 3.85, 0.00, 0.00, 0.00, 0.00, 1, 1,  7,  42.6270416, -88.1626269,   820.0, 2024,  2, 11, 20, 19, 13,      115,      594, 306,  79,   2.4,   1.0,   2.2,  0, 36, 31,  0,  0,  0, 32, 33,  0,  0,  0,  0, 36, 24, 37,  0,  0,  0,  0,  0, 35,  0,  0,  0,  0,  0,  0,  0,  0, 12,  0,  0
6, 11044, 1,N0CALL,     5.38, -79,   7, 5,   coast,  -13.87,  91684.00,  835.36,  643.05,  132.40,  6.2, 3.83, 3.83, 3.86,   4.52,  -0.37,  -1.00, 273.25,   0.24,  -2.62,  -0.92,   0.32,   0.11,  15.00, 3.85, 0.00, 0.00, 0.00, 0.00, 1, 1,  7,  42.6270416, -88.1626269,   820.0, 2024,  2, 11, 20, 19, 13,      115,      594, 306,  79,   2.4,   1.0,   2.2,  0, 36, 31,  0,  0,  0, 32, 33,  0,  0,  0,  0, 36, 24, 37,  0,  0,  0,  0,  0, 35,  0,  0,  0,  0,  0,  0,  0,  0, 12,  0,  0
6, 11044, 1,N0CALL,     5.46, -76,   8, 5,   coast,  -12.44,  91492.00,  852.70,  660.39,  130.96,  6.2, 3.83, 3.83, 3.86,   4.45,   0.16,  -1.09, 269.23,   0.12,  -2.93,  -0.93,   0.32,  -0.03,  15.00, 3.85, 0.00, 0.00, 0.00, 0.00, 1, 1,  7,  42.6270416, -88.1626269,   820.0, 2024,  2, 11, 20, 19, 13,      115,      594, 306,  79,   2.4,   1.0,   2.2,  0, 36, 31,  0,  0,  0, 32, 33,  0,  0,  0,  0, 36, 24, 37,  0,  0,  0,  0,  0, 35,  0,  0,  0,  0,  0,  0,  0,  0, 12,  0,  0
6, 11044, 1,N0CALL,     5.49, -76,   4, 5,   coast,  -12.44,  91492.00,  852.70,  660.39,  130.96,  6.2, 3.83, 3.83, 3.86,   4.45,   0.16,  -1.09, 269.23,   0.12,  -2.93,  -0.93,   0.32,  -0.03,  15.00, 3.85, 0.00, 0.00, 0.00, 0.00, 1, 1,  7,  42.6270416, -88.1626269,   820.0, 2024,  2, 11, 20, 19, 13,      115,      594, 306,  79,   2.4,   1.0,   2.2,  0, 36, 31,  0,  0,  0, 32, 33,  0,  0,  0,  0, 36, 24, 37,  0,  0,  0,  0,  0, 35,  0,  0,  0,  0,  0,  0,  0,  0, 12,  0,  0
6, 11044, 1,N0CALL,     5.57, -75,   6, 5,   coast,  -14.35,  91343.00,  866.18,  673.87,  129.50,  6.2, 3.83, 3.83, 3.86,   4.35,   0.37,  -1.06, 264.71,  -0.55,  -2.50,  -0.93,   0.25,  -0.15,  14.00, 3.85, 0.00, 0.00, 0.00, 0.00, 1, 1,  7,  42.6270416, -88.1626269,   820.0, 2024,  2, 11, 20, 19, 13,      115,      594, 306,  79,   2.4,   1.0,   2.2,  0, 36, 31,  0,  0,  0, 32, 33,  0,  0,  0,  0, 36, 24, 37,  0,  0,  0,  0,  0, 35,  0,  0,  0,  0,  0,  0,  0,  0, 12,  0,  0
6, 11044, 1,N0CALL,     5.60, -74,   7, 5,   coast,  -14.35,  91343.00,  866.18,  673.87,  129.50,  6.2, 3.83, 3.83, 3.86,   4.35,   0.37,  -1.06, 264.71,  -0.55,  -2.50,  -0.93,   0.25,  -0.15,  14.00, 3.85, 0.00, 0.00, 0.00, 0.00, 1, 1,  7,  42.6270416, -88.1626269,   820.0, 2024,  2, 11, 20, 19, 13,      115,      594, 306,  79,   2.4,   1.0,   2.2,  0, 36, 31,  0,  0,  0, 32, 33,  0,  0,  0,  0, 36, 24, 37,  0,  0,  0,  0,  0, 35,  0,  0,  0,  0,  0,  0,  0,  0, 12,  0,  0
