Type,Units,Time,X Position,Y Position,Y Encoder,Z Position,Z Encoder,Yaw,Pitch,WAFBC Drag,WAFBC Side,WAFBC Lift,WAFBC Roll,WAFBC Pitch,WAFBC Yaw,WAFMC Drag,WAFMC Side,WAFMC Lift,WAFMC Roll,WAFMC Pitch,WAFMC Yaw,BAFMC Axial,BAFMC Side,BAFMC Normal,BAFMC Roll,BAFMC Pitch,BAFMC Yaw,DPT250,DPT251,PT250,TE250,Velocity,Dynamic Pressure,Mach,Reynolds Number per ft,Velocity Setpoint,Temperature Setpoint,cDAQ AI0,cDAQ AI1,cDAQ AI2,cDAQ AI3,cDAQ AI4,cDAQ AI5,cDAQ AI6,cDAQ AI7,cRIO AI0,cRIO AI1,cRIO AI2,cRIO AI3,Drag (raw),Side (raw),Lift (raw),Roll (raw),Pitch (raw),Yaw (raw),Date,ClockTime,Seconds
Type,USC / SI,Time,Inches / Millimeters,Inches / Millimeters,Inches / Millimeters,Inches / Millimeters,Inches / Millimeters,Degrees / Degrees,Degrees / Degrees,lb / N,lb / N,lb / N,ft-lb / N-m,ft-lb / N-m,ft-lb / N-m,lb / N,lb / N,lb / N,ft-lb / N-m,ft-lb / N-m,ft-lb / N-m,lb / N,lb / N,lb / N,ft-lb / N-m,ft-lb / N-m,ft-lb / N-m,PSId / Pascals,PSId / Pascals,PSIa / Pascals,F / F,Ft/s / m/s,PSId / Pascals, / ,1/ft / 1/ft,ft/s / m/s,F / F, / , / , / , / , / , / , / , / , / , / , / , / , / , / , / , / , / , / ,Time,,
Mult,USC,250218 10:17:15.125, 0.000000, 0.000000, 0.000000, 0.000000, 0.000276, 0.000002, 0.000000, 9.916519,-5.303020, 7.893001, 3.140000,-15.572408,23.972227, 9.916519,-5.303020, 7.893001, 3.140000,-15.572408,23.972227, 9.916520,-5.303020, 7.893001, 3.140001,-15.572408,23.972227, 0.156942, 0.720858,14.611623,68.609106,300.097626, 0.725544, 0.266338,1836566.125000,300.000000,69.549992,-0.000000,-0.000000, 0.000000, 0.000000,-0.000001,-0.000001, 0.000000, 0.000000, 1.014044,-0.003296, 0.002032, 0.020047,-0.065473,,,,,,250218,10:17:15.125,37035.125
Mult,USC,250218 10:17:15.140, 0.000000, 0.000000, 0.000000, 0.000000, 0.000276, 0.000002, 0.000000, 9.538271,-5.729656,-6.808823, 0.450278,-10.627657,22.176842, 9.538271,-5.729656,-6.808823, 0.450278,-10.627657,22.176842, 9.538272,-5.729656,-6.808823, 0.450279,-10.627657,22.176842, 0.156942, 0.720858,14.611623,68.609106,300.097626, 0.725544, 0.266338,1836566.125000,300.000000,69.549992,-0.000001,-0.000001,-0.000001, 0.000000, 0.000000,-0.000001,-0.000001, 0.000000, 1.012747,-0.003140, 0.002045, 0.018683,-0.062802,,,,,,250218,10:17:15.140,37035.14
Mult,USC,250218 10:17:15.155, 0.000000, 0.000000, 0.000000, 0.000000, 0.000276, 0.000002, 0.000000, 9.417760,-5.169126, 0.171929, 0.577562,-9.503398,20.132217, 9.417760,-5.169126, 0.171929, 0.577562,-9.503398,20.132217, 9.417760,-5.169126, 0.171929, 0.577562,-9.503398,20.132217, 0.156942, 0.720858,14.611623,68.609106,300.097626, 0.725544, 0.266338,1836566.125000,300.000000,69.549992,-0.000001,-0.000001, 0.000000,-0.000001,-0.000001,-0.000001,-0.000001, 0.000000, 1.010965,-0.002991, 0.001813, 0.018118,-0.061940,,,,,,250218,10:17:15.155,37035.155
Mult,USC,250218 10:17:15.170, 0.000000, 0.000000, 0.000000, 0.000000, 0.000276, 0.000002, 0.000000,11.449256,-4.415898,12.482213, 0.986820,-14.141189,19.027605,11.449256,-4.415898,12.482213, 0.986820,-14.141189,19.027605,11.449257,-4.415898,12.482213, 0.986821,-14.141188,19.027605, 0.156942, 0.720858,14.611623,68.609106,300.097626, 0.725544, 0.266338,1836566.125000,300.000000,69.549992,-0.000000,-0.000001, 0.000000, 0.000000, 0.000000,-0.000001, 0.000000, 0.000000, 1.013733,-0.003055, 0.001846, 0.018152,-0.075822,,,,,,250218,10:17:15.170,37035.17
Mult,USC,250218 10:17:15.185, 0.000000, 0.000000, 0.000000, 0.000000, 0.000276, 0.000002, 0.000000,11.087699,-4.539590, 0.090826,-2.933614,-22.079715,19.594241,11.087699,-4.539590, 0.090826,-2.933614,-22.079715,19.594241,11.087699,-4.539590, 0.090826,-2.933613,-22.079715,19.594241, 0.156942, 0.720858,14.611623,68.609106,300.097626, 0.725544, 0.266338,1836566.125000,300.000000,69.549992,-0.000001,-0.000001,-0.000002, 0.000000,-0.000001, 0.000000, 0.000000,-0.000001, 1.011658,-0.003052, 0.002206, 0.018912,-0.073201,,,,,,250218,10:17:15.185,37035.185
Mult,USC,250218 10:17:15.200, 0.000000, 0.000000, 0.000000, 0.000000, 0.000276, 0.000002, 0.000000, 9.746783,-4.022007,-7.058278,-3.046188,-17.995308,21.147061, 9.746783,-4.022007,-7.058278,-3.046188,-17.995308,21.147061, 9.746783,-4.022006,-7.058278,-3.046187,-17.995308,21.147061, 0.156942, 0.720858,14.611623,68.609106,300.097626, 0.725544, 0.266338,1836566.125000,300.000000,69.549992,-0.000001,-0.000000, 0.000000, 0.000000,-0.000001,-0.000001,-0.000001,-0.000001, 1.013770,-0.002869, 0.001620, 0.020300,-0.064536,,,,,,250218,10:17:15.200,37035.2
Mult,USC,250218 10:17:15.215, 0.000000, 0.000000, 0.000000, 0.000000, 0.000276, 0.000000, 0.000000, 8.449012,-4.702901, 9.230958,-0.052729,-19.670955,22.178372, 8.449012,-4.702901, 9.230958,-0.052729,-19.670955,22.178372, 8.449012,-4.702901, 9.230958,-0.052729,-19.670955,22.178372, 0.156926, 0.721297,14.621800,68.609106,300.030273, 0.725724, 0.266279,1837433.125000,300.000000,69.549992,-0.000000,-0.000001, 0.000000,-0.000001,-0.000001,-0.000001, 0.000000,-0.000001, 1.013379,-0.002960, 0.001999, 0.021902,-0.055752,,,,,,250218,10:17:15.215,37035.215
Mult,USC,250218 10:17:15.230, 0.000000, 0.000000, 0.000000, 0.000000, 0.000276, 0.000000, 0.000000, 9.132455,-5.412286,11.381279, 1.014808,-17.916351,23.267298, 9.132455,-5.412286,11.381279, 1.014808,-17.916351,23.267298, 9.132455,-5.412286,11.381279, 1.014808,-17.916351,23.267298, 0.156926, 0.721297,14.621800,68.609106,300.030273, 0.725724, 0.266279,1837433.125000,300.000000,69.549992,-0.000000,-0.000001,-0.000001, 0.000000, 0.000000, 0.000000, 0.000001,-0.000001, 1.013950,-0.002979, 0.002393, 0.021744,-0.060203,,,,,,250218,10:17:15.230,37035.23
Mult,USC,250218 10:17:15.245, 0.000000, 0.000000, 0.000000, 0.000000, 0.000276, 0.000000, 0.000000, 9.177478,-7.046541,-4.402976, 3.335056,-17.704807,23.757079, 9.177478,-7.046541,-4.402976, 3.335056,-17.704807,23.757079, 9.177478,-7.046541,-4.402976, 3.335056,-17.704807,23.757079, 0.156926, 0.721297,14.621800,68.609106,300.030273, 0.725724, 0.266279,1837433.125000,300.000000,69.549992,-0.000001,-0.000001, 0.000000,-0.000001, 0.000000,-0.000001,-0.000001, 0.000000, 1.013693,-0.003049, 0.002069, 0.020367,-0.060171,,,,,,250218,10:17:15.245,37035.245
Mult,USC,250218 10:17:15.260, 0.000000, 0.000000, 0.000000, 0.000000, 0.000276, 0.000000, 0.000000, 9.382015,-6.773404, 1.804035, 4.194827,-12.179156,23.114394, 9.382015,-6.773404, 1.804035, 4.194827,-12.179156,23.114394, 9.382015,-6.773404, 1.804035, 4.194827,-12.179156,23.114394, 0.156926, 0.721297,14.621800,68.609106,300.030273, 0.725724, 0.266279,1837433.125000,300.000000,69.549992,-0.000001,-0.000000,-0.000001,-0.000001,-0.000001, 0.000000,-0.000001,-0.000001, 1.011938,-0.003357, 0.001685, 0.020581,-0.061499,,,,,,250218,10:17:15.260,37035.26
Mult,USC,250218 10:17:15.275, 0.000000, 0.000000, 0.000000, 0.000000, 0.000276, 0.000000, 0.000000, 9.501456,-6.370571,12.045671, 1.655716,-14.092572,22.092087, 9.501456,-6.370571,12.045671, 1.655716,-14.092572,22.092087, 9.501456,-6.370571,12.045671, 1.655716,-14.092572,22.092087, 0.156926, 0.721297,14.621800,68.609106,300.030273, 0.725724, 0.266279,1837433.125000,300.000000,69.549992,-0.000001,-0.000000, 0.000000, 0.000000,-0.000001,-0.000001,-0.000001,-0.000001, 1.013202,-0.002979, 0.001743, 0.019293,-0.062430,,,,,,250218,10:17:15.275,37035.275
Mult,USC,250218 10:17:15.290, 0.000000, 0.000000, 0.000000, 0.000000, 0.000276, 0.000000, 0.000000, 9.775064,-5.163639, 0.396176,-0.854281,-8.284473,22.023647, 9.775064,-5.163639, 0.396176,-0.854281,-8.284473,22.023647, 9.775064,-5.163639, 0.396176,-0.854281,-8.284473,22.023647, 0.156926, 0.721297,14.621800,68.609106,300.030273, 0.725724, 0.266279,1837433.125000,300.000000,69.549992,-0.000000,-0.000001, 0.000000,-0.000001, 0.000000,-0.000001,-0.000001,-0.000001, 1.012997,-0.002710, 0.001999, 0.017514,-0.064308,,,,,,250218,10:17:15.290,37035.29
Mult,USC,250218 10:17:15.305, 0.000000, 0.000000, 0.000000, 0.000000, 0.000276, 0.000000, 0.000000,10.603653,-4.946598,-7.169847, 0.327345,-12.973630,22.107067,10.603653,-4.946598,-7.169847, 0.327345,-12.973630,22.107067,10.603653,-4.946598,-7.169847, 0.327345,-12.973630,22.107067, 0.156926, 0.721297,14.621800,68.609106,300.030273, 0.725724, 0.266279,1837433.125000,300.000000,69.549992,-0.000000,-0.000000,-0.000001,-0.000001,-0.000001, 0.000000, 0.000000,-0.000001, 1.012714,-0.003052, 0.002136, 0.017416,-0.070107,,,,,,250218,10:17:15.305,37035.305
Mult,USC,250218 10:17:15.320, 0.000000, 0.000000, 0.000000, 0.000000, 0.000276, 0.000000,-0.000002,11.203254,-4.739179, 5.740393, 0.707230,-10.302950,21.993646,11.203254,-4.739179, 5.740393, 0.707230,-10.302950,21.993646,11.203254,-4.739179, 5.740392, 0.707231,-10.302950,21.993646, 0.156921, 0.721106,14.610053,68.631467,300.102325, 0.725458, 0.266337,1836259.875000,300.000000,69.549992,-0.000001,-0.000001, 0.000000,-0.000001, 0.000000,-0.000001, 0.000000, 0.000000, 1.015897,-0.003113, 0.001968, 0.017953,-0.074042,,,,,,250218,10:17:15.320,37035.32
Mult,USC,250218 10:17:15.335, 0.000000, 0.000000, 0.000000, 0.000000, 0.000276, 0.000000,-0.000002, 9.973778,-4.741439, 5.673978,-0.539567,-15.805811,21.502754, 9.973778,-4.741439, 5.673978,-0.539567,-15.805811,21.502754, 9.973778,-4.741439, 5.673977,-0.539567,-15.805811,21.502754, 0.156921, 0.721106,14.610053,68.631467,300.102325, 0.725458, 0.266337,1836259.875000,300.000000,69.549992,-0.000000,-0.000000, 0.000000,-0.000001,-0.000001,-0.000001, 0.000001,-0.000001, 1.014493,-0.003491, 0.001746, 0.017999,-0.065831,,,,,,250218,10:17:15.335,37035.335
Mult,USC,250218 10:17:15.350, 0.000000, 0.000000, 0.000000, 0.000000, 0.000276, 0.000000,-0.000002, 8.943966,-5.177081,-4.600208, 1.095362,-8.234371,20.997146, 8.943966,-5.177081,-4.600208, 1.095362,-8.234371,20.997146, 8.943966,-5.177081,-4.600208, 1.095363,-8.234371,20.997146, 0.156921, 0.721106,14.610053,68.631467,300.102325, 0.725458, 0.266337,1836259.875000,300.000000,69.549992,-0.000001,-0.000000,-0.000001, 0.000000, 0.000000, 0.000000, 0.000000,-0.000001, 1.014908,-0.002774, 0.002014, 0.018759,-0.058904,,,,,,250218,10:17:15.350,37035.35
Mult,USC,250218 10:17:15.365, 0.000000, 0.000000, 0.000000, 0.000000, 0.000276, 0.000000,-0.000002,10.082708,-4.655546,-0.858563, 2.074940,-7.231543,20.339994,10.082708,-4.655546,-0.858563, 2.074940,-7.231543,20.339994,10.082708,-4.655546,-0.858563, 2.074940,-7.231543,20.339994, 0.156921, 0.721106,14.610053,68.631467,300.102325, 0.725458, 0.266337,1836259.875000,300.000000,69.549992,-0.000001,-0.000000, 0.000000,-0.000001,-0.000001,-0.000001, 0.000000, 0.000000, 1.013416,-0.002869, 0.001712, 0.020831,-0.066544,,,,,,250218,10:17:15.365,37035.365
Mult,USC,250218 10:17:15.380, 0.000000, 0.000000, 0.000000, 0.000000, 0.000276, 0.000000,-0.000002, 9.842297,-5.349697, 7.364492,-1.786751,-21.312773,20.215744, 9.842297,-5.349697, 7.364492,-1.786751,-21.312773,20.215744, 9.842298,-5.349697, 7.364492,-1.786750,-21.312773,20.215744, 0.156921, 0.721106,14.610053,68.631467,300.102325, 0.725458, 0.266337,1836259.875000,300.000000,69.549992,-0.000001,-0.000000,-0.000001,-0.000001, 0.000000,-0.000001, 0.000000,-0.000001, 1.013162,-0.003140, 0.002066, 0.022278,-0.064814,,,,,,250218,10:17:15.380,37035.38
Mult,USC,250218 10:17:15.395, 0.000000, 0.000000, 0.000000, 0.000000, 0.000276, 0.000000,-0.000002,10.342400,-4.223677, 4.850769, 0.341120,-9.319906,20.838420,10.342400,-4.223677, 4.850769, 0.341120,-9.319906,20.838420,10.342400,-4.223677, 4.850769, 0.341120,-9.319906,20.838420, 0.156921, 0.721106,14.610053,68.631467,300.102325, 0.725458, 0.266337,1836259.875000,300.000000,69.549992,-0.000001,-0.000001, 0.000000, 0.000000,-0.000001, 0.000000,-0.000001, 0.000001, 1.013004,-0.003235, 0.001904, 0.021210,-0.068380,,,,,,250218,10:17:15.395,37035.395
Mult,USC,250218 10:17:15.410, 0.000000, 0.000000, 0.000000, 0.000000, 0.000276, 0.000000,-0.000000, 1.875860,-1.116894,-0.708147,-0.572544,-4.949479, 4.388637, 1.875860,-1.116894,-0.708147,-0.572544,-4.949479, 4.388637, 1.875860,-1.116894,-0.708147,-0.572544,-4.949479, 4.388637, 0.156921, 0.721106,14.610053,68.631467,300.102325, 0.725458, 0.266337,1836259.875000,300.000000,69.549992,-0.000000,-0.000001, 0.000000,-0.000001, 0.000000, 0.000000,-0.000001,-0.000001, 1.002429,-0.000562, 0.000339, 0.003745,-0.012338,,,,,,250218,10:17:15.410,37035.41
Mult,USC,250218 10:17:15.425, 0.000000, 0.000000, 0.000000, 0.000000, 0.000276, 0.000000, 0.000000, 9.342958,-4.622569, 2.819899, 2.124675,-15.285622,22.813582, 9.342958,-4.622569, 2.819899, 2.124675,-15.285622,22.813582, 9.342958,-4.622569, 2.819899, 2.124675,-15.285622,22.813582, 0.156934, 0.720836,14.618863,68.631467,300.146637, 0.725848, 0.266376,1836976.875000,300.000000,69.549992,-0.000001,-0.000001,-0.000001,-0.000001,-0.000001,-0.000001,-0.000001,-0.000001, 1.015457,-0.002869, 0.001877, 0.018912,-0.061706,,,,,,250218,10:17:15.425,37035.425
Mult,USC,250218 10:17:15.440, 0.000000, 0.000000, 0.000000, 0.000000, 0.000276, 0.000000, 0.000000, 8.874268,-6.233117, 5.262095, 0.415321,-5.522795,23.409166, 8.874268,-6.233117, 5.262095, 0.415321,-5.522795,23.409166, 8.874268,-6.233117, 5.262095, 0.415321,-5.522795,23.409166, 0.156934, 0.720836,14.618863,68.631467,300.146637, 0.725848, 0.266376,1836976.875000,300.000000,69.549992,-0.000000,-0.000000,-0.000001,-0.000001, 0.000000, 0.000000, 0.000000,-0.000001, 1.012164,-0.002869, 0.001938, 0.019037,-0.058141,,,,,,250218,10:17:15.440,37035.44
Mult,USC,250218 10:17:15.455, 0.000000, 0.000000, 0.000000, 0.000000, 0.000276, 0.000000, 0.000000,11.030530,-5.848071,-0.819934, 2.445301,-13.627375,23.363247,11.030530,-5.848071,-0.819934, 2.445301,-13.627375,23.363247,11.030530,-5.848071,-0.819934, 2.445301,-13.627375,23.363247, 0.156934, 0.720836,14.618863,68.631467,300.146637, 0.725848, 0.266376,1836976.875000,300.000000,69.549992,-0.000001,-0.000000, 0.000001,-0.000001,-0.000001,-0.000001,-0.000001,-0.000001, 1.013470,-0.003049, 0.001846, 0.017703,-0.072672,,,,,,250218,10:17:15.455,37035.455
Mult,USC,250218 10:17:15.470, 0.000000, 0.000000, 0.000000, 0.000000, 0.000276, 0.000000, 0.000000,11.073445,-6.414222,-2.442808, 3.275590,-16.195048,22.491157,11.073445,-6.414222,-2.442808, 3.275590,-16.195048,22.491157,11.073445,-6.414222,-2.442808, 3.275590,-16.195048,22.491157, 0.156934, 0.720836,14.618863,68.631467,300.146637, 0.725848, 0.266376,1836976.875000,300.000000,69.549992,-0.000001,-0.000001,-0.000001,-0.000001,-0.000001,-0.000001,-0.000001, 0.000000, 1.014429,-0.002600, 0.002359, 0.017041,-0.072890,,,,,,250218,10:17:15.470,37035.47
Mult,USC,250218 10:17:15.485, 0.000000, 0.000000, 0.000000, 0.000000, 0.000276, 0.000000, 0.000000, 9.524296,-5.425208, 4.240927, 0.028683,-10.578126,21.549995, 9.524296,-5.425208, 4.240927, 0.028683,-10.578126,21.549995, 9.524296,-5.425208, 4.240927, 0.028683,-10.578126,21.549995, 0.156934, 0.720836,14.618863,68.631467,300.146637, 0.725848, 0.266376,1836976.875000,300.000000,69.549992,-0.000001,-0.000001,-0.000001,-0.000001, 0.000000, 0.000001, 0.000000, 0.000001, 1.014441,-0.002774, 0.001947, 0.018405,-0.062645,,,,,,250218,10:17:15.485,37035.485
Mult,USC,250218 10:17:15.500, 0.000000, 0.000000, 0.000000, 0.000000, 0.000276, 0.000000, 0.000000, 8.749245,-5.120129, 3.392919, 1.076886,-14.010206,21.227890, 8.749245,-5.120129, 3.392919, 1.076886,-14.010206,21.227890, 8.749245,-5.120129, 3.392919, 1.076886,-14.010206,21.227890, 0.156934, 0.720836,14.618863,68.631467,300.146637, 0.725848, 0.266376,1836976.875000,300.000000,69.549992,-0.000001,-0.000001,-0.000001,-0.000001, 0.000000, 0.000001,-0.000001, 0.000000, 1.012259,-0.002826, 0.002194, 0.020831,-0.057581,,,,,,250218,10:17:15.500,37035.5
Mult,USC,250218 10:17:15.515, 0.000000, 0.000000, 0.000000, 0.000000, 0.000276, 0.000000, 0.000000, 9.459038,-5.259434, 1.122298,-0.886958,-2.352474,21.383913, 9.459038,-5.259434, 1.122298,-0.886958,-2.352474,21.383913, 9.459038,-5.259434, 1.122298,-0.886958,-2.352474,21.383913, 0.156934, 0.720762,14.615812,68.631467,300.040924, 0.725447, 0.266282,1836607.875000,300.000000,69.549992,-0.000000,-0.000001, 0.000000, 0.000000, 0.000000,-0.000001,-0.000001,-0.000001, 1.015802,-0.003235, 0.001999, 0.021631,-0.062145,,,,,,250218,10:17:15.515,37035.515
Mult,USC,250218 10:17:15.530, 0.000000, 0.000000, 0.000000, 0.000000, 0.000276, 0.000000, 0.000000,10.786967,-5.055898, 1.398947,-0.118051,-16.678033,21.700973,10.786967,-5.055898, 1.398947,-0.118051,-16.678033,21.700973,10.786967,-5.055898, 1.398947,-0.118051,-16.678033,21.700973, 0.156934, 0.720762,14.615812,68.631467,300.040924, 0.725447, 0.266282,1836607.875000,300.000000,69.549992,-0.000001,-0.000001, 0.000000,-0.000001, 0.000000,-0.000001, 0.000000, 0.000001, 1.014017,-0.003113, 0.001904, 0.021939,-0.071152,,,,,,250218,10:17:15.530,37035.53
Mult,USC,250218 10:17:15.545, 0.000000, 0.000000, 0.000000, 0.000000, 0.000276, 0.000000, 0.000000,10.652367,-5.195441, 5.004284, 2.861017,-12.733233,21.518363,10.652367,-5.195441, 5.004284, 2.861017,-12.733233,21.518363,10.652367,-5.195441, 5.004284, 2.861017,-12.733233,21.518363, 0.156934, 0.720762,14.615812,68.631467,300.040924, 0.725447, 0.266282,1836607.875000,300.000000,69.549992,-0.000000,-0.000000, 0.000000,-0.000001,-0.000001,-0.000001,-0.000001,-0.000001, 1.012973,-0.003021, 0.001910, 0.021115,-0.070319,,,,,,250218,10:17:15.545,37035.545
Mult,USC,250218 10:17:15.560, 0.000000, 0.000000, 0.000000, 0.000000, 0.000276, 0.000000, 0.000000, 9.425975,-5.547147, 5.169543, 1.422936,-5.331494,21.068705, 9.425975,-5.547147, 5.169543, 1.422936,-5.331494,21.068705, 9.425975,-5.547147, 5.169543, 1.422936,-5.331494,21.068705, 0.156934, 0.720762,14.615812,68.631467,300.040924, 0.725447, 0.266282,1836607.875000,300.000000,69.549992,-0.000001,-0.000001, 0.000000, 0.000001, 0.000000, 0.000000,-0.000001,-0.000001, 1.011179,-0.003052, 0.001910, 0.020303,-0.061975,,,,,,250218,10:17:15.560,37035.56
Mult,USC,250218 10:17:15.575, 0.000000, 0.000000, 0.000000, 0.000000, 0.000276, 0.000000, 0.000000, 8.524412,-5.163604,-3.250133, 1.320346,-23.325340,20.239791, 8.524412,-5.163604,-3.250133, 1.320346,-23.325340,20.239791, 8.524412,-5.163604,-3.250133, 1.320346,-23.325340,20.239791, 0.156934, 0.720762,14.615812,68.631467,300.040924, 0.725447, 0.266282,1836607.875000,300.000000,69.549992,-0.000001,-0.000001, 0.000000,-0.000001, 0.000000,-0.000001, 0.000001, 0.000001, 1.013132,-0.003021, 0.001813, 0.020514,-0.056155,,,,,,250218,10:17:15.575,37035.575
Mult,USC,250218 10:17:15.590, 0.000000, 0.000000, 0.000000, 0.000000, 0.000276, 0.000000, 0.000000, 9.379239,-4.831415, 2.650917,-0.374346,-6.355135,19.568554, 9.379239,-4.831415, 2.650917,-0.374346,-6.355135,19.568554, 9.379239,-4.831415, 2.650917,-0.374346,-6.355135,19.568554, 0.156934, 0.720762,14.615812,68.631467,300.040924, 0.725447, 0.266282,1836607.875000,300.000000,69.549992,-0.000000,-0.000001,-0.000001,-0.000001,-0.000001,-0.000001,-0.000001, 0.000000, 1.011243,-0.003387, 0.002097, 0.018564,-0.061740,,,,,,250218,10:17:15.590,37035.59
Mult,USC,250218 10:17:15.605, 0.000000, 0.000000, 0.000000, 0.000000, 0.000276, 0.000000, 0.000000,10.712528,-4.748339, 5.595635,-1.027155,-7.086164,19.603636,10.712528,-4.748339, 5.595635,-1.027155,-7.086164,19.603636,10.712528,-4.748339, 5.595635,-1.027155,-7.086164,19.603636, 0.156934, 0.720762,14.615812,68.631467,300.040924, 0.725447, 0.266282,1836607.875000,300.000000,69.549992,-0.000001,-0.000000,-0.000001, 0.000000, 0.000001,-0.000001, 0.000001, 0.000000, 1.014789,-0.002930, 0.002167, 0.018570,-0.070672,,,,,,250218,10:17:15.605,37035.605
Mult,USC,250218 10:17:15.620, 0.000000, 0.000000, 0.000000, 0.000000, 0.000276, 0.000000, 0.000000,11.249140,-4.371624,-2.386943, 0.231166,-15.017672,20.602151,11.249140,-4.371624,-2.386943, 0.231166,-15.017672,20.602151,11.249140,-4.371624,-2.386943, 0.231166,-15.017672,20.602151, 0.156915, 0.720412,14.610421,68.631467,300.052673, 0.725603, 0.266293,1836929.375000,300.000000,69.549992,-0.000000,-0.000000, 0.000000,-0.000001,-0.000001, 0.000000,-0.000001,-0.000001, 1.013229,-0.003113, 0.001935, 0.016409,-0.074421,,,,,,250218,10:17:15.620,37035.62
Mult,USC,250218 10:17:15.635, 0.000000, 0.000000, 0.000000, 0.000000, 0.000276, 0.000000, 0.000000, 9.515658,-4.756173,-0.402174, 0.708526,-6.520823,21.699930, 9.515658,-4.756173,-0.402174, 0.708526,-6.520823,21.699930, 9.515658,-4.756173,-0.402174, 0.708526,-6.520823,21.699930, 0.156915, 0.720412,14.610421,68.631467,300.052673, 0.725603, 0.266293,1836929.375000,300.000000,69.549992,-0.000001,-0.000001,-0.000001,-0.000001,-0.000001, 0.000001,-0.000001, 0.000000, 1.010419,-0.002835, 0.001556, 0.018588,-0.062704,,,,,,250218,10:17:15.635,37035.635
Mult,USC,250218 10:17:15.650, 0.000000, 0.000000, 0.000000, 0.000000, 0.000276, 0.000000, 0.000000,10.188951,-5.407196, 6.259849,-0.454352,-18.853437,22.250166,10.188951,-5.407196, 6.259849,-0.454352,-18.853437,22.250166,10.188951,-5.407196, 6.259849,-0.454352,-18.853437,22.250166, 0.156915, 0.720412,14.610421,68.631467,300.052673, 0.725603, 0.266293,1836929.375000,300.000000,69.549992,-0.000001,-0.000000, 0.000000, 0.000000,-0.000001, 0.000000,-0.000001,-0.000001, 1.012396,-0.002960, 0.002197, 0.021429,-0.067147,,,,,,250218,10:17:15.650,37035.65
Mult,USC,250218 10:17:15.665, 0.000000, 0.000000, 0.000000, 0.000000, 0.000276, 0.000000, 0.000000, 9.321949,-5.595295, 3.029968, 3.660976,-11.212946,22.083766, 9.321949,-5.595295, 3.029968, 3.660976,-11.212946,22.083766, 9.321949,-5.595295, 3.029968, 3.660976,-11.212946,22.083766, 0.156915, 0.720412,14.610421,68.631467,300.052673, 0.725603, 0.266293,1836929.375000,300.000000,69.549992,-0.000000,-0.000001, 0.000000, 0.000000,-0.000001,-0.000001, 0.000000, 0.000000, 1.015424,-0.003326, 0.001935, 0.021588,-0.061353,,,,,,250218,10:17:15.665,37035.665
Mult,USC,250218 10:17:15.680, 0.000000, 0.000000, 0.000000, 0.000000, 0.000276, 0.000000, 0.000000,10.453827,-5.726145, 0.640459, 1.726934,-13.822817,21.441775,10.453827,-5.726145, 0.640459, 1.726934,-13.822817,21.441775,10.453827,-5.726145, 0.640459, 1.726934,-13.822817,21.441775, 0.156915, 0.720412,14.610421,68.631467,300.052673, 0.725603, 0.266293,1836929.375000,300.000000,69.549992,-0.000000,-0.000000,-0.000001, 0.000000, 0.000000, 0.000000,-0.000001, 0.000000, 1.015649,-0.003052, 0.001877, 0.022229,-0.068798,,,,,,250218,10:17:15.680,37035.68
Mult,USC,250218 10:17:15.695, 0.000000, 0.000000, 0.000000, 0.000000, 0.000276, 0.000000, 0.000000,10.142176,-5.609943, 3.093551,-0.227521,-20.834128,20.431419,10.142176,-5.609943, 3.093551,-0.227521,-20.834128,20.431419,10.142176,-5.609943, 3.093551,-0.227521,-20.834128,20.431419, 0.156915, 0.720412,14.610421,68.631467,300.052673, 0.725603, 0.266293,1836929.375000,300.000000,69.549992,-0.000000,-0.000001,-0.000001,-0.000001, 0.000000, 0.000000,-0.000001, 0.000000, 1.014853,-0.003204, 0.001968, 0.021219,-0.066745,,,,,,250218,10:17:15.695,37035.695
Mult,USC,250218 10:17:15.710, 0.000000, 0.000000, 0.000000, 0.000000, 0.000276, 0.000000, 0.000000, 1.982724,-1.082426, 1.133203, 0.161760,-2.467154, 4.064610, 1.982724,-1.082426, 1.133203, 0.161760,-2.467154, 4.064610, 1.982724,-1.082426, 1.133203, 0.161760,-2.467154, 4.064610, 0.156915, 0.720412,14.610421,68.631467,300.052673, 0.725603, 0.266293,1836929.375000,300.000000,69.549992,-0.000001,-0.000001, 0.000000, 0.000000,-0.000001, 0.000000, 0.000000,-0.000001, 1.003381,-0.000653, 0.000369, 0.003900,-0.013055,,,,,,250218,10:17:15.710,37035.71
Mult,USC,250218 10:17:15.725, 0.000000, 0.000000, 0.000000, 0.000000, 0.000276, 0.000000, 0.000000, 7.499415,-5.160433,-0.437967,-4.079434,-15.479437,21.417704, 7.499415,-5.160433,-0.437967,-4.079434,-15.479437,21.417704, 7.499415,-5.160433,-0.437967,-4.079434,-15.479437,21.417704, 0.156955, 0.720443,14.622974,68.631467,299.886566, 0.725151, 0.266145,1836804.125000,300.000000,69.549992,-0.000000,-0.000000, 0.000000,-0.000001, 0.000000,-0.000001,-0.000001,-0.000001, 1.014600,-0.002762, 0.002069, 0.020517,-0.049090,,,,,,250218,10:17:15.725,37035.725
Mult,USC,250218 10:17:15.740, 0.000000, 0.000000, 0.000000, 0.000000, 0.000276, 0.000000, 0.000000, 9.654291,-4.477859,-0.846967, 1.436054,-22.768065,22.586940, 9.654291,-4.477859,-0.846967, 1.436054,-22.768065,22.586940, 9.654291,-4.477859,-0.846967, 1.436054,-22.768065,22.586940, 0.156955, 0.720443,14.622974,68.631467,299.886566, 0.725151, 0.266145,1836804.125000,300.000000,69.549992,-0.000001,-0.000000,-0.000001, 0.000000,-0.000001,-0.000001,-0.000001,-0.000001, 1.010107,-0.002670, 0.002103, 0.020068,-0.063824,,,,,,250218,10:17:15.740,37035.74
Mult,USC,250218 10:17:15.755, 0.000000, 0.000000, 0.000000, 0.000000, 0.000276, 0.000000, 0.000000,10.312958,-5.499874, 6.577906, 1.551418,-3.383524,22.501349,10.312958,-5.499874, 6.577906, 1.551418,-3.383524,22.501349,10.312958,-5.499874, 6.577906, 1.551418,-3.383524,22.501349, 0.156955, 0.720443,14.622974,68.631467,299.886566, 0.725151, 0.266145,1836804.125000,300.000000,69.549992,-0.000001,-0.000001,-0.000001,-0.000001,-0.000001,-0.000001,-0.000001, 0.000000, 1.014206,-0.003113, 0.001968, 0.018658,-0.067928,,,,,,250218,10:17:15.755,37035.755
Mult,USC,250218 10:17:15.770, 0.000000, 0.000000, 0.000000, 0.000000, 0.000276, 0.000000, 0.000000,10.396326,-5.456796,-0.319098, 6.102493,-8.779539,20.972944,10.396326,-5.456796,-0.319098, 6.102493,-8.779539,20.972944,10.396326,-5.456796,-0.319098, 6.102493,-8.779539,20.972944, 0.156955, 0.720443,14.622974,68.631467,299.886566, 0.725151, 0.266145,1836804.125000,300.000000,69.549992,-0.000001,-0.000001,-0.000001,-0.000001, 0.000000,-0.000001,-0.000001,-0.000001, 1.013522,-0.002673, 0.002002, 0.019034,-0.068564,,,,,,250218,10:17:15.770,37035.77
Mult,USC,250218 10:17:15.785, 0.000000, 0.000000, 0.000000, 0.000000, 0.000276, 0.000000, 0.000000,10.801082,-5.745392, 0.017224, 1.343977,-12.562425,18.542240,10.801082,-5.745392, 0.017224, 1.343977,-12.562425,18.542240,10.801082,-5.745392, 0.017224, 1.343977,-12.562425,18.542240, 0.156955, 0.720443,14.622974,68.631467,299.886566, 0.725151, 0.266145,1836804.125000,300.000000,69.549992,-0.000000,-0.000000, 0.000000,-0.000001,-0.000001,-0.000001,-0.000001,-0.000001, 1.013171,-0.002948, 0.001782, 0.021555,-0.071048,,,,,,250218,10:17:15.785,37035.785
Mult,USC,250218 10:17:15.800, 0.000000, 0.000000, 0.000000, 0.000000, 0.000276, 0.000000, 0.000000,11.113684,-4.281292, 5.306105,-0.762996,-1.656414,16.796917,11.113684,-4.281292, 5.306105,-0.762996,-1.656414,16.796917,11.113684,-4.281292, 5.306105,-0.762996,-1.656414,16.796917, 0.156955, 0.720443,14.622974,68.631467,299.886566, 0.725151, 0.266145,1836804.125000,300.000000,69.549992,-0.000000,-0.000000,-0.000001,-0.000001,-0.000001, 0.000000, 0.000000,-0.000001, 1.013168,-0.002960, 0.002045, 0.022043,-0.073393,,,,,,250218,10:17:15.800,37035.8
Mult,USC,250218 10:17:15.815, 0.000000, 0.000000, 0.000000, 0.000000, 0.000276,-0.000004, 0.000000, 9.005823,-4.441828,-0.247339,-4.022530,-15.110032,17.367354, 9.005823,-4.441828,-0.247339,-4.022530,-15.110032,17.367354, 9.005823,-4.441829,-0.247339,-4.022531,-15.110032,17.367354, 0.156928, 0.720740,14.613327,68.631467,300.168701, 0.726065, 0.266396,1837389.250000,300.000000,69.549992,-0.000001,-0.000000, 0.000000, 0.000000,-0.000001, 0.000000,-0.000001, 0.000000, 1.011658,-0.002914, 0.002008, 0.023166,-0.059248,,,,,,250218,10:17:15.815,37035.815
Mult,USC,250218 10:17:15.830, 0.000000, 0.000000, 0.000000, 0.000000, 0.000276,-0.000004, 0.000000,10.138343,-3.454411,-0.396784,-4.389145,-11.200880,20.227210,10.138343,-3.454411,-0.396784,-4.389145,-11.200880,20.227210,10.138343,-3.454411,-0.396784,-4.389145,-11.200879,20.227210, 0.156928, 0.720740,14.613327,68.631467,300.168701, 0.726065, 0.266396,1837389.250000,300.000000,69.549992,-0.000001,-0.000000, 0.000001,-0.000001, 0.000000,-0.000001,-0.000001,-0.000001, 1.011627,-0.003018, 0.001807, 0.023862,-0.067040,,,,,,250218,10:17:15.830,37035.83
Mult,USC,250218 10:17:15.845, 0.000000, 0.000000, 0.000000, 0.000000, 0.000276,-0.000004, 0.000000,10.142445,-5.416476, 4.852008,-2.034836,-18.790913,23.713602,10.142445,-5.416476, 4.852008,-2.034836,-18.790913,23.713602,10.142445,-5.416476, 4.852008,-2.034837,-18.790913,23.713602, 0.156928, 0.720740,14.613327,68.631467,300.168701, 0.726065, 0.266396,1837389.250000,300.000000,69.549992,-0.000000,-0.000000, 0.000000, 0.000000,-0.000001, 0.000000,-0.000001,-0.000001, 1.013583,-0.003113, 0.001846, 0.023450,-0.066799,,,,,,250218,10:17:15.845,37035.845
Mult,USC,250218 10:17:15.860, 0.000000, 0.000000, 0.000000, 0.000000, 0.000276,-0.000004, 0.000000, 9.435826,-6.004430, 2.004566, 3.329521,-22.931671,26.281196, 9.435826,-6.004430, 2.004566, 3.329521,-22.931671,26.281196, 9.435826,-6.004431, 2.004566, 3.329519,-22.931671,26.281196, 0.156928, 0.720740,14.613327,68.631467,300.168701, 0.726065, 0.266396,1837389.250000,300.000000,69.549992,-0.000000,-0.000001, 0.000000, 0.000000, 0.000001, 0.000000, 0.000000,-0.000001, 1.012973,-0.003247, 0.001819, 0.021619,-0.062115,,,,,,250218,10:17:15.860,37035.86
Mult,USC,250218 10:17:15.875, 0.000000, 0.000000, 0.000000, 0.000000, 0.000276,-0.000004, 0.000000, 7.148967,-7.734183,-1.665868, 5.216911,-11.794046,26.686354, 7.148967,-7.734183,-1.665868, 5.216911,-11.794046,26.686354, 7.148967,-7.734183,-1.665868, 5.216910,-11.794046,26.686354, 0.156928, 0.720740,14.613327,68.631467,300.168701, 0.726065, 0.266396,1837389.250000,300.000000,69.549992,-0.000001,-0.000000, 0.000000,-0.000001, 0.000000,-0.000001, 0.000000,-0.000001, 1.012619,-0.003052, 0.001712, 0.019312,-0.046475,,,,,,250218,10:17:15.875,37035.875
Mult,USC,250218 10:17:15.890, 0.000000, 0.000000, 0.000000, 0.000000, 0.000276,-0.000004, 0.000000,10.069293,-6.744469, 7.033965, 7.034104,-19.343529,24.341959,10.069293,-6.744469, 7.033965, 7.034104,-19.343529,24.341959,10.069293,-6.744469, 7.033965, 7.034103,-19.343529,24.341959, 0.156928, 0.720740,14.613327,68.631467,300.168701, 0.726065, 0.266396,1837389.250000,300.000000,69.549992,-0.000001,-0.000001,-0.000001,-0.000001, 0.000000, 0.000000, 0.000000, 0.000000, 1.014499,-0.002896, 0.001880, 0.018948,-0.066280,,,,,,250218,10:17:15.890,37035.89
Mult,USC,250218 10:17:15.905, 0.000000, 0.000000, 0.000000, 0.000000, 0.000276,-0.000004, 0.000000,10.907043,-7.197638, 3.903797, 1.768305,-19.343380,21.808598,10.907043,-7.197638, 3.903797, 1.768305,-19.343380,21.808598,10.907042,-7.197639, 3.903797, 1.768304,-19.343380,21.808598, 0.156928, 0.720740,14.613327,68.631467,300.168701, 0.726065, 0.266396,1837389.250000,300.000000,69.549992,-0.000001,-0.000000,-0.000001,-0.000001,-0.000001, 0.000000,-0.000001, 0.000000, 1.012521,-0.002704, 0.001813, 0.018051,-0.071550,,,,,,250218,10:17:15.905,37035.905
Mult,USC,250218 10:17:15.920, 0.000000, 0.000000, 0.000000, 0.000000, 0.000276, 0.000000, 0.000000,10.914883,-4.989871,-1.282385,-0.536497,-3.030036,20.714810,10.914883,-4.989871,-1.282385,-0.536497,-3.030036,20.714810,10.914883,-4.989871,-1.282385,-0.536497,-3.030036,20.714810, 0.156943, 0.721476,14.625269,68.631467,300.005310, 0.725103, 0.266251,1835954.250000,300.000000,69.549992,-0.000001,-0.000000, 0.000000, 0.000000, 0.000000, 0.000000,-0.000001, 0.000000, 1.015710,-0.002948, 0.002255, 0.018753,-0.071939,,,,,,250218,10:17:15.920,37035.92
Mult,USC,250218 10:17:15.935, 0.000000, 0.000000, 0.000000, 0.000000, 0.000276, 0.000000, 0.000000, 9.869080,-3.932407, 1.104873,-3.283550,-17.531613,21.090685, 9.869080,-3.932407, 1.104873,-3.283550,-17.531613,21.090685, 9.869080,-3.932407, 1.104873,-3.283550,-17.531613,21.090685, 0.156943, 0.721476,14.625269,68.631467,300.005310, 0.725103, 0.266251,1835954.250000,300.000000,69.549992,-0.000000,-0.000001,-0.000001, 0.000000, 0.000001, 0.000000, 0.000000,-0.000001, 1.015295,-0.003339, 0.001788, 0.019000,-0.065208,,,,,,250218,10:17:15.935,37035.935
Mult,USC,250218 10:17:15.950, 0.000000, 0.000000, 0.000000, 0.000000, 0.000276, 0.000000, 0.000000, 9.511650,-3.589713, 8.046935,-1.780848,-4.591037,22.180094, 9.511650,-3.589713, 8.046935,-1.780848,-4.591037,22.180094, 9.511650,-3.589713, 8.046935,-1.780848,-4.591037,22.180094, 0.156943, 0.721476,14.625269,68.631467,300.005310, 0.725103, 0.266251,1835954.250000,300.000000,69.549992,-0.000001,-0.000000,-0.000001,-0.000001,-0.000001,-0.000001,-0.000001, 0.000000, 1.013232,-0.002917, 0.002359, 0.019125,-0.062961,,,,,,250218,10:17:15.950,37035.95
Mult,USC,250218 10:17:15.965, 0.000000, 0.000000, 0.000000, 0.000000, 0.000276, 0.000000, 0.000000, 9.408931,-4.426439,-2.421594, 1.395871,-15.550410,22.800627, 9.408931,-4.426439,-2.421594, 1.395871,-15.550410,22.800627, 9.408931,-4.426439,-2.421594, 1.395871,-15.550410,22.800627, 0.156943, 0.721476,14.625269,68.631467,300.005310, 0.725103, 0.266251,1835954.250000,300.000000,69.549992,-0.000001,-0.000000,-0.000001,-0.000001,-0.000001,-0.000001,-0.000001, 0.000000, 1.010925,-0.003387, 0.001935, 0.020615,-0.062199,,,,,,250218,10:17:15.965,37035.965
Mult,USC,250218 10:17:15.980, 0.000000, 0.000000, 0.000000, 0.000000, 0.000276, 0.000000, 0.000000, 9.776243,-4.851940,-1.354814, 2.576269,-13.892158,21.337394, 9.776243,-4.851940,-1.354814, 2.576269,-13.892158,21.337394, 9.776243,-4.851940,-1.354814, 2.576269,-13.892158,21.337394, 0.156943, 0.721476,14.625269,68.631467,300.005310, 0.725103, 0.266251,1835954.250000,300.000000,69.549992,-0.000001,-0.000001,-0.000001,-0.000001, 0.000001, 0.000000, 0.000000,-0.000001, 1.013354,-0.003082, 0.001877, 0.020422,-0.064529,,,,,,250218,10:17:15.980,37035.98
Mult,USC,250218 10:17:15.995, 0.000000, 0.000000, 0.000000, 0.000000, 0.000276, 0.000000, 0.000000,11.800268,-5.371324,10.291634, 4.050057,-14.160109,18.671351,11.800268,-5.371324,10.291634, 4.050057,-14.160109,18.671351,11.800268,-5.371324,10.291634, 4.050057,-14.160109,18.671351, 0.156943, 0.721476,14.625269,68.631467,300.005310, 0.725103, 0.266251,1835954.250000,300.000000,69.549992, 0.000001,-0.000000, 0.000000, 0.000000, 0.000000, 0.000000, 0.000000, 0.000001, 1.013074,-0.003174, 0.001935, 0.020047,-0.077996,,,,,,250218,10:17:15.995,37035.995
Mult,USC,250218 10:17:16.010, 0.000000, 0.000000, 0.000000, 0.000000, 0.000276, 0.000000, 0.000000, 1.947358,-1.135376, 0.149976,-0.362666,-3.868671, 3.477376, 1.947358,-1.135376, 0.149976,-0.362666,-3.868671, 3.477376, 1.947358,-1.135376, 0.149976,-0.362666,-3.868671, 3.477376, 0.156943, 0.721476,14.625269,68.631467,300.005310, 0.725103, 0.266251,1835954.250000,300.000000,69.549992,-0.000000,-0.000001,-0.000001, 0.000000, 0.000000,-0.000001, 0.000000,-0.000001, 1.003064,-0.000528, 0.000433, 0.003998,-0.012783,,,,,,250218,10:17:16.010,37036.01
Mult,USC,250218 10:17:16.025, 0.000000, 0.000000, 0.000000, 0.000000, 0.000276,-0.000004, 0.000000, 8.480078,-4.264806,-4.605436,-1.169344,-6.477115,18.042138, 8.480078,-4.264806,-4.605436,-1.169344,-6.477115,18.042138, 8.480078,-4.264806,-4.605436,-1.169344,-6.477114,18.042138, 0.156925, 0.720579,14.621789,68.631467,299.941437, 0.725263, 0.266194,1836749.625000,300.000000,69.549992,-0.000001,-0.000001,-0.000001,-0.000001, 0.000000, 0.000001,-0.000001,-0.000001, 1.013477,-0.003079, 0.001782, 0.020584,-0.055916,,,,,,250218,10:17:16.025,37036.025
Mult,USC,250218 10:17:16.040, 0.000000, 0.000000, 0.000000, 0.000000, 0.000276,-0.000004, 0.000000,10.146045,-3.980715,10.078993,-5.081422,-8.698593,20.873338,10.146045,-3.980715,10.078993,-5.081422,-8.698593,20.873338,10.146044,-3.980716,10.078993,-5.081423,-8.698593,20.873338, 0.156925, 0.720579,14.621789,68.631467,299.941437, 0.725263, 0.266194,1836749.625000,300.000000,69.549992,-0.000000,-0.000000,-0.000001,-0.000001,-0.000001,-0.000001,-0.000001, 0.000000, 1.013220,-0.002734, 0.001846, 0.017700,-0.067049,,,,,,250218,10:17:16.040,37036.04
Mult,USC,250218 10:17:16.055, 0.000000, 0.000000, 0.000000, 0.000000, 0.000276,-0.000004, 0.000000,11.017308,-4.769734, 5.647226,-0.716356,-19.993288,24.526272,11.017308,-4.769734, 5.647226,-0.716356,-19.993288,24.526272,11.017308,-4.769735, 5.647226,-0.716357,-19.993287,24.526272, 0.156925, 0.720579,14.621789,68.631467,299.941437, 0.725263, 0.266194,1836749.625000,300.000000,69.549992,-0.000001,-0.000000, 0.000000,-0.000001, 0.000000, 0.000000,-0.000001,-0.000001, 1.012292,-0.003052, 0.001968, 0.017960,-0.072842,,,,,,250218,10:17:16.055,37036.055
Mult,USC,250218 10:17:16.070, 0.000000, 0.000000, 0.000000, 0.000000, 0.000276,-0.000004, 0.000000, 8.823570,-6.453913,-4.659942, 3.845754,-5.149603,26.499909, 8.823570,-6.453913,-4.659942, 3.845754,-5.149603,26.499909, 8.823569,-6.453914,-4.659942, 3.845754,-5.149603,26.499909, 0.156925, 0.720579,14.621789,68.631467,299.941437, 0.725263, 0.266194,1836749.625000,300.000000,69.549992,-0.000001,-0.000001,-0.000001,-0.000001, 0.000000, 0.000000,-0.000001, 0.000000, 1.013983,-0.003113, 0.002069, 0.017484,-0.057936,,,,,,250218,10:17:16.070,37036.07
Mult,USC,250218 10:17:16.085, 0.000000, 0.000000, 0.000000, 0.000000, 0.000276,-0.000004, 0.000000, 9.488084,-7.207717, 3.838279, 5.829820,-7.668894,25.358640, 9.488084,-7.207717, 3.838279, 5.829820,-7.668894,25.358640, 9.488083,-7.207717, 3.838279, 5.829819,-7.668894,25.358640, 0.156925, 0.720579,14.621789,68.631467,299.941437, 0.725263, 0.266194,1836749.625000,300.000000,69.549992,-0.000001, 0.000001, 0.000001, 0.000000, 0.000000,-0.000001, 0.000000, 0.000000, 1.013635,-0.002960, 0.002191, 0.017792,-0.062177,,,,,,250218,10:17:16.085,37036.085
Mult,USC,250218 10:17:16.100, 0.000000, 0.000000, 0.000000, 0.000000, 0.000276,-0.000004, 0.000000,10.410235,-7.677854, 8.559047, 7.498858,-8.301071,21.519408,10.410235,-7.677854, 8.559047, 7.498858,-8.301071,21.519408,10.410235,-7.677855, 8.559047, 7.498857,-8.301071,21.519408, 0.156925, 0.720579,14.621789,68.631467,299.941437, 0.725263, 0.266194,1836749.625000,300.000000,69.549992,-0.000001,-0.000001,-0.000001,-0.000001,-0.000001, 0.000000, 0.000000,-0.000001, 1.013678,-0.003082, 0.001877, 0.019601,-0.068269,,,,,,250218,10:17:16.100,37036.1
Mult,USC,250218 10:17:16.115, 0.000000, 0.000000, 0.000000, 0.000000, 0.000276, 0.000000,-0.000002,10.055995,-6.690565, 0.287487, 2.477851,-4.098168,21.990898,10.055995,-6.690565, 0.287487, 2.477851,-4.098168,21.990898,10.055995,-6.690565, 0.287487, 2.477852,-4.098168,21.990898, 0.156924, 0.720711,14.611571,68.631467,300.039673, 0.725827, 0.266281,1837577.875000,300.000000,69.549992,-0.000000,-0.000000, 0.000000,-0.000001,-0.000001,-0.000001,-0.000001, 0.000000, 1.015839,-0.002863, 0.002032, 0.020175,-0.065891,,,,,,250218,10:17:16.115,37036.115
Mult,USC,250218 10:17:16.130, 0.000000, 0.000000, 0.000000, 0.000000, 0.000276, 0.000000,-0.000002, 8.510430,-6.599747,-5.561404, 1.918998,-8.568556,22.489506, 8.510430,-6.599747,-5.561404, 1.918998,-8.568556,22.489506, 8.510430,-6.599747,-5.561404, 1.918999,-8.568556,22.489506, 0.156924, 0.720711,14.611571,68.631467,300.039673, 0.725827, 0.266281,1837577.875000,300.000000,69.549992,-0.000000,-0.000000,-0.000001, 0.000000, 0.000000, 0.000000,-0.000001,-0.000001, 1.014304,-0.002701, 0.001846, 0.021277,-0.055748,,,,,,250218,10:17:16.130,37036.13
Mult,USC,250218 10:17:16.145, 0.000000, 0.000000, 0.000000, 0.000000, 0.000276, 0.000000,-0.000002,11.021347,-6.077695,10.237815, 0.101146,-8.693015,24.004968,11.021347,-6.077695,10.237815, 0.101146,-8.693015,24.004968,11.021347,-6.077695,10.237815, 0.101147,-8.693015,24.004968, 0.156924, 0.720711,14.611571,68.631467,300.039673, 0.725827, 0.266281,1837577.875000,300.000000,69.549992,-0.000000,-0.000000,-0.000001, 0.000000,-0.000001,-0.000001,-0.000001, 0.000000, 1.014294,-0.003052, 0.002133, 0.020709,-0.072568,,,,,,250218,10:17:16.145,37036.145
Mult,USC,250218 10:17:16.160, 0.000000, 0.000000, 0.000000, 0.000000, 0.000276, 0.000000,-0.000002,10.667760,-5.374922, 5.625519,-0.530106,-19.882067,25.837780,10.667760,-5.374922, 5.625519,-0.530106,-19.882067,25.837780,10.667760,-5.374922, 5.625519,-0.530105,-19.882067,25.837780, 0.156924, 0.720711,14.611571,68.631467,300.039673, 0.725827, 0.266281,1837577.875000,300.000000,69.549992,-0.000001,-0.000000, 0.000000, 0.000000,-0.000001,-0.000001,-0.000001, 0.000001, 1.012387,-0.002899, 0.001782, 0.020749,-0.070391,,,,,,250218,10:17:16.160,37036.16
Mult,USC,250218 10:17:16.175, 0.000000, 0.000000, 0.000000, 0.000000, 0.000276, 0.000000,-0.000002, 9.232818,-5.156569,-5.747396, 2.967286,-16.532608,26.301481, 9.232818,-5.156569,-5.747396, 2.967286,-16.532608,26.301481, 9.232818,-5.156569,-5.747397, 2.967287,-16.532608,26.301481, 0.156924, 0.720711,14.611571,68.631467,300.039673, 0.725827, 0.266281,1837577.875000,300.000000,69.549992,-0.000000,-0.000000,-0.000001,-0.000001, 0.000000,-0.000001,-0.000001, 0.000001, 1.013416,-0.002991, 0.001712, 0.019644,-0.061028,,,,,,250218,10:17:16.175,37036.175
Mult,USC,250218 10:17:16.190, 0.000000, 0.000000, 0.000000, 0.000000, 0.000276, 0.000000,-0.000002, 9.140645,-5.981022, 2.973206, 3.946728,-14.341219,23.737163, 9.140645,-5.981022, 2.973206, 3.946728,-14.341219,23.737163, 9.140646,-5.981022, 2.973205, 3.946729,-14.341219,23.737163, 0.156924, 0.720711,14.611571,68.631467,300.039673, 0.725827, 0.266281,1837577.875000,300.000000,69.549992,-0.000001,-0.000000,-0.000001,-0.000001,-0.000001, 0.000000, 0.000001,-0.000001, 1.011978,-0.002673, 0.001590, 0.019452,-0.060099,,,,,,250218,10:17:16.190,37036.19
Mult,USC,250218 10:17:16.205, 0.000000, 0.000000, 0.000000, 0.000000, 0.000276, 0.000000,-0.000002, 8.801428,-6.152927, 8.625764, 2.144279,-17.855324,19.894634, 8.801428,-6.152927, 8.625764, 2.144279,-17.855324,19.894634, 8.801428,-6.152927, 8.625764, 2.144280,-17.855324,19.894634, 0.156924, 0.720711,14.611571,68.631467,300.039673, 0.725827, 0.266281,1837577.875000,300.000000,69.549992,-0.000001,-0.000001, 0.000000,-0.000001,-0.000001,-0.000001,-0.000001,-0.000001, 1.012048,-0.003204, 0.001968, 0.017896,-0.057779,,,,,,250218,10:17:16.205,37036.205
Mult,USC,250218 10:17:16.220, 0.000000, 0.000000, 0.000000, 0.000000, 0.000276, 0.000000,-0.000002, 8.873339,-7.299327,-5.119126, 2.687065,-10.261586,22.163246, 8.873339,-7.299327,-5.119126, 2.687065,-10.261586,22.163246, 8.873339,-7.299327,-5.119126, 2.687066,-10.261586,22.163246, 0.156931, 0.720529,14.616514,68.631467,300.111328, 0.725542, 0.266345,1836415.750000,300.000000,69.549992,-0.000001,-0.000001, 0.000000,-0.000001, 0.000000,-0.000001,-0.000001, 0.000000, 1.014725,-0.002478, 0.002423, 0.017892,-0.058021,,,,,,250218,10:17:16.220,37036.22
Mult,USC,250218 10:17:16.235, 0.000000, 0.000000, 0.000000, 0.000000, 0.000276, 0.000000,-0.000002, 9.465006,-5.830108,-2.117023, 0.340002,-13.221559,22.951392, 9.465006,-5.830108,-2.117023, 0.340002,-13.221559,22.951392, 9.465006,-5.830108,-2.117023, 0.340003,-13.221559,22.951392, 0.156931, 0.720529,14.616514,68.631467,300.111328, 0.725542, 0.266345,1836415.750000,300.000000,69.549992,-0.000001,-0.000001,-0.000001,-0.000001, 0.000000, 0.000000, 0.000000,-0.000001, 1.014713,-0.003082, 0.001526, 0.018439,-0.062200,,,,,,250218,10:17:16.235,37036.235
Mult,USC,250218 10:17:16.250, 0.000000, 0.000000, 0.000000, 0.000000, 0.000276, 0.000000,-0.000002,10.520392,-5.786812,10.483591,-0.252695,-13.851742,24.594198,10.520392,-5.786812,10.483591,-0.252695,-13.851742,24.594198,10.520392,-5.786812,10.483591,-0.252694,-13.851742,24.594198, 0.156931, 0.720529,14.616514,68.631467,300.111328, 0.725542, 0.266345,1836415.750000,300.000000,69.549992,-0.000001,-0.000001,-0.000001,-0.000001,-0.000001, 0.000000, 0.000000,-0.000001, 1.014407,-0.002930, 0.002103, 0.018756,-0.069324,,,,,,250218,10:17:16.250,37036.25
Mult,USC,250218 10:17:16.265, 0.000000, 0.000000, 0.000000, 0.000000, 0.000276, 0.000000,-0.000002, 9.884408,-4.849114, 1.627720, 1.172730,-15.709739,26.128103, 9.884408,-4.849114, 1.627720, 1.172730,-15.709739,26.128103, 9.884408,-4.849114, 1.627720, 1.172731,-15.709739,26.128103, 0.156931, 0.720529,14.616514,68.631467,300.111328, 0.725542, 0.266345,1836415.750000,300.000000,69.549992,-0.000001,-0.000000, 0.000000, 0.000001,-0.000001,-0.000001,-0.000001,-0.000001, 1.012653,-0.002869, 0.001816, 0.020987,-0.065271,,,,,,250218,10:17:16.265,37036.265
Mult,USC,250218 10:17:16.280, 0.000000, 0.000000, 0.000000, 0.000000, 0.000276, 0.000000,-0.000002, 8.757993,-5.424525,-5.920217, 1.349875,-23.228144,25.974372, 8.757993,-5.424525,-5.920217, 1.349875,-23.228144,25.974372, 8.757992,-5.424525,-5.920217, 1.349876,-23.228144,25.974372, 0.156931, 0.720529,14.616514,68.631467,300.111328, 0.725542, 0.266345,1836415.750000,300.000000,69.549992,-0.000000,-0.000001, 0.000001, 0.000000,-0.000001,-0.000001,-0.000001,-0.000001, 1.013669,-0.002957, 0.001691, 0.022311,-0.057790,,,,,,250218,10:17:16.280,37036.28
Mult,USC,250218 10:17:16.295, 0.000000, 0.000000, 0.000000, 0.000000, 0.000276, 0.000000,-0.000002, 9.553296,-5.415647, 7.756665, 6.364894,-13.897752,22.467728, 9.553296,-5.415647, 7.756665, 6.364894,-13.897752,22.467728, 9.553296,-5.415647, 7.756665, 6.364895,-13.897752,22.467727, 0.156931, 0.720529,14.616514,68.631467,300.111328, 0.725542, 0.266345,1836415.750000,300.000000,69.549992,-0.000001,-0.000001,-0.000001, 0.000000,-0.000001,-0.000001,-0.000001,-0.000001, 1.013318,-0.002838, 0.001910, 0.021729,-0.063083,,,,,,250218,10:17:16.295,37036.295
Mult,USC,250218 10:17:16.310, 0.000000, 0.000000, 0.000000, 0.000000, 0.000276, 0.000000,-0.000000, 1.770940,-1.255234, 1.724526, 0.142703,-2.869360, 3.764681, 1.770940,-1.255234, 1.724526, 0.142703,-2.869360, 3.764681, 1.770940,-1.255234, 1.724526, 0.142703,-2.869360, 3.764681, 0.156931, 0.720529,14.616514,68.631467,300.111328, 0.725542, 0.266345,1836415.750000,300.000000,69.549992,-0.000001,-0.000001, 0.000000, 0.000000,-0.000001, 0.000000,-0.000001, 0.000000, 1.002139,-0.000592, 0.000403, 0.003873,-0.011607,,,,,,250218,10:17:16.310,37036.31
Mult,USC,250218 10:17:16.325, 0.000000, 0.000000, 0.000000, 0.000000, 0.000276, 0.000000, 0.000000, 9.426938,-7.159318,-2.618086, 3.224726,-16.520952,22.388853, 9.426938,-7.159318,-2.618086, 3.224726,-16.520952,22.388853, 9.426938,-7.159318,-2.618086, 3.224726,-16.520952,22.388853, 0.156927, 0.720583,14.621666,68.651619,300.134552, 0.725051, 0.266360,1834979.125000,300.000000,69.549992,-0.000000,-0.000000,-0.000001,-0.000001,-0.000001,-0.000001,-0.000001,-0.000001, 1.013773,-0.003052, 0.002332, 0.019641,-0.061739,,,,,,250218,10:17:16.325,37036.325
Mult,USC,250218 10:17:16.340, 0.000000, 0.000000, 0.000000, 0.000000, 0.000276, 0.000000, 0.000000, 9.206461,-6.526863,-0.085472,-1.265142,-6.341490,22.685641, 9.206461,-6.526863,-0.085472,-1.265142,-6.341490,22.685641, 9.206461,-6.526863,-0.085472,-1.265142,-6.341490,22.685641, 0.156927, 0.720583,14.621666,68.651619,300.134552, 0.725051, 0.266360,1834979.125000,300.000000,69.549992,-0.000001,-0.000001,-0.000001,-0.000001,-0.000001,-0.000001,-0.000001,-0.000001, 1.012613,-0.002673, 0.001691, 0.019159,-0.060185,,,,,,250218,10:17:16.340,37036.34
Mult,USC,250218 10:17:16.355, 0.000000, 0.000000, 0.000000, 0.000000, 0.000276, 0.000000, 0.000000, 9.417444,-6.082076, 5.395665, 0.845614,-17.417711,24.228723, 9.417444,-6.082076, 5.395665, 0.845614,-17.417711,24.228723, 9.417444,-6.082076, 5.395665, 0.845614,-17.417711,24.228723, 0.156927, 0.720583,14.621666,68.651619,300.134552, 0.725051, 0.266360,1834979.125000,300.000000,69.549992,-0.000000,-0.000000,-0.000001,-0.000001, 0.000001,-0.000001,-0.000001,-0.000001, 1.012689,-0.002734, 0.002014, 0.017493,-0.061887,,,,,,250218,10:17:16.355,37036.355
Mult,USC,250218 10:17:16.370, 0.000000, 0.000000, 0.000000, 0.000000, 0.000276, 0.000000, 0.000000, 8.888149,-4.821785, 3.957003, 3.521971,-5.753593,25.221453, 8.888149,-4.821785, 3.957003, 3.521971,-5.753593,25.221453, 8.888149,-4.821785, 3.957003, 3.521971,-5.753593,25.221453, 0.156927, 0.720583,14.621666,68.651619,300.134552, 0.725051, 0.266360,1834979.125000,300.000000,69.549992,-0.000000,-0.000001, 0.000000, 0.000001, 0.000000, 0.000000, 0.000000, 0.000000, 1.013507,-0.003055, 0.002002, 0.018307,-0.058657,,,,,,250218,10:17:16.370,37036.37
Mult,USC,250218 10:17:16.385, 0.000000, 0.000000, 0.000000, 0.000000, 0.000276, 0.000000, 0.000000,10.101393,-5.189650,-1.971562, 2.795347,-7.151690,24.838942,10.101393,-5.189650,-1.971562, 2.795347,-7.151690,24.838942,10.101393,-5.189650,-1.971562, 2.795347,-7.151690,24.838942, 0.156927, 0.720583,14.621666,68.651619,300.134552, 0.725051, 0.266360,1834979.125000,300.000000,69.549992,-0.000000,-0.000001, 0.000000, 0.000000, 0.000000, 0.000000,-0.000001,-0.000001, 1.011884,-0.002805, 0.001846, 0.017670,-0.066649,,,,,,250218,10:17:16.385,37036.385
Mult,USC,250218 10:17:16.400, 0.000000, 0.000000, 0.000000, 0.000000, 0.000276, 0.000000, 0.000000,11.907988,-5.064491, 3.396776, 2.152415,-15.249674,21.714570,11.907988,-5.064491, 3.396776, 2.152415,-15.249674,21.714570,11.907988,-5.064491, 3.396776, 2.152415,-15.249674,21.714570, 0.156927, 0.720583,14.621666,68.651619,300.134552, 0.725051, 0.266360,1834979.125000,300.000000,69.549992,-0.000000,-0.000000,-0.000001,-0.000001, 0.000000, 0.000000, 0.000000, 0.000001, 1.012619,-0.003204, 0.001944, 0.020264,-0.078703,,,,,,250218,10:17:16.400,37036.4
Mult,USC,250218 10:17:16.415, 0.000000, 0.000000, 0.000000, 0.000000, 0.000276, 0.000000, 0.000000, 9.178140,-7.076862, 6.417735, 1.712267,-12.628387,22.543222, 9.178140,-7.076862, 6.417735, 1.712267,-12.628387,22.543222, 9.178140,-7.076862, 6.417735, 1.712267,-12.628387,22.543222, 0.156944, 0.720882,14.611570,68.651619,300.036346, 0.725187, 0.266273,1835922.625000,300.000000,69.549992,-0.000001,-0.000001,-0.000001,-0.000001,-0.000001,-0.000001,-0.000001,-0.000001, 1.013916,-0.002826, 0.002173, 0.020926,-0.060046,,,,,,250218,10:17:16.415,37036.415
Mult,USC,250218 10:17:16.430, 0.000000, 0.000000, 0.000000, 0.000000, 0.000276, 0.000000, 0.000000, 9.748302,-6.299115,-3.673422, 2.266128,-18.729872,22.413041, 9.748302,-6.299115,-3.673422, 2.266128,-18.729872,22.413041, 9.748302,-6.299115,-3.673422, 2.266128,-18.729872,22.413041, 0.156944, 0.720882,14.611570,68.651619,300.036346, 0.725187, 0.266273,1835922.625000,300.000000,69.549992,-0.000001,-0.000000,-0.000001,-0.000001,-0.000001, 0.000000,-0.000001, 0.000000, 1.014722,-0.002991, 0.002045, 0.020865,-0.064093,,,,,,250218,10:17:16.430,37036.43
Mult,USC,250218 10:17:16.445, 0.000000, 0.000000, 0.000000, 0.000000, 0.000276, 0.000000, 0.000000, 9.205394,-7.204076, 2.194414,-0.482351,-12.809131,23.061476, 9.205394,-7.204076, 2.194414,-0.482351,-12.809131,23.061476, 9.205394,-7.204076, 2.194414,-0.482351,-12.809131,23.061476, 0.156944, 0.720882,14.611570,68.651619,300.036346, 0.725187, 0.266273,1835922.625000,300.000000,69.549992,-0.000001,-0.000001, 0.000000,-0.000001,-0.000001,-0.000001,-0.000001, 0.000000, 1.014368,-0.003021, 0.001877, 0.020996,-0.060101,,,,,,250218,10:17:16.445,37036.445
Mult,USC,250218 10:17:16.460, 0.000000, 0.000000, 0.000000, 0.000000, 0.000276, 0.000000, 0.000000, 9.115731,-5.609958, 9.649919, 0.758724,-13.467097,24.628060, 9.115731,-5.609958, 9.649919, 0.758724,-13.467097,24.628060, 9.115731,-5.609958, 9.649919, 0.758724,-13.467097,24.628060, 0.156944, 0.720882,14.611570,68.651619,300.036346, 0.725187, 0.266273,1835922.625000,300.000000,69.549992,-0.000001,-0.000000, 0.000000, 0.000000,-0.000001, 0.000000, 0.000001,-0.000001, 1.012326,-0.002869, 0.001999, 0.019446,-0.060013,,,,,,250218,10:17:16.460,37036.46
Mult,USC,250218 10:17:16.475, 0.000000, 0.000000, 0.000000, 0.000000, 0.000276, 0.000000, 0.000000, 8.851636,-5.014189,-1.382579, 2.379772,-19.960966,25.394201, 8.851636,-5.014189,-1.382579, 2.379772,-19.960966,25.394201, 8.851636,-5.014189,-1.382579, 2.379772,-19.960966,25.394201, 0.156944, 0.720882,14.611570,68.651619,300.036346, 0.725187, 0.266273,1835922.625000,300.000000,69.549992,-0.000001,-0.000001, 0.000000, 0.000000, 0.000000,-0.000001, 0.000000,-0.000001, 1.013644,-0.003052, 0.001712, 0.019754,-0.058406,,,,,,250218,10:17:16.475,37036.475
Mult,USC,250218 10:17:16.490, 0.000000, 0.000000, 0.000000, 0.000000, 0.000276, 0.000000, 0.000000,11.279777,-4.590196,-2.507412, 3.261213,-5.310529,23.998742,11.279777,-4.590196,-2.507412, 3.261213,-5.310529,23.998742,11.279777,-4.590196,-2.507412, 3.261213,-5.310529,23.998742, 0.156944, 0.720882,14.611570,68.651619,300.036346, 0.725187, 0.266273,1835922.625000,300.000000,69.549992,-0.000001,-0.000001,-0.000001,-0.000001,-0.000001, 0.000000, 0.000000,-0.000001, 1.012747,-0.002826, 0.001776, 0.018304,-0.074652,,,,,,250218,10:17:16.490,37036.49
Mult,USC,250218 10:17:16.505, 0.000000, 0.000000, 0.000000, 0.000000, 0.000276, 0.000000, 0.000000,11.511818,-5.376846, 3.635295, 1.325204,-11.288504,20.572844,11.511818,-5.376846, 3.635295, 1.325204,-11.288504,20.572844,11.511818,-5.376846, 3.635295, 1.325204,-11.288504,20.572844, 0.156944, 0.720882,14.611570,68.651619,300.036346, 0.725187, 0.266273,1835922.625000,300.000000,69.549992,-0.000000,-0.000001, 0.000000,-0.000001,-0.000001,-0.000001,-0.000001,-0.000001, 1.011908,-0.002808, 0.001917, 0.017960,-0.075932,,,,,,250218,10:17:16.505,37036.505
Mult,USC,250218 10:17:16.520, 0.000000, 0.000000, 0.000000, 0.000000, 0.000276, 0.000006, 0.000000, 7.932782,-7.920864, 3.707325, 6.263865,-23.249285,24.556160, 7.932782,-7.920864, 3.707325, 6.263865,-23.249285,24.556160, 7.932783,-7.920863, 3.707325, 6.263867,-23.249284,24.556160, 0.156949, 0.719479,14.619654,68.651619,300.067108, 0.725737, 0.266301,1837126.750000,300.000000,69.549992,-0.000001,-0.000000,-0.000001, 0.000000,-0.000001,-0.000001, 0.000000, 0.000001, 1.014105,-0.003079, 0.002032, 0.018298,-0.051723,,,,,,250218,10:17:16.520,37036.52
Mult,USC,250218 10:17:16.535, 0.000000, 0.000000, 0.000000, 0.000000, 0.000276, 0.000006, 0.000000, 8.917454,-7.226656, 2.453833, 0.862720,-7.331490,22.009454, 8.917454,-7.226656, 2.453833, 0.862720,-7.331490,22.009454, 8.917455,-7.226655, 2.453833, 0.862721,-7.331490,22.009454, 0.156949, 0.719479,14.619654,68.651619,300.067108, 0.725737, 0.266301,1837126.750000,300.000000,69.549992,-0.000001,-0.000000,-0.000001,-0.000001, 0.000000,-0.000001, 0.000000,-0.000001, 1.013574,-0.003018, 0.001968, 0.018524,-0.058170,,,,,,250218,10:17:16.535,37036.535
Mult,USC,250218 10:17:16.550, 0.000000, 0.000000, 0.000000, 0.000000, 0.000276, 0.000006, 0.000000,10.866883,-5.924747, 2.967210, 2.032395,-7.984811,20.663146,10.866883,-5.924747, 2.967210, 2.032395,-7.984811,20.663146,10.866884,-5.924746, 2.967210, 2.032396,-7.984811,20.663146, 0.156949, 0.719479,14.619654,68.651619,300.067108, 0.725737, 0.266301,1837126.750000,300.000000,69.549992,-0.000000,-0.000000, 0.000000,-0.000001, 0.000000,-0.000001,-0.000001,-0.000001, 1.013516,-0.003265, 0.001910, 0.019861,-0.071498,,,,,,250218,10:17:16.550,37036.55
Mult,USC,250218 10:17:16.565, 0.000000, 0.000000, 0.000000, 0.000000, 0.000276, 0.000006, 0.000000,10.826580,-4.657203, 3.363588,-1.018811,-17.404562,20.331877,10.826580,-4.657203, 3.363588,-1.018811,-17.404562,20.331877,10.826581,-4.657202, 3.363588,-1.018809,-17.404562,20.331877, 0.156949, 0.719479,14.619654,68.651619,300.067108, 0.725737, 0.266301,1837126.750000,300.000000,69.549992,-0.000000,-0.000001,-0.000001,-0.000001, 0.000000, 0.000001,-0.000001,-0.000001, 1.013580,-0.003326, 0.001816, 0.022540,-0.071495,,,,,,250218,10:17:16.565,37036.565
Mult,USC,250218 10:17:16.580, 0.000000, 0.000000, 0.000000, 0.000000, 0.000276, 0.000006, 0.000000,10.350180,-3.796448, 1.437966,-2.545131,-15.746769,20.429973,10.350180,-3.796448, 1.437966,-2.545131,-15.746769,20.429973,10.350180,-3.796446, 1.437966,-2.545129,-15.746769,20.429973, 0.156949, 0.719479,14.619654,68.651619,300.067108, 0.725737, 0.266301,1837126.750000,300.000000,69.549992,-0.000001,-0.000001, 0.000000, 0.000000,-0.000001, 0.000001,-0.000001,-0.000001, 1.014471,-0.002609, 0.002167, 0.021503,-0.068452,,,,,,250218,10:17:16.580,37036.58
Mult,USC,250218 10:17:16.595, 0.000000, 0.000000, 0.000000, 0.000000, 0.000276, 0.000006, 0.000000, 9.691163,-4.197093, 0.446699,-0.775498,-18.854971,20.304776, 9.691163,-4.197093, 0.446699,-0.775498,-18.854971,20.304776, 9.691163,-4.197092, 0.446699,-0.775496,-18.854971,20.304776, 0.156949, 0.719479,14.619654,68.651619,300.067108, 0.725737, 0.266301,1837126.750000,300.000000,69.549992,-0.000001,-0.000001,-0.000001,-0.000001, 0.000000, 0.000000,-0.000001,-0.000001, 1.012430,-0.002991, 0.002069, 0.021027,-0.064011,,,,,,250218,10:17:16.595,37036.595
Mult,USC,250218 10:17:16.610, 0.000000, 0.000000, 0.000000, 0.000000, 0.000276, 0.000001, 0.000000, 1.943749,-0.839783, 0.267574, 0.139042,-2.236213, 3.919139, 1.943749,-0.839783, 0.267574, 0.139042,-2.236213, 3.919139, 1.943749,-0.839783, 0.267574, 0.139042,-2.236213, 3.919139, 0.156949, 0.719479,14.619654,68.651619,300.067108, 0.725737, 0.266301,1837126.750000,300.000000,69.549992,-0.000001,-0.000000, 0.000000,-0.000001,-0.000001,-0.000001,-0.000001,-0.000001, 1.002234,-0.000653, 0.000369, 0.004218,-0.012838,,,,,,250218,10:17:16.610,37036.61
Mult,USC,250218 10:17:16.625, 0.000000, 0.000000, 0.000000, 0.000000, 0.000276, 0.000000,-0.000002, 9.326868,-5.270986, 1.695595, 1.424149,-13.886945,18.923505, 9.326868,-5.270986, 1.695595, 1.424149,-13.886945,18.923505, 9.326868,-5.270986, 1.695595, 1.424150,-13.886945,18.923505, 0.156932, 0.720331,14.614465,68.651619,299.948090, 0.725230, 0.266195,1836573.000000,300.000000,69.549992,-0.000001,-0.000001,-0.000001, 0.000000,-0.000001,-0.000001, 0.000001,-0.000001, 1.012421,-0.003265, 0.002167, 0.019128,-0.061358,,,,,,250218,10:17:16.625,37036.625
Mult,USC,250218 10:17:16.640, 0.000000, 0.000000, 0.000000, 0.000000, 0.000276, 0.000000,-0.000002,10.474347,-5.251876, 4.343943,-0.058050,-9.769998,19.105212,10.474347,-5.251876, 4.343943,-0.058050,-9.769998,19.105212,10.474347,-5.251876, 4.343943,-0.058050,-9.769998,19.105212, 0.156932, 0.720331,14.614465,68.651619,299.948090, 0.725230, 0.266195,1836573.000000,300.000000,69.549992,-0.000001, 0.000001, 0.000000,-0.000001, 0.000000,-0.000001, 0.000000, 0.000000, 1.012656,-0.002823, 0.002390, 0.017545,-0.068985,,,,,,250218,10:17:16.640,37036.64
Mult,USC,250218 10:17:16.655, 0.000000, 0.000000, 0.000000, 0.000000, 0.000276, 0.000000,-0.000002, 9.107356,-5.556094, 2.418970,-0.521730,-16.391423,20.664654, 9.107356,-5.556094, 2.418970,-0.521730,-16.391423,20.664654, 9.107356,-5.556094, 2.418970,-0.521729,-16.391423,20.664654, 0.156932, 0.720331,14.614465,68.651619,299.948090, 0.725230, 0.266195,1836573.000000,300.000000,69.549992,-0.000001,-0.000001,-0.000001, 0.000001,-0.000001,-0.000001,-0.000001, 0.000000, 1.013541,-0.002835, 0.001999, 0.017261,-0.059820,,,,,,250218,10:17:16.655,37036.655
Mult,USC,250218 10:17:16.670, 0.000000, 0.000000, 0.000000, 0.000000, 0.000276, 0.000000,-0.000002, 9.618521,-4.319625, 4.673530, 0.140657,-14.742899,22.655079, 9.618521,-4.319625, 4.673530, 0.140657,-14.742899,22.655079, 9.618521,-4.319625, 4.673530, 0.140657,-14.742899,22.655079, 0.156932, 0.720331,14.614465,68.651619,299.948090, 0.725230, 0.266195,1836573.000000,300.000000,69.549992,-0.000000,-0.000001,-0.000001,-0.000001, 0.000000, 0.000000,-0.000001,-0.000001, 1.012241,-0.003336, 0.002194, 0.017398,-0.063575,,,,,,250218,10:17:16.670,37036.67
Mult,USC,250218 10:17:16.685, 0.000000, 0.000000, 0.000000, 0.000000, 0.000276, 0.000000,-0.000002, 8.937064,-5.493439,-0.029374,-0.217575,-17.068560,24.171110, 8.937064,-5.493439,-0.029374,-0.217575,-17.068560,24.171110, 8.937064,-5.493439,-0.029374,-0.217574,-17.068560,24.171110, 0.156932, 0.720331,14.614465,68.651619,299.948090, 0.725230, 0.266195,1836573.000000,300.000000,69.549992,-0.000001,-0.000000,-0.000001,-0.000001, 0.000000,-0.000001,-0.000001,-0.000001, 1.012369,-0.003174, 0.001788, 0.017929,-0.058734,,,,,,250218,10:17:16.685,37036.685
Mult,USC,250218 10:17:16.700, 0.000000, 0.000000, 0.000000, 0.000000, 0.000276, 0.000000,-0.000002,11.199720,-5.508795, 3.754824, 2.919664,-11.137545,24.098223,11.199720,-5.508795, 3.754824, 2.919664,-11.137545,24.098223,11.199720,-5.508795, 3.754824, 2.919665,-11.137545,24.098223, 0.156932, 0.720331,14.614465,68.651619,299.948090, 0.725230, 0.266195,1836573.000000,300.000000,69.549992,-0.000001,-0.000000,-0.000001,-0.000001, 0.000001, 0.000000, 0.000000, 0.000000, 1.014398,-0.003336, 0.001810, 0.018713,-0.073910,,,,,,250218,10:17:16.700,37036.7
