Type,Units,Time,X Position,Y Position,Y Encoder,Z Position,Z Encoder,Yaw,Pitch,WAFBC Drag,WAFBC Side,WAFBC Lift,WAFBC Roll,WAFBC Pitch,WAFBC Yaw,WAFMC Drag,WAFMC Side,WAFMC Lift,WAFMC Roll,WAFMC Pitch,WAFMC Yaw,BAFMC Axial,BAFMC Side,BAFMC Normal,BAFMC Roll,BAFMC Pitch,BAFMC Yaw,DPT250,DPT251,PT250,TE250,Velocity,Dynamic Pressure,Mach,Reynolds Number per ft,Velocity Setpoint,Temperature Setpoint,cDAQ AI0,cDAQ AI1,cDAQ AI2,cDAQ AI3,cDAQ AI4,cDAQ AI5,cDAQ AI6,cDAQ AI7,cRIO AI0,cRIO AI1,cRIO AI2,cRIO AI3,Drag (raw),Side (raw),Lift (raw),Roll (raw),Pitch (raw),Yaw (raw),Date,ClockTime,Seconds
Type,USC / SI,Time,Inches / Millimeters,Inches / Millimeters,Inches / Millimeters,Inches / Millimeters,Inches / Millimeters,Degrees / Degrees,Degrees / Degrees,lb / N,lb / N,lb / N,ft-lb / N-m,ft-lb / N-m,ft-lb / N-m,lb / N,lb / N,lb / N,ft-lb / N-m,ft-lb / N-m,ft-lb / N-m,lb / N,lb / N,lb / N,ft-lb / N-m,ft-lb / N-m,ft-lb / N-m,PSId / Pascals,PSId / Pascals,PSIa / Pascals,F / F,Ft/s / m/s,PSId / Pascals, / ,1/ft / 1/ft,ft/s / m/s,F / F, / , / , / , / , / , / , / , / , / , / , / , / , / , / , / , / , / , / ,Time,,
Mult,USC,250218 10:02:23.525, 0.000000, 0.000000, 0.000000, 0.000000, 0.000276, 0.000002, 0.000000, 9.306658,-5.107420, 6.810459,-1.649702,-18.239663,23.802901, 9.306658,-5.107420, 6.810459,-1.649702,-18.239663,23.802901, 9.306659,-5.107419, 6.810459,-1.649702,-18.239664,23.802901, 0.156948, 0.720842,14.607069,69.788550,300.450897, 0.725407, 0.266355,1830901.000000,300.000000,69.549992,-0.000000,-0.000000, 0.000000,-0.000001,-0.000001, 0.000000,-0.000001,-0.000001, 1.012589,-0.002960, 0.001712, 0.020493,-0.061326,,,,,,250218,10:02:23.525,36143.525
Mult,USC,250218 10:02:23.540, 0.000000, 0.000000, 0.000000, 0.000000, 0.000276, 0.000002, 0.000000,10.061201,-5.274755, 5.909851, 1.512415,-19.923855,25.833259,10.061201,-5.274755, 5.909851, 1.512415,-19.923855,25.833259,10.061201,-5.274754, 5.909851, 1.512416,-19.923855,25.833259, 0.156948, 0.720842,14.607069,69.788550,300.450897, 0.725407, 0.266355,1830901.000000,300.000000,69.549992,-0.000001,-0.000000, 0.000000, 0.000000, 0.000000,-0.000001,-0.000001, 0.000000, 1.014560,-0.002838, 0.001846, 0.020554,-0.066426,,,,,,250218,10:02:23.540,36143.54
Mult,USC,250218 10:02:23.555, 0.000000, 0.000000, 0.000000, 0.000000, 0.000276, 0.000002, 0.000000, 8.011733,-7.069712,-6.074642, 4.282854, 1.088016,26.515837, 8.011733,-7.069712,-6.074642, 4.282854, 1.088016,26.515837, 8.011733,-7.069711,-6.074642, 4.282854, 1.088016,26.515837, 0.156948, 0.720842,14.607069,69.788550,300.450897, 0.725407, 0.266355,1830901.000000,300.000000,69.549992, 0.000001,-0.000000, 0.000000,-0.000001,-0.000001,-0.000001, 0.000000, 0.000000, 1.013098,-0.003113, 0.002191, 0.020648,-0.052384,,,,,,250218,10:02:23.555,36143.555
Mult,USC,250218 10:02:23.570, 0.000000, 0.000000, 0.000000, 0.000000, 0.000276, 0.000002, 0.000000, 9.135764,-7.740905, 1.829811, 4.249353,-23.624272,25.409259, 9.135764,-7.740905, 1.829811, 4.249353,-23.624272,25.409259, 9.135765,-7.740905, 1.829811, 4.249354,-23.624272,25.409259, 0.156948, 0.720842,14.607069,69.788550,300.450897, 0.725407, 0.266355,1830901.000000,300.000000,69.549992,-0.000001,-0.000000,-0.000001, 0.000001,-0.000001, 0.000000,-0.000001,-0.000001, 1.012717,-0.002960, 0.001877, 0.020142,-0.059725,,,,,,250218,10:02:23.570,36143.57
Mult,USC,250218 10:02:23.585, 0.000000, 0.000000, 0.000000, 0.000000, 0.000276, 0.000002, 0.000000,10.693388,-7.586583,12.666453, 4.929928,-12.724813,23.057899,10.693388,-7.586583,12.666453, 4.929928,-12.724813,23.057899,10.693388,-7.586582,12.666453, 4.929929,-12.724813,23.057899, 0.156948, 0.720842,14.607069,69.788550,300.450897, 0.725407, 0.266355,1830901.000000,300.000000,69.549992,-0.000001,-0.000000,-0.000001,-0.000001,-0.000001, 0.000000, 0.000000,-0.000001, 1.011307,-0.003204, 0.002103, 0.021497,-0.070198,,,,,,250218,10:02:23.585,36143.585
Mult,USC,250218 10:02:23.600, 0.000000, 0.000000, 0.000000, 0.000000, 0.000276, 0.000002, 0.000000,10.097823,-6.490706,-1.304359, 0.720549,-5.329268,21.454908,10.097823,-6.490706,-1.304359, 0.720549,-5.329268,21.454908,10.097823,-6.490705,-1.304359, 0.720549,-5.329268,21.454908, 0.156948, 0.720842,14.607069,69.788550,300.450897, 0.725407, 0.266355,1830901.000000,300.000000,69.549992,-0.000001,-0.000001, 0.000001,-0.000001, 0.000000,-0.000001, 0.000000,-0.000001, 1.013705,-0.002927, 0.001712, 0.022055,-0.066196,,,,,,250218,10:02:23.600,36143.6
Mult,USC,250218 10:02:23.615, 0.000000, 0.000000, 0.000000, 0.000000, 0.000276, 0.000002,-0.000002, 8.866458,-4.686420,-6.060061, 1.356992,-16.396855,20.294666, 8.866458,-4.686420,-6.060061, 1.356992,-16.396855,20.294666, 8.866458,-4.686420,-6.060061, 1.356993,-16.396855,20.294666, 0.156923, 0.720448,14.618515,69.788550,300.298798, 0.725241, 0.266220,1831408.250000,300.000000,69.549992,-0.000001,-0.000001, 0.000000, 0.000000,-0.000001, 0.000000, 0.000000,-0.000001, 1.010895,-0.002734, 0.001917, 0.023547,-0.058578,,,,,,250218,10:02:23.615,36143.615
Mult,USC,250218 10:02:23.630, 0.000000, 0.000000, 0.000000, 0.000000, 0.000276, 0.000002,-0.000002,10.154745,-4.133078,12.031289, 0.519866,-4.448341,19.304456,10.154745,-4.133078,12.031289, 0.519866,-4.448341,19.304456,10.154746,-4.133078,12.031288, 0.519867,-4.448341,19.304456, 0.156923, 0.720448,14.618515,69.788550,300.298798, 0.725241, 0.266220,1831408.250000,300.000000,69.549992,-0.000001,-0.000001, 0.000000,-0.000001, 0.000000,-0.000001,-0.000001,-0.000001, 1.015167,-0.003296, 0.001910, 0.023615,-0.067187,,,,,,250218,10:02:23.630,36143.63
Mult,USC,250218 10:02:23.645, 0.000000, 0.000000, 0.000000, 0.000000, 0.000276, 0.000002,-0.000002,10.307863,-3.886958, 5.871579,-4.167881,-25.135789,19.068511,10.307863,-3.886958, 5.871579,-4.167881,-25.135789,19.068511,10.307863,-3.886958, 5.871579,-4.167879,-25.135789,19.068511, 0.156923, 0.720448,14.618515,69.788550,300.298798, 0.725241, 0.266220,1831408.250000,300.000000,69.549992,-0.000001,-0.000001, 0.000000, 0.000000, 0.000000, 0.000000, 0.000000,-0.000001, 1.011157,-0.003308, 0.001746, 0.022473,-0.068191,,,,,,250218,10:02:23.645,36143.645
Mult,USC,250218 10:02:23.660, 0.000000, 0.000000, 0.000000, 0.000000, 0.000276, 0.000002,-0.000002, 9.526322,-2.976908,-8.163764, 2.245224,-7.329492,18.497218, 9.526322,-2.976908,-8.163764, 2.245224,-7.329492,18.497218, 9.526321,-2.976908,-8.163764, 2.245224,-7.329492,18.497217, 0.156923, 0.720448,14.618515,69.788550,300.298798, 0.725241, 0.266220,1831408.250000,300.000000,69.549992,-0.000001,-0.000000,-0.000001,-0.000001, 0.000000, 0.000000, 0.000000,-0.000001, 1.012592,-0.003113, 0.002078, 0.021371,-0.063378,,,,,,250218,10:02:23.660,36143.66
Mult,USC,250218 10:02:23.675, 0.000000, 0.000000, 0.000000, 0.000000, 0.000276, 0.000002,-0.000002,10.944272,-3.713061, 4.986309,-2.935652,-7.938445,18.175923,10.944272,-3.713061, 4.986309,-2.935652,-7.938445,18.175923,10.944272,-3.713060, 4.986309,-2.935651,-7.938445,18.175923, 0.156923, 0.720448,14.618515,69.788550,300.298798, 0.725241, 0.266220,1831408.250000,300.000000,69.549992,-0.000000,-0.000000,-0.000001, 0.000000, 0.000000,-0.000001, 0.000000,-0.000001, 1.011377,-0.003018, 0.001968, 0.020264,-0.072391,,,,,,250218,10:02:23.675,36143.675
Mult,USC,250218 10:02:23.690, 0.000000, 0.000000, 0.000000, 0.000000, 0.000276, 0.000002,-0.000002,10.722977,-4.223373, 8.885095,-1.401594,-18.416997,18.788376,10.722977,-4.223373, 8.885095,-1.401594,-18.416997,18.788376,10.722977,-4.223372, 8.885095,-1.401592,-18.416997,18.788376, 0.156923, 0.720448,14.618515,69.788550,300.298798, 0.725241, 0.266220,1831408.250000,300.000000,69.549992,-0.000001,-0.000001,-0.000001,-0.000001, 0.000000, 0.000000, 0.000000,-0.000001, 1.009430,-0.003082, 0.001880, 0.017731,-0.070942,,,,,,250218,10:02:23.690,36143.69
Mult,USC,250218 10:02:23.705, 0.000000, 0.000000, 0.000000, 0.000000, 0.000276, 0.000002,-0.000002, 9.096403,-5.135640,-2.645872,-1.279663,-2.965890,21.202363, 9.096403,-5.135640,-2.645872,-1.279663,-2.965890,21.202363, 9.096403,-5.135639,-2.645872,-1.279662,-2.965890,21.202363, 0.156923, 0.720448,14.618515,69.788550,300.298798, 0.725241, 0.266220,1831408.250000,300.000000,69.549992,-0.000000,-0.000001, 0.000000, 0.000000, 0.000000,-0.000001, 0.000000,-0.000001, 1.010034,-0.002930, 0.001968, 0.017761,-0.059797,,,,,,250218,10:02:23.705,36143.705
Mult,USC,250218 10:02:23.720, 0.000000, 0.000000, 0.000000, 0.000000, 0.000276,-0.000004, 0.000000,10.974796,-3.849441,-0.344003,-3.083706,-13.470711,17.356149,10.974796,-3.849441,-0.344003,-3.083706,-13.470711,17.356149,10.974796,-3.849441,-0.344003,-3.083707,-13.470711,17.356149, 0.156919, 0.720605,14.621524,69.788550,300.277832, 0.725289, 0.266201,1831657.125000,300.000000,69.549992,-0.000000,-0.000000,-0.000001, 0.000000, 0.000000,-0.000001,-0.000001,-0.000001, 1.010965,-0.002917, 0.001813, 0.018912,-0.072532,,,,,,250218,10:02:23.720,36143.72
Mult,USC,250218 10:02:23.735, 0.000000, 0.000000, 0.000000, 0.000000, 0.000276,-0.000004, 0.000000,10.819476,-2.717064, 9.451417,-1.646433,-11.187988,16.028432,10.819476,-2.717064, 9.451417,-1.646433,-11.187988,16.028432,10.819476,-2.717065, 9.451417,-1.646434,-11.187988,16.028432, 0.156919, 0.720605,14.621524,69.788550,300.277832, 0.725289, 0.266201,1831657.125000,300.000000,69.549992,-0.000001,-0.000000, 0.000000, 0.000000,-0.000001,-0.000001,-0.000001,-0.000001, 1.014148,-0.003052, 0.002063, 0.020389,-0.071861,,,,,,250218,10:02:23.735,36143.735
Mult,USC,250218 10:02:23.750, 0.000000, 0.000000, 0.000000, 0.000000, 0.000276,-0.000004, 0.000000, 8.546564,-3.335667,-3.348888,-4.905344,-12.652985,16.634362, 8.546564,-3.335667,-3.348888,-4.905344,-12.652985,16.634362, 8.546563,-3.335667,-3.348888,-4.905345,-12.652984,16.634362, 0.156919, 0.720605,14.621524,69.788550,300.277832, 0.725289, 0.266201,1831657.125000,300.000000,69.549992,-0.000001,-0.000001, 0.000000, 0.000000, 0.000000, 0.000000,-0.000001,-0.000001, 1.012451,-0.003082, 0.001654, 0.020230,-0.056470,,,,,,250218,10:02:23.750,36143.75
Mult,USC,250218 10:02:23.765, 0.000000, 0.000000, 0.000000, 0.000000, 0.000276,-0.000004, 0.000000, 9.076215,-3.597734,-2.704416,-2.996508,-16.264036,18.434877, 9.076215,-3.597734,-2.704416,-2.996508,-16.264036,18.434877, 9.076214,-3.597734,-2.704416,-2.996509,-16.264036,18.434877, 0.156919, 0.720605,14.621524,69.788550,300.277832, 0.725289, 0.266201,1831657.125000,300.000000,69.549992,-0.000000,-0.000000,-0.000001,-0.000001, 0.000000, 0.000000, 0.000000, 0.000000, 1.012741,-0.002838, 0.001999, 0.023889,-0.060016,,,,,,250218,10:02:23.765,36143.765
Mult,USC,250218 10:02:23.780, 0.000000, 0.000000, 0.000000, 0.000000, 0.000276,-0.000004, 0.000000,10.545835,-4.480304,10.828777, 0.620423,-18.782440,20.069345,10.545835,-4.480304,10.828777, 0.620423,-18.782440,20.069345,10.545835,-4.480304,10.828777, 0.620422,-18.782440,20.069345, 0.156919, 0.720605,14.621524,69.788550,300.277832, 0.725289, 0.266201,1831657.125000,300.000000,69.549992,-0.000001,-0.000000,-0.000001,-0.000001, 0.000000, 0.000000, 0.000000, 0.000000, 1.014560,-0.002899, 0.001559, 0.022638,-0.069792,,,,,,250218,10:02:23.780,36143.78
Mult,USC,250218 10:02:23.795, 0.000000, 0.000000, 0.000000, 0.000000, 0.000276,-0.000004, 0.000000, 9.662266,-5.384160, 4.602813, 1.882289,-13.785260,21.522126, 9.662266,-5.384160, 4.602813, 1.882289,-13.785260,21.522126, 9.662266,-5.384160, 4.602813, 1.882288,-13.785260,21.522126, 0.156919, 0.720605,14.621524,69.788550,300.277832, 0.725289, 0.266201,1831657.125000,300.000000,69.549992,-0.000001,-0.000001, 0.000000,-0.000001,-0.000001, 0.000000,-0.000001, 0.000000, 1.012073,-0.003052, 0.001590, 0.023007,-0.063647,,,,,,250218,10:02:23.795,36143.795
Mult,USC,250218 10:02:23.810, 0.000000, 0.000000, 0.000000, 0.000000, 0.000276,-0.000001, 0.000000, 1.673927,-1.341227,-0.928773, 0.360661,-3.219839, 4.488305, 1.673927,-1.341227,-0.928773, 0.360661,-3.219839, 4.488305, 1.673927,-1.341227,-0.928773, 0.360661,-3.219839, 4.488305, 0.156919, 0.720605,14.621524,69.788550,300.277832, 0.725289, 0.266201,1831657.125000,300.000000,69.549992,-0.000001,-0.000000, 0.000000,-0.000001,-0.000001,-0.000001,-0.000001,-0.000001, 1.002237,-0.000656, 0.000400, 0.004471,-0.010960,,,,,,250218,10:02:23.810,36143.81
Mult,USC,250218 10:02:23.825, 0.000000, 0.000000, 0.000000, 0.000000, 0.000276,-0.000004, 0.000000,10.850420,-3.621484, 6.173087,-5.205050,-11.924628,16.752527,10.850420,-3.621484, 6.173087,-5.205050,-11.924628,16.752527,10.850420,-3.621485, 6.173087,-5.205051,-11.924628,16.752527, 0.156939, 0.721003,14.625948,69.788550,300.254333, 0.725395, 0.266180,1832068.000000,300.000000,69.549992,-0.000000,-0.000000,-0.000001,-0.000001, 0.000000, 0.000000, 0.000000,-0.000001, 1.012421,-0.003174, 0.002289, 0.019727,-0.071748,,,,,,250218,10:02:23.825,36143.825
Mult,USC,250218 10:02:23.840, 0.000000, 0.000000, 0.000000, 0.000000, 0.000276,-0.000004, 0.000000,10.139006,-2.841295, 6.308286,-1.288579,-18.848418,16.087043,10.139006,-2.841295, 6.308286,-1.288579,-18.848418,16.087043,10.139006,-2.841296, 6.308286,-1.288580,-18.848418,16.087043, 0.156939, 0.721003,14.625948,69.788550,300.254333, 0.725395, 0.266180,1832068.000000,300.000000,69.549992,-0.000001,-0.000001,-0.000001,-0.000001,-0.000001,-0.000001,-0.000001,-0.000001, 1.012048,-0.003717, 0.002271, 0.019131,-0.067310,,,,,,250218,10:02:23.840,36143.84
Mult,USC,250218 10:02:23.855, 0.000000, 0.000000, 0.000000, 0.000000, 0.000276,-0.000004, 0.000000, 8.263426,-3.622761,-3.547133,-4.724227,-9.739164,17.183791, 8.263426,-3.622761,-3.547133,-4.724227,-9.739164,17.183791, 8.263426,-3.622761,-3.547133,-4.724228,-9.739164,17.183791, 0.156939, 0.721003,14.625948,69.788550,300.254333, 0.725395, 0.266180,1832068.000000,300.000000,69.549992,-0.000001,-0.000001, 0.000000,-0.000002, 0.000000,-0.000001, 0.000000,-0.000001, 1.012582,-0.003491, 0.001743, 0.018018,-0.054515,,,,,,250218,10:02:23.855,36143.855
Mult,USC,250218 10:02:23.870, 0.000000, 0.000000, 0.000000, 0.000000, 0.000276,-0.000004, 0.000000, 9.801085,-3.944342, 3.422698,-2.868293,-15.989994,18.962054, 9.801085,-3.944342, 3.422698,-2.868293,-15.989994,18.962054, 9.801085,-3.944343, 3.422698,-2.868294,-15.989993,18.962054, 0.156939, 0.721003,14.625948,69.788550,300.254333, 0.725395, 0.266180,1832068.000000,300.000000,69.549992,-0.000001,-0.000000,-0.000001,-0.000001,-0.000001,-0.000001, 0.000000, 0.000000, 1.013318,-0.002991, 0.001682, 0.018808,-0.064752,,,,,,250218,10:02:23.870,36143.87
Mult,USC,250218 10:02:23.885, 0.000000, 0.000000, 0.000000, 0.000000, 0.000276,-0.000004, 0.000000,11.167884,-4.698416, 9.200299, 2.663827,-22.180728,20.642387,11.167884,-4.698416, 9.200299, 2.663827,-22.180728,20.642387,11.167884,-4.698417, 9.200299, 2.663826,-22.180728,20.642387, 0.156939, 0.721003,14.625948,69.788550,300.254333, 0.725395, 0.266180,1832068.000000,300.000000,69.549992,-0.000001,-0.000001,-0.000001,-0.000001, 0.000000,-0.000001,-0.000001,-0.000001, 1.014111,-0.002979, 0.002161, 0.020105,-0.073954,,,,,,250218,10:02:23.885,36143.885
Mult,USC,250218 10:02:23.900, 0.000000, 0.000000, 0.000000, 0.000000, 0.000276,-0.000004, 0.000000, 8.880245,-5.921016,-1.736542, 1.215717,-14.969482,21.896145, 8.880245,-5.921016,-1.736542, 1.215717,-14.969482,21.896145, 8.880245,-5.921017,-1.736542, 1.215716,-14.969482,21.896145, 0.156939, 0.721003,14.625948,69.788550,300.254333, 0.725395, 0.266180,1832068.000000,300.000000,69.549992,-0.000001,-0.000000,-0.000001,-0.000001,-0.000001, 0.000001,-0.000001,-0.000001, 1.011188,-0.003113, 0.001877, 0.023483,-0.058290,,,,,,250218,10:02:23.900,36143.9
Mult,USC,250218 10:02:23.915, 0.000000, 0.000000, 0.000000, 0.000000, 0.000276,-0.000004,-0.000002, 8.324700,-6.573795,-1.859355, 1.144829,-18.985583,22.421551, 8.324700,-6.573795,-1.859355, 1.144829,-18.985583,22.421551, 8.324700,-6.573796,-1.859356, 1.144828,-18.985583,22.421551, 0.156937, 0.721218,14.632467,69.788550,300.445923, 0.725396, 0.266350,1830902.750000,300.000000,69.549992,-0.000001,-0.000001, 0.000000,-0.000001,-0.000001, 0.000000,-0.000001,-0.000001, 1.013290,-0.002902, 0.001712, 0.022720,-0.054462,,,,,,250218,10:02:23.915,36143.915
Mult,USC,250218 10:02:23.930, 0.000000, 0.000000, 0.000000, 0.000000, 0.000276,-0.000004,-0.000002, 9.326329,-6.393352, 8.192433, 2.990065,-10.874124,22.154010, 9.326329,-6.393352, 8.192433, 2.990065,-10.874124,22.154010, 9.326329,-6.393353, 8.192433, 2.990065,-10.874124,22.154010, 0.156937, 0.721218,14.632467,69.788550,300.445923, 0.725396, 0.266350,1830902.750000,300.000000,69.549992,-0.000000, 0.000001, 0.000000, 0.000000, 0.000000,-0.000001, 0.000000,-0.000001, 1.011130,-0.002734, 0.002325, 0.023227,-0.061234,,,,,,250218,10:02:23.930,36143.93
Mult,USC,250218 10:02:23.945, 0.000000, 0.000000, 0.000000, 0.000000, 0.000276,-0.000004,-0.000002, 9.526186,-6.266467,-1.443377, 1.909623,-10.487891,22.331588, 9.526186,-6.266467,-1.443377, 1.909623,-10.487891,22.331588, 9.526185,-6.266468,-1.443378, 1.909623,-10.487891,22.331588, 0.156937, 0.721218,14.632467,69.788550,300.445923, 0.725396, 0.266350,1830902.750000,300.000000,69.549992,-0.000001,-0.000001,-0.000001, 0.000000, 0.000000, 0.000000, 0.000000, 0.000000, 1.010263,-0.003235, 0.001691, 0.023083,-0.062511,,,,,,250218,10:02:23.945,36143.945
Mult,USC,250218 10:02:23.960, 0.000000, 0.000000, 0.000000, 0.000000, 0.000276,-0.000004,-0.000002,10.692279,-5.706413,-2.535457, 0.542902,-8.418552,22.416176,10.692279,-5.706413,-2.535457, 0.542902,-8.418552,22.416176,10.692279,-5.706414,-2.535457, 0.542903,-8.418552,22.416176, 0.156937, 0.721218,14.632467,69.788550,300.445923, 0.725396, 0.266350,1830902.750000,300.000000,69.549992,-0.000001,-0.000000,-0.000001,-0.000001,-0.000001, 0.000000,-0.000001,-0.000001, 1.011624,-0.003082, 0.001904, 0.021085,-0.070396,,,,,,250218,10:02:23.960,36143.96
Mult,USC,250218 10:02:23.975, 0.000000, 0.000000, 0.000000, 0.000000, 0.000276,-0.000004,-0.000002,11.507196,-4.990680, 4.705364, 1.266476,-15.703554,22.233801,11.507196,-4.990680, 4.705364, 1.266476,-15.703554,22.233801,11.507195,-4.990681, 4.705364, 1.266476,-15.703554,22.233801, 0.156937, 0.721218,14.632467,69.788550,300.445923, 0.725396, 0.266350,1830902.750000,300.000000,69.549992,-0.000000,-0.000000,-0.000001, 0.000000,-0.000001,-0.000001, 0.000000,-0.000001, 1.014169,-0.003369, 0.001947, 0.019446,-0.076047,,,,,,250218,10:02:23.975,36143.975
Mult,USC,250218 10:02:23.990, 0.000000, 0.000000, 0.000000, 0.000000, 0.000276,-0.000004,-0.000002, 8.996276,-5.322502, 2.263367,-1.049581,-20.612361,22.336686, 8.996276,-5.322502, 2.263367,-1.049581,-20.612361,22.336686, 8.996275,-5.322503, 2.263366,-1.049581,-20.612361,22.336686, 0.156937, 0.721218,14.632467,69.788550,300.445923, 0.725396, 0.266350,1830902.750000,300.000000,69.549992,-0.000001,-0.000001, 0.000000, 0.000000,-0.000001,-0.000001, 0.000000, 0.000000, 1.010428,-0.003247, 0.001846, 0.020047,-0.059164,,,,,,250218,10:02:23.990,36143.99
Mult,USC,250218 10:02:24.005, 0.000000, 0.000000, 0.000000, 0.000000, 0.000276,-0.000004,-0.000002, 9.054727,-4.568038,-1.082035, 1.635450,-8.074484,22.003100, 9.054727,-4.568038,-1.082035, 1.635450,-8.074484,22.003100, 9.054727,-4.568039,-1.082035, 1.635451,-8.074484,22.003100, 0.156937, 0.721218,14.632467,69.788550,300.445923, 0.725396, 0.266350,1830902.750000,300.000000,69.549992,-0.000000,-0.000001,-0.000001,-0.000001, 0.000000, 0.000000,-0.000001,-0.000001, 1.012326,-0.003113, 0.002322, 0.019101,-0.059728,,,,,,250218,10:02:24.005,36144.005
Mult,USC,250218 10:02:24.020, 0.000000, 0.000000, 0.000000, 0.000000, 0.000276,-0.000004, 0.000000,10.606850,-5.132483, 5.341241,-0.152763,-14.267434,21.308047,10.606850,-5.132483, 5.341241,-0.152763,-14.267434,21.308047,10.606850,-5.132484, 5.341241,-0.152764,-14.267434,21.308047, 0.156938, 0.721462,14.606550,69.788550,300.391541, 0.725095, 0.266302,1830474.250000,300.000000,69.549992,-0.000000,-0.000001,-0.000001,-0.000001, 0.000000, 0.000000, 0.000000,-0.000001, 1.013821,-0.003082, 0.002267, 0.020773,-0.069958,,,,,,250218,10:02:24.020,36144.02
Mult,USC,250218 10:02:24.035, 0.000000, 0.000000, 0.000000, 0.000000, 0.000276,-0.000004, 0.000000,10.952591,-4.746426, 2.846231, 1.269181,-20.441380,21.130557,10.952591,-4.746426, 2.846231, 1.269181,-20.441380,21.130557,10.952591,-4.746427, 2.846231, 1.269180,-20.441380,21.130557, 0.156938, 0.721462,14.606550,69.788550,300.391541, 0.725095, 0.266302,1830474.250000,300.000000,69.549992,-0.000000,-0.000000,-0.000001, 0.000000, 0.000001,-0.000001,-0.000001,-0.000001, 1.014722,-0.003021, 0.001877, 0.022476,-0.072395,,,,,,250218,10:02:24.035,36144.035
Mult,USC,250218 10:02:24.050, 0.000000, 0.000000, 0.000000, 0.000000, 0.000276,-0.000004, 0.000000, 8.124307,-5.408723,-1.402006,-1.157352,-18.392719,21.358119, 8.124307,-5.408723,-1.402006,-1.157352,-18.392719,21.358119, 8.124307,-5.408724,-1.402006,-1.157353,-18.392719,21.358119, 0.156938, 0.721462,14.606550,69.788550,300.391541, 0.725095, 0.266302,1830474.250000,300.000000,69.549992,-0.000001,-0.000000,-0.000001,-0.000001,-0.000001,-0.000001, 0.000000, 0.000000, 1.015359,-0.003430, 0.001437, 0.022760,-0.053309,,,,,,250218,10:02:24.050,36144.05
Mult,USC,250218 10:02:24.065, 0.000000, 0.000000, 0.000000, 0.000000, 0.000276,-0.000004, 0.000000, 9.317385,-4.447594, 5.616077,-0.964630,-20.758643,21.913365, 9.317385,-4.447594, 5.616077,-0.964630,-20.758643,21.913365, 9.317385,-4.447595, 5.616077,-0.964631,-20.758643,21.913365, 0.156938, 0.721462,14.606550,69.788550,300.391541, 0.725095, 0.266302,1830474.250000,300.000000,69.549992,-0.000001,-0.000001, 0.000000,-0.000001, 0.000000,-0.000001,-0.000001,-0.000001, 1.015033,-0.002902, 0.001526, 0.022989,-0.061543,,,,,,250218,10:02:24.065,36144.065
Mult,USC,250218 10:02:24.080, 0.000000, 0.000000, 0.000000, 0.000000, 0.000276,-0.000004, 0.000000,10.301923,-4.634076, 4.101457,-0.006238,-16.929545,22.997239,10.301923,-4.634076, 4.101457,-0.006238,-16.929545,22.997239,10.301923,-4.634077, 4.101457,-0.006239,-16.929545,22.997239, 0.156938, 0.721462,14.606550,69.788550,300.391541, 0.725095, 0.266302,1830474.250000,300.000000,69.549992,-0.000000,-0.000001, 0.000000,-0.000001,-0.000001,-0.000001,-0.000001, 0.000000, 1.014371,-0.003021, 0.001846, 0.023236,-0.068066,,,,,,250218,10:02:24.080,36144.08
Mult,USC,250218 10:02:24.095, 0.000000, 0.000000, 0.000000, 0.000000, 0.000276,-0.000004, 0.000000, 9.215076,-5.047260,-5.731699,-0.357057,-11.597345,24.349835, 9.215076,-5.047260,-5.731699,-0.357057,-11.597345,24.349835, 9.215075,-5.047261,-5.731699,-0.357058,-11.597345,24.349835, 0.156938, 0.721462,14.606550,69.788550,300.391541, 0.725095, 0.266302,1830474.250000,300.000000,69.549992,-0.000001,-0.000000, 0.000000,-0.000001,-0.000001,-0.000001, 0.000000, 0.000000, 1.013312,-0.003174, 0.002103, 0.023392,-0.060792,,,,,,250218,10:02:24.095,36144.095
Mult,USC,250218 10:02:24.110, 0.000000, 0.000000, 0.000000, 0.000000, 0.000276,-0.000001, 0.000000, 2.014110,-1.099051, 0.610435, 0.033781,-3.260343, 4.945097, 2.014110,-1.099051, 0.610435, 0.033781,-3.260343, 4.945097, 2.014110,-1.099051, 0.610435, 0.033781,-3.260343, 4.945097, 0.156938, 0.721462,14.606550,69.788550,300.391541, 0.725095, 0.266302,1830474.250000,300.000000,69.549992,-0.000001,-0.000001, 0.000000, 0.000001, 0.000000,-0.000001,-0.000001,-0.000001, 1.002460,-0.000623, 0.000369, 0.004153,-0.013267,,,,,,250218,10:02:24.110,36144.11
Mult,USC,250218 10:02:24.125, 0.000000, 0.000000, 0.000000, 0.000000, 0.000276, 0.000000,-0.000002,11.584127,-6.202992, 8.597511, 2.309478,-17.839628,24.626540,11.584127,-6.202992, 8.597511, 2.309478,-17.839628,24.626540,11.584128,-6.202992, 8.597510, 2.309479,-17.839628,24.626540, 0.156952, 0.720610,14.612856,69.788550,300.347504, 0.725807, 0.266263,1832541.250000,300.000000,69.549992,-0.000000,-0.000000,-0.000001,-0.000001, 0.000000, 0.000000,-0.000001,-0.000001, 1.012585,-0.003052, 0.002002, 0.019601,-0.076392,,,,,,250218,10:02:24.125,36144.125
Mult,USC,250218 10:02:24.140, 0.000000, 0.000000, 0.000000, 0.000000, 0.000276, 0.000000,-0.000002,10.022788,-6.461639,-4.348506, 4.053967, 1.599236,23.951847,10.022788,-6.461639,-4.348506, 4.053967, 1.599236,23.951847,10.022788,-6.461639,-4.348507, 4.053968, 1.599236,23.951847, 0.156952, 0.720610,14.612856,69.788550,300.347504, 0.725807, 0.266263,1832541.250000,300.000000,69.549992,-0.000001,-0.000001, 0.000001,-0.000001,-0.000001, 0.000000,-0.000001, 0.000000, 1.011090,-0.003278, 0.002225, 0.019165,-0.065852,,,,,,250218,10:02:24.140,36144.14
Mult,USC,250218 10:02:24.155, 0.000000, 0.000000, 0.000000, 0.000000, 0.000276, 0.000000,-0.000002, 8.615413,-6.416630,-4.412473, 3.487554,-10.441272,22.079280, 8.615413,-6.416630,-4.412473, 3.487554,-10.441272,22.079280, 8.615413,-6.416630,-4.412474, 3.487554,-10.441272,22.079280, 0.156952, 0.720610,14.612856,69.788550,300.347504, 0.725807, 0.266263,1832541.250000,300.000000,69.549992,-0.000001,-0.000001,-0.000001,-0.000001,-0.000001, 0.000000,-0.000001,-0.000001, 1.012784,-0.003387, 0.001999, 0.020462,-0.056512,,,,,,250218,10:02:24.155,36144.155
Mult,USC,250218 10:02:24.170, 0.000000, 0.000000, 0.000000, 0.000000, 0.000276, 0.000000,-0.000002,11.443604,-5.213116,14.588135, 1.402269,-8.373348,19.572271,11.443604,-5.213116,14.588135, 1.402269,-8.373348,19.572271,11.443604,-5.213116,14.588135, 1.402270,-8.373348,19.572271, 0.156952, 0.720610,14.612856,69.788550,300.347504, 0.725807, 0.266263,1832541.250000,300.000000,69.549992,-0.000001,-0.000001, 0.000000, 0.000000, 0.000000,-0.000001, 0.000000, 0.000000, 1.016473,-0.003491, 0.001712, 0.020581,-0.075609,,,,,,250218,10:02:24.170,36144.17
Mult,USC,250218 10:02:24.185, 0.000000, 0.000000, 0.000000, 0.000000, 0.000276, 0.000000,-0.000002,10.629677,-4.614471,-1.330681, 1.240179,-13.149350,17.914518,10.629677,-4.614471,-1.330681, 1.240179,-13.149350,17.914518,10.629677,-4.614471,-1.330681, 1.240179,-13.149350,17.914518, 0.156952, 0.720610,14.612856,69.788550,300.347504, 0.725807, 0.266263,1832541.250000,300.000000,69.549992,-0.000001,-0.000001,-0.000001,-0.000001, 0.000000, 0.000000, 0.000000,-0.000001, 1.012753,-0.002805, 0.001813, 0.021585,-0.070190,,,,,,250218,10:02:24.185,36144.185
Mult,USC,250218 10:02:24.200, 0.000000, 0.000000, 0.000000, 0.000000, 0.000276, 0.000000,-0.000002, 8.724736,-3.812860,-8.995353,-3.464954,-11.584997,17.162109, 8.724736,-3.812860,-8.995353,-3.464954,-11.584997,17.162109, 8.724736,-3.812860,-8.995353,-3.464953,-11.584997,17.162109, 0.156952, 0.720610,14.612856,69.788550,300.347504, 0.725807, 0.266263,1832541.250000,300.000000,69.549992,-0.000001,-0.000001, 0.000000, 0.000000,-0.000001, 0.000000, 0.000000,-0.000001, 1.014438,-0.002902, 0.002197, 0.023865,-0.057717,,,,,,250218,10:02:24.200,36144.2
Mult,USC,250218 10:02:24.215, 0.000000, 0.000000, 0.000000, 0.000000, 0.000276,-0.000009, 0.000000, 9.407987,-3.295496, 8.496434,-2.351966,-18.861263,16.733018, 9.407987,-3.295496, 8.496434,-2.351966,-18.861263,16.733018, 9.407987,-3.295497, 8.496434,-2.351969,-18.861263,16.733018, 0.156948, 0.721338,14.628142,69.788550,300.377472, 0.725451, 0.266290,1831459.750000,300.000000,69.549992,-0.000000,-0.000000,-0.000001, 0.000000,-0.000001,-0.000001,-0.000001, 0.000000, 1.011749,-0.003021, 0.001752, 0.022946,-0.062336,,,,,,250218,10:02:24.215,36144.215
Mult,USC,250218 10:02:24.230, 0.000000, 0.000000, 0.000000, 0.000000, 0.000276,-0.000009, 0.000000,10.110640,-3.915713, 9.715248,-1.447850,-16.384061,17.692327,10.110640,-3.915713, 9.715248,-1.447850,-16.384061,17.692327,10.110639,-3.915715, 9.715248,-1.447853,-16.384061,17.692327, 0.156948, 0.721338,14.628142,69.788550,300.377472, 0.725451, 0.266290,1831459.750000,300.000000,69.549992,-0.000001,-0.000000, 0.000000, 0.000000,-0.000001,-0.000001, 0.000000, 0.000000, 1.011221,-0.003052, 0.001724, 0.024017,-0.066912,,,,,,250218,10:02:24.230,36144.23
Mult,USC,250218 10:02:24.245, 0.000000, 0.000000, 0.000000, 0.000000, 0.000276,-0.000009, 0.000000, 8.678987,-5.174236,-9.984800,-3.417478,-17.533532,19.945207, 8.678987,-5.174236,-9.984800,-3.417478,-17.533532,19.945207, 8.678986,-5.174237,-9.984800,-3.417480,-17.533532,19.945207, 0.156948, 0.721338,14.628142,69.788550,300.377472, 0.725451, 0.266290,1831459.750000,300.000000,69.549992,-0.000001,-0.000000,-0.000001, 0.000000, 0.000001,-0.000001, 0.000001, 0.000000, 1.010101,-0.003262, 0.001660, 0.022476,-0.057188,,,,,,250218,10:02:24.245,36144.245
Mult,USC,250218 10:02:24.260, 0.000000, 0.000000, 0.000000, 0.000000, 0.000276,-0.000009, 0.000000,10.281474,-5.223925, 3.257674, 3.906026,-2.361954,21.508920,10.281474,-5.223925, 3.257674, 3.906026,-2.361954,21.508920,10.281473,-5.223926, 3.257674, 3.906026,-2.361954,21.508920, 0.156948, 0.721338,14.628142,69.788550,300.377472, 0.725451, 0.266290,1831459.750000,300.000000,69.549992,-0.000001,-0.000000,-0.000001,-0.000001, 0.000000,-0.000001,-0.000001,-0.000001, 1.010025,-0.002869, 0.002011, 0.021814,-0.067792,,,,,,250218,10:02:24.260,36144.26
Mult,USC,250218 10:02:24.275, 0.000000, 0.000000, 0.000000, 0.000000, 0.000276,-0.000009, 0.000000, 9.874689,-6.412539,14.179415, 1.182834,-20.221042,22.855514, 9.874689,-6.412539,14.179415, 1.182834,-20.221042,22.855514, 9.874688,-6.412540,14.179415, 1.182831,-20.221042,22.855514, 0.156948, 0.721338,14.628142,69.788550,300.377472, 0.725451, 0.266290,1831459.750000,300.000000,69.549992,-0.000000,-0.000001, 0.000000,-0.000001, 0.000000,-0.000001,-0.000001,-0.000001, 1.011499,-0.002826, 0.002103, 0.020013,-0.064963,,,,,,250218,10:02:24.275,36144.275
Mult,USC,250218 10:02:24.290, 0.000000, 0.000000, 0.000000, 0.000000, 0.000276,-0.000009, 0.000000, 9.110153,-6.745815,-3.462130, 2.004312,-6.077941,24.085804, 9.110153,-6.745815,-3.462130, 2.004312,-6.077941,24.085804, 9.110152,-6.745816,-3.462130, 2.004311,-6.077941,24.085804, 0.156948, 0.721338,14.628142,69.788550,300.377472, 0.725451, 0.266290,1831459.750000,300.000000,69.549992,-0.000001,-0.000001, 0.000000,-0.000001, 0.000001,-0.000001,-0.000001,-0.000001, 1.009943,-0.002808, 0.001822, 0.021689,-0.059674,,,,,,250218,10:02:24.290,36144.29
Mult,USC,250218 10:02:24.305, 0.000000, 0.000000, 0.000000, 0.000000, 0.000276,-0.000009, 0.000000, 8.189657,-7.084528,-9.956616, 4.134693,-10.443544,24.283732, 8.189657,-7.084528,-9.956616, 4.134693,-10.443544,24.283732, 8.189656,-7.084529,-9.956616, 4.134691,-10.443544,24.283732, 0.156948, 0.721338,14.628142,69.788550,300.377472, 0.725451, 0.266290,1831459.750000,300.000000,69.549992,-0.000001,-0.000001,-0.000001,-0.000001, 0.000000,-0.000001, 0.000000,-0.000001, 1.011823,-0.003235, 0.001935, 0.020514,-0.053695,,,,,,250218,10:02:24.305,36144.305
Mult,USC,250218 10:02:24.320, 0.000000, 0.000000, 0.000000, 0.000000, 0.000276, 0.000002,-0.000002,12.206194,-5.582158,14.160657, 2.077699,-10.951049,23.523443,12.206194,-5.582158,14.160657, 2.077699,-10.951049,23.523443,12.206194,-5.582158,14.160657, 2.077700,-10.951049,23.523443, 0.156936, 0.721186,14.619362,69.788550,300.372650, 0.725639, 0.266285,1831964.625000,300.000000,69.549992,-0.000001,-0.000001, 0.000000, 0.000000, 0.000000,-0.000001,-0.000001, 0.000000, 1.013348,-0.002930, 0.002075, 0.021948,-0.080688,,,,,,250218,10:02:24.320,36144.32
Mult,USC,250218 10:02:24.335, 0.000000, 0.000000, 0.000000, 0.000000, 0.000276, 0.000002,-0.000002,11.046616,-5.057198, 3.395076, 1.404964,-13.763235,22.951103,11.046616,-5.057198, 3.395076, 1.404964,-13.763235,22.951103,11.046616,-5.057197, 3.395075, 1.404965,-13.763235,22.951103, 0.156936, 0.721186,14.619362,69.788550,300.372650, 0.725639, 0.266285,1831964.625000,300.000000,69.549992,-0.000000,-0.000000, 0.000001,-0.000001,-0.000001, 0.000000, 0.000000,-0.000001, 1.012140,-0.003049, 0.002167, 0.021350,-0.072948,,,,,,250218,10:02:24.335,36144.335
Mult,USC,250218 10:02:24.350, 0.000000, 0.000000, 0.000000, 0.000000, 0.000276, 0.000002,-0.000002, 9.126905,-4.219754,-10.001992,-1.515997,-1.748486,22.961457, 9.126905,-4.219754,-10.001992,-1.515997,-1.748486,22.961457, 9.126905,-4.219754,-10.001992,-1.515996,-1.748486,22.961457, 0.156936, 0.721186,14.619362,69.788550,300.372650, 0.725639, 0.266285,1831964.625000,300.000000,69.549992,-0.000000,-0.000000,-0.000001, 0.000000,-0.000001,-0.000001, 0.000000, 0.000000, 1.013354,-0.003369, 0.001422, 0.023074,-0.060398,,,,,,250218,10:02:24.350,36144.35
Mult,USC,250218 10:02:24.365, 0.000000, 0.000000, 0.000000, 0.000000, 0.000276, 0.000002,-0.000002, 9.078137,-4.387668, 1.589055, 0.419837,-19.004732,22.509134, 9.078137,-4.387668, 1.589055, 0.419837,-19.004732,22.509134, 9.078137,-4.387668, 1.589054, 0.419839,-19.004732,22.509134, 0.156936, 0.721186,14.619362,69.788550,300.372650, 0.725639, 0.266285,1831964.625000,300.000000,69.549992,-0.000001,-0.000001,-0.000001,-0.000001,-0.000001,-0.000001, 0.000000, 0.000000, 1.013574,-0.003308, 0.001999, 0.022601,-0.059951,,,,,,250218,10:02:24.365,36144.365
Mult,USC,250218 10:02:24.380, 0.000000, 0.000000, 0.000000, 0.000000, 0.000276, 0.000002,-0.000002,10.220602,-5.139245,16.484515,-2.373750,-6.354308,22.283395,10.220602,-5.139245,16.484515,-2.373750,-6.354308,22.283395,10.220603,-5.139245,16.484514,-2.373749,-6.354308,22.283395, 0.156936, 0.721186,14.619362,69.788550,300.372650, 0.725639, 0.266285,1831964.625000,300.000000,69.549992,-0.000000,-0.000000, 0.000000,-0.000001,-0.000001,-0.000001, 0.000000,-0.000001, 1.011307,-0.002826, 0.001755, 0.022040,-0.067418,,,,,,250218,10:02:24.380,36144.38
Mult,USC,250218 10:02:24.395, 0.000000, 0.000000, 0.000000, 0.000000, 0.000276, 0.000002,-0.000002, 9.103740,-5.028954,-8.671075, 2.952377,-17.597307,22.180871, 9.103740,-5.028954,-8.671075, 2.952377,-17.597307,22.180871, 9.103739,-5.028953,-8.671075, 2.952379,-17.597307,22.180871, 0.156936, 0.721186,14.619362,69.788550,300.372650, 0.725639, 0.266285,1831964.625000,300.000000,69.549992,-0.000000,-0.000000,-0.000001, 0.000000,-0.000001,-0.000001, 0.000000, 0.000000, 1.012018,-0.003113, 0.001749, 0.021967,-0.060217,,,,,,250218,10:02:24.395,36144.395
Mult,USC,250218 10:02:24.410, 0.000000, 0.000000, 0.000000, 0.000000, 0.000276, 0.000000,-0.000000, 2.353472,-0.901112,-0.564544, 0.660782,-0.710194, 4.287418, 2.353472,-0.901112,-0.564544, 0.660782,-0.710194, 4.287418, 2.353472,-0.901112,-0.564544, 0.660782,-0.710194, 4.287418, 0.156936, 0.721186,14.619362,69.788550,300.372650, 0.725639, 0.266285,1831964.625000,300.000000,69.549992,-0.000000,-0.000001, 0.000001, 0.000000,-0.000001,-0.000001, 0.000001,-0.000001, 1.002618,-0.000623, 0.000336, 0.004437,-0.015578,,,,,,250218,10:02:24.410,36144.41
Mult,USC,250218 10:02:24.425, 0.000000, 0.000000, 0.000000, 0.000000, 0.000276,-0.000002, 0.000000,12.170289,-5.012733,12.033371,-3.459863,-23.849948,21.129059,12.170289,-5.012733,12.033371,-3.459863,-23.849948,21.129059,12.170289,-5.012734,12.033371,-3.459864,-23.849948,21.129059, 0.156948, 0.720924,14.622090,69.819475,300.317200, 0.725465, 0.266228,1831778.500000,300.000000,69.549992,-0.000001,-0.000001,-0.000001,-0.000001, 0.000000,-0.000001,-0.000001,-0.000001, 1.013385,-0.003113, 0.001648, 0.021118,-0.080455,,,,,,250218,10:02:24.425,36144.425
Mult,USC,250218 10:02:24.440, 0.000000, 0.000000, 0.000000, 0.000000, 0.000276,-0.000002, 0.000000, 8.803288,-4.999140,-0.219921,-0.341285,-12.350474,21.462803, 8.803288,-4.999140,-0.219921,-0.341285,-12.350474,21.462803, 8.803288,-4.999140,-0.219921,-0.341286,-12.350474,21.462803, 0.156948, 0.720924,14.622090,69.819475,300.317200, 0.725465, 0.266228,1831778.500000,300.000000,69.549992,-0.000001,-0.000000,-0.000001,-0.000001,-0.000001,-0.000001,-0.000001,-0.000001, 1.012268,-0.003357, 0.001846, 0.020020,-0.057903,,,,,,250218,10:02:24.440,36144.44
Mult,USC,250218 10:02:24.455, 0.000000, 0.000000, 0.000000, 0.000000, 0.000276,-0.000002, 0.000000, 7.396529,-5.426079,-9.463543, 0.102158,-2.590136,22.770238, 7.396529,-5.426079,-9.463543, 0.102158,-2.590136,22.770238, 7.396529,-5.426080,-9.463543, 0.102158,-2.590136,22.770238, 0.156948, 0.720924,14.622090,69.819475,300.317200, 0.725465, 0.266228,1831778.500000,300.000000,69.549992,-0.000001,-0.000001,-0.000001, 0.000000,-0.000001, 0.000000, 0.000000,-0.000001, 1.013229,-0.002765, 0.002011, 0.020041,-0.048606,,,,,,250218,10:02:24.455,36144.455
Mult,USC,250218 10:02:24.470, 0.000000, 0.000000, 0.000000, 0.000000, 0.000276,-0.000002, 0.000000,10.275473,-5.604125, 7.996554, 0.468680,-18.173890,23.232020,10.275473,-5.604125, 7.996554, 0.468680,-18.173890,23.232020,10.275473,-5.604126, 7.996554, 0.468679,-18.173890,23.232020, 0.156948, 0.720924,14.622090,69.819475,300.317200, 0.725465, 0.266228,1831778.500000,300.000000,69.549992,-0.000000,-0.000001,-0.000001,-0.000001,-0.000001,-0.000001,-0.000001, 0.000000, 1.013824,-0.003082, 0.001974, 0.019260,-0.067730,,,,,,250218,10:02:24.470,36144.47
Mult,USC,250218 10:02:24.485, 0.000000, 0.000000, 0.000000, 0.000000, 0.000276,-0.000002, 0.000000,10.940532,-5.502087, 6.231276, 4.377176,-19.297326,22.922925,10.940532,-5.502087, 6.231276, 4.377176,-19.297326,22.922925,10.940532,-5.502087, 6.231276, 4.377175,-19.297326,22.922925, 0.156948, 0.720924,14.622090,69.819475,300.317200, 0.725465, 0.266228,1831778.500000,300.000000,69.549992,-0.000001,-0.000001, 0.000000, 0.000000,-0.000001,-0.000001,-0.000001,-0.000001, 1.014560,-0.002960, 0.001846, 0.020331,-0.072279,,,,,,250218,10:02:24.485,36144.485
Mult,USC,250218 10:02:24.500, 0.000000, 0.000000, 0.000000, 0.000000, 0.000276,-0.000002, 0.000000, 9.967003,-6.182792,-6.028039, 2.124226,-8.304529,21.567751, 9.967003,-6.182792,-6.028039, 2.124226,-8.304529,21.567751, 9.967003,-6.182792,-6.028039, 2.124226,-8.304529,21.567751, 0.156948, 0.720924,14.622090,69.819475,300.317200, 0.725465, 0.266228,1831778.500000,300.000000,69.549992,-0.000000,-0.000000,-0.000001,-0.000001,-0.000001,-0.000001,-0.000001, 0.000000, 1.013925,-0.003113, 0.001749, 0.021747,-0.065563,,,,,,250218,10:02:24.500,36144.5
Mult,USC,250218 10:02:24.515, 0.000000, 0.000000, 0.000000, 0.000000, 0.000276,-0.000002,-0.000002, 9.516666,-5.823493, 0.071464, 0.271410,-20.506720,19.742662, 9.516666,-5.823493, 0.071464, 0.271410,-20.506720,19.742662, 9.516666,-5.823494, 0.071463, 0.271410,-20.506720,19.742662, 0.156942, 0.720755,14.609407,69.819475,300.277771, 0.725379, 0.266193,1831802.125000,300.000000,69.549992,-0.000001,-0.000001, 0.000001, 0.000000,-0.000001,-0.000001,-0.000001, 0.000000, 1.015906,-0.003049, 0.001910, 0.023236,-0.062499,,,,,,250218,10:02:24.515,36144.515
Mult,USC,250218 10:02:24.530, 0.000000, 0.000000, 0.000000, 0.000000, 0.000276,-0.000002,-0.000002, 9.372808,-4.946236,12.360131, 0.768281,-2.365472,18.737054, 9.372808,-4.946236,12.360131, 0.768281,-2.365472,18.737054, 9.372808,-4.946237,12.360131, 0.768282,-2.365472,18.737054, 0.156942, 0.720755,14.609407,69.819475,300.277771, 0.725379, 0.266193,1831802.125000,300.000000,69.549992,-0.000001,-0.000001,-0.000001, 0.000000,-0.000001, 0.000000,-0.000001, 0.000000, 1.016226,-0.002960, 0.001880, 0.022220,-0.061775,,,,,,250218,10:02:24.530,36144.53
Mult,USC,250218 10:02:24.545, 0.000000, 0.000000, 0.000000, 0.000000, 0.000276,-0.000002,-0.000002, 8.543147,-4.971558,-3.083179,-2.747003,-22.641204,19.462732, 8.543147,-4.971558,-3.083179,-2.747003,-22.641204,19.462732, 8.543147,-4.971558,-3.083180,-2.747004,-22.641203,19.462732, 0.156942, 0.720755,14.609407,69.819475,300.277771, 0.725379, 0.266193,1831802.125000,300.000000,69.549992, 0.000001,-0.000001,-0.000001,-0.000001,-0.000001, 0.000000, 0.000000, 0.000000, 1.011331,-0.002765, 0.002167, 0.021848,-0.056204,,,,,,250218,10:02:24.545,36144.545
Mult,USC,250218 10:02:24.560, 0.000000, 0.000000, 0.000000, 0.000000, 0.000276,-0.000002,-0.000002,10.879177,-4.730897,-1.171047,-0.338159,-20.235173,20.522209,10.879177,-4.730897,-1.171047,-0.338159,-20.235173,20.522209,10.879176,-4.730897,-1.171047,-0.338159,-20.235173,20.522209, 0.156942, 0.720755,14.609407,69.819475,300.277771, 0.725379, 0.266193,1831802.125000,300.000000,69.549992,-0.000000,-0.000000, 0.000000,-0.000001,-0.000001, 0.000000, 0.000000,-0.000001, 1.011823,-0.003052, 0.001968, 0.019977,-0.071854,,,,,,250218,10:02:24.560,36144.56
Mult,USC,250218 10:02:24.575, 0.000000, 0.000000, 0.000000, 0.000000, 0.000276,-0.000002,-0.000002,10.503683,-4.934141, 7.775965, 1.733850,-7.124593,20.985800,10.503683,-4.934141, 7.775965, 1.733850,-7.124593,20.985800,10.503683,-4.934141, 7.775964, 1.733850,-7.124593,20.985800, 0.156942, 0.720755,14.609407,69.819475,300.277771, 0.725379, 0.266193,1831802.125000,300.000000,69.549992,-0.000000,-0.000001, 0.000000,-0.000001,-0.000001, 0.000000,-0.000001,-0.000001, 1.014240,-0.003296, 0.002255, 0.018839,-0.069351,,,,,,250218,10:02:24.575,36144.575
Mult,USC,250218 10:02:24.590, 0.000000, 0.000000, 0.000000, 0.000000, 0.000276,-0.000002,-0.000002, 7.704224,-5.249419,-0.512517, 1.020753,-18.528180,21.074271, 7.704224,-5.249419,-0.512517, 1.020753,-18.528180,21.074271, 7.704223,-5.249419,-0.512517, 1.020753,-18.528180,21.074271, 0.156942, 0.720755,14.609407,69.819475,300.277771, 0.725379, 0.266193,1831802.125000,300.000000,69.549992,-0.000001,-0.000000, 0.000000,-0.000001,-0.000001,-0.000001,-0.000001, 0.000000, 1.012457,-0.003296, 0.001944, 0.017447,-0.050580,,,,,,250218,10:02:24.590,36144.59
Mult,USC,250218 10:02:24.605, 0.000000, 0.000000, 0.000000, 0.000000, 0.000276,-0.000002,-0.000002, 9.122239,-5.138769,-1.642551, 1.215074,-10.003127,20.453700, 9.122239,-5.138769,-1.642551, 1.215074,-10.003127,20.453700, 9.122239,-5.138770,-1.642552, 1.215074,-10.003127,20.453700, 0.156942, 0.720755,14.609407,69.819475,300.277771, 0.725379, 0.266193,1831802.125000,300.000000,69.549992,-0.000000,-0.000000,-0.000001,-0.000001, 0.000000, 0.000000, 0.000000,-0.000001, 1.013132,-0.002896, 0.001904, 0.018338,-0.060038,,,,,,250218,10:02:24.605,36144.605
Mult,USC,250218 10:02:24.620, 0.000000, 0.000000, 0.000000, 0.000000, 0.000276,-0.000002, 0.000000,11.202931,-5.004385, 6.276167, 0.062877,-12.695166,20.022364,11.202931,-5.004385, 6.276167, 0.062877,-12.695166,20.022364,11.202931,-5.004386, 6.276167, 0.062876,-12.695166,20.022364, 0.156931, 0.720381,14.610608,69.819475,300.453522, 0.725553, 0.266349,1831171.000000,300.000000,69.549992,-0.000001,-0.000001, 0.000000,-0.000001, 0.000000, 0.000001, 0.000000,-0.000001, 1.012943,-0.002856, 0.001724, 0.017191,-0.073953,,,,,,250218,10:02:24.620,36144.62
Mult,USC,250218 10:02:24.635, 0.000000, 0.000000, 0.000000, 0.000000, 0.000276,-0.000002, 0.000000,10.588013,-4.545247,-1.216583, 1.382786,-16.377368,20.244437,10.588013,-4.545247,-1.216583, 1.382786,-16.377368,20.244437,10.588013,-4.545247,-1.216583, 1.382786,-16.377368,20.244437, 0.156931, 0.720381,14.610608,69.819475,300.453522, 0.725553, 0.266349,1831171.000000,300.000000,69.549992,-0.000001,-0.000000,-0.000001, 0.000000, 0.000000,-0.000001, 0.000000, 0.000001, 1.011954,-0.003561, 0.001941, 0.018851,-0.069978,,,,,,250218,10:02:24.635,36144.635
Mult,USC,250218 10:02:24.650, 0.000000, 0.000000, 0.000000, 0.000000, 0.000276,-0.000002, 0.000000, 9.929590,-5.062069,-0.547497,-2.649493,-4.476488,21.415264, 9.929590,-5.062069,-0.547497,-2.649493,-4.476488,21.415264, 9.929590,-5.062069,-0.547497,-2.649494,-4.476488,21.415264, 0.156931, 0.720381,14.610608,69.819475,300.453522, 0.725553, 0.266349,1831171.000000,300.000000,69.549992, 0.000001, 0.000001, 0.000000,-0.000001, 0.000000, 0.000000,-0.000001,-0.000001, 1.011844,-0.003522, 0.001743, 0.020267,-0.065299,,,,,,250218,10:02:24.650,36144.65
Mult,USC,250218 10:02:24.665, 0.000000, 0.000000, 0.000000, 0.000000, 0.000276,-0.000002, 0.000000,11.627566,-4.208885, 7.867679,-1.394474,-18.015629,22.978679,11.627566,-4.208885, 7.867679,-1.394474,-18.015629,22.978679,11.627566,-4.208886, 7.867679,-1.394475,-18.015628,22.978679, 0.156931, 0.720381,14.610608,69.819475,300.453522, 0.725553, 0.266349,1831171.000000,300.000000,69.549992,-0.000001,-0.000000,-0.000001,-0.000001, 0.000000, 0.000000,-0.000001, 0.000000, 1.014047,-0.003113, 0.001724, 0.023230,-0.077020,,,,,,250218,10:02:24.665,36144.665
Mult,USC,250218 10:02:24.680, 0.000000, 0.000000, 0.000000, 0.000000, 0.000276,-0.000002, 0.000000, 9.635869,-4.652312, 1.233346, 3.058159,-7.203324,24.200052, 9.635869,-4.652312, 1.233346, 3.058159,-7.203324,24.200052, 9.635869,-4.652312, 1.233346, 3.058158,-7.203324,24.200052, 0.156931, 0.720381,14.610608,69.819475,300.453522, 0.725553, 0.266349,1831171.000000,300.000000,69.549992,-0.000001,-0.000001, 0.000000,-0.000001,-0.000001, 0.000000,-0.000001,-0.000001, 1.014307,-0.002917, 0.001712, 0.021655,-0.063635,,,,,,250218,10:02:24.680,36144.68
Mult,USC,250218 10:02:24.695, 0.000000, 0.000000, 0.000000, 0.000000, 0.000276,-0.000002, 0.000000, 8.166307,-6.383951,-4.160670,-1.344951,-22.599708,24.889525, 8.166307,-6.383951,-4.160670,-1.344951,-22.599708,24.889525, 8.166307,-6.383952,-4.160670,-1.344952,-22.599708,24.889525, 0.156931, 0.720381,14.610608,69.819475,300.453522, 0.725553, 0.266349,1831171.000000,300.000000,69.549992,-0.000001,-0.000000,-0.000001,-0.000001,-0.000001, 0.000000,-0.000001,-0.000001, 1.011560,-0.003009, 0.001846, 0.020926,-0.053492,,,,,,250218,10:02:24.695,36144.695
Mult,USC,250218 10:02:24.710, 0.000000, 0.000000, 0.000000, 0.000000, 0.000276,-0.000000, 0.000000, 2.013205,-1.298116, 1.968101, 0.392927,-3.225534, 4.900317, 2.013205,-1.298116, 1.968101, 0.392927,-3.225534, 4.900317, 2.013205,-1.298116, 1.968101, 0.392926,-3.225534, 4.900317, 0.156931, 0.720381,14.610608,69.819475,300.453522, 0.725553, 0.266349,1831171.000000,300.000000,69.549992,-0.000000,-0.000000, 0.000000, 0.000000, 0.000000,-0.000001, 0.000000,-0.000001, 1.002203,-0.000562, 0.000464, 0.003964,-0.013239,,,,,,250218,10:02:24.710,36144.71
Mult,USC,250218 10:02:24.725, 0.000000, 0.000000, 0.000000, 0.000000, 0.000276, 0.000002, 0.000000, 9.896087,-6.321096, 4.600423, 5.395267,-10.923386,23.959118, 9.896087,-6.321096, 4.600423, 5.395267,-10.923386,23.959118, 9.896088,-6.321096, 4.600423, 5.395267,-10.923385,23.959118, 0.156918, 0.720737,14.624119,69.819475,300.468323, 0.726382, 0.266362,1833172.625000,300.000000,69.549992,-0.000001,-0.000000, 0.000000,-0.000001,-0.000001,-0.000001,-0.000001,-0.000001, 1.011749,-0.003143, 0.001776, 0.019785,-0.065101,,,,,,250218,10:02:24.725,36144.725
Mult,USC,250218 10:02:24.740, 0.000000, 0.000000, 0.000000, 0.000000, 0.000276, 0.000002, 0.000000, 7.884409,-5.953940,-7.118595, 1.287021,-15.630121,23.122878, 7.884409,-5.953940,-7.118595, 1.287021,-15.630121,23.122878, 7.884409,-5.953940,-7.118595, 1.287022,-15.630121,23.122878, 0.156918, 0.720737,14.624119,69.819475,300.468323, 0.726382, 0.266362,1833172.625000,300.000000,69.549992,-0.000001,-0.000000,-0.000001,-0.000001, 0.000000, 0.000000, 0.000000, 0.000000, 1.013446,-0.003174, 0.002167, 0.018845,-0.051789,,,,,,250218,10:02:24.740,36144.74
Mult,USC,250218 10:02:24.755, 0.000000, 0.000000, 0.000000, 0.000000, 0.000276, 0.000002, 0.000000, 9.821042,-5.290984, 7.463320, 0.192981,-15.619043,21.781584, 9.821042,-5.290984, 7.463320, 0.192981,-15.619043,21.781584, 9.821042,-5.290983, 7.463320, 0.192981,-15.619043,21.781584, 0.156918, 0.720737,14.624119,69.819475,300.468323, 0.726382, 0.266362,1833172.625000,300.000000,69.549992,-0.000000,-0.000000,-0.000001,-0.000001, 0.000000, 0.000000, 0.000000, 0.000000, 1.011401,-0.003146, 0.002032, 0.018457,-0.064726,,,,,,250218,10:02:24.755,36144.755
Mult,USC,250218 10:02:24.770, 0.000000, 0.000000, 0.000000, 0.000000, 0.000276, 0.000002, 0.000000,10.902057,-4.365306,10.737254, 0.021097,-22.348973,20.544657,10.902057,-4.365306,10.737254, 0.021097,-22.348973,20.544657,10.902057,-4.365305,10.737254, 0.021098,-22.348973,20.544657, 0.156918, 0.720737,14.624119,69.819475,300.468323, 0.726382, 0.266362,1833172.625000,300.000000,69.549992,-0.000001,-0.000001,-0.000001, 0.000000, 0.000000, 0.000000, 0.000000, 0.000000, 1.012909,-0.003174, 0.001743, 0.017767,-0.072202,,,,,,250218,10:02:24.770,36144.77
Mult,USC,250218 10:02:24.785, 0.000000, 0.000000, 0.000000, 0.000000, 0.000276, 0.000002, 0.000000, 9.633757,-4.452059,-6.037434,-0.233879,-7.930885,19.785045, 9.633757,-4.452059,-6.037434,-0.233879,-7.930885,19.785045, 9.633757,-4.452059,-6.037434,-0.233879,-7.930885,19.785045, 0.156918, 0.720737,14.624119,69.819475,300.468323, 0.726382, 0.266362,1833172.625000,300.000000,69.549992,-0.000001,-0.000001, 0.000000,-0.000001,-0.000001,-0.000001, 0.000000,-0.000001, 1.012723,-0.002734, 0.002191, 0.018527,-0.063654,,,,,,250218,10:02:24.785,36144.785
Mult,USC,250218 10:02:24.800, 0.000000, 0.000000, 0.000000, 0.000000, 0.000276, 0.000002, 0.000000, 9.302904,-4.598108,-1.573843,-2.775512,-8.184050,19.182926, 9.302904,-4.598108,-1.573843,-2.775512,-8.184050,19.182926, 9.302904,-4.598108,-1.573843,-2.775511,-8.184051,19.182926, 0.156918, 0.720737,14.624119,69.819475,300.468323, 0.726382, 0.266362,1833172.625000,300.000000,69.549992,-0.000001,-0.000000, 0.000000, 0.000000, 0.000000, 0.000000, 0.000000,-0.000001, 1.014072,-0.003336, 0.001776, 0.018457,-0.061239,,,,,,250218,10:02:24.800,36144.8
Mult,USC,250218 10:02:24.815, 0.000000, 0.000000, 0.000000, 0.000000, 0.000276,-0.000002, 0.000002,11.543842,-4.218554,13.878233, 1.656206,-8.659024,18.763214,11.543842,-4.218554,13.878233, 1.656206,-8.659024,18.763214,11.543841,-4.218555,13.878233, 1.656205,-8.659024,18.763214, 0.156924, 0.721108,14.620213,69.819475,300.374817, 0.725650, 0.266279,1831894.750000,300.000000,69.549992,-0.000001,-0.000000, 0.000000, 0.000000, 0.000000, 0.000000,-0.000001,-0.000001, 1.009009,-0.003021, 0.001559, 0.021085,-0.076499,,,,,,250218,10:02:24.815,36144.815
Mult,USC,250218 10:02:24.830, 0.000000, 0.000000, 0.000000, 0.000000, 0.000276,-0.000002, 0.000002, 9.740930,-5.678300,-1.222377,-1.089677,-15.572379,19.636986, 9.740930,-5.678300,-1.222377,-1.089677,-15.572379,19.636986, 9.740930,-5.678300,-1.222377,-1.089678,-15.572379,19.636986, 0.156924, 0.721108,14.620213,69.819475,300.374817, 0.725650, 0.266279,1831894.750000,300.000000,69.549992,-0.000001,-0.000000, 0.000000, 0.000001,-0.000001,-0.000001,-0.000001,-0.000001, 1.011624,-0.002930, 0.001816, 0.020654,-0.063993,,,,,,250218,10:02:24.830,36144.83
Mult,USC,250218 10:02:24.845, 0.000000, 0.000000, 0.000000, 0.000000, 0.000276,-0.000002, 0.000002, 9.137752,-5.366707,-7.462620, 0.412089,-10.835699,20.750693, 9.137752,-5.366707,-7.462620, 0.412089,-10.835699,20.750693, 9.137752,-5.366707,-7.462619, 0.412088,-10.835699,20.750693, 0.156924, 0.721108,14.620213,69.819475,300.374817, 0.725650, 0.266279,1831894.750000,300.000000,69.549992,-0.000001,-0.000000, 0.000001,-0.000001,-0.000001, 0.000000,-0.000001, 0.000000, 1.011081,-0.003082, 0.001880, 0.022189,-0.060212,,,,,,250218,10:02:24.845,36144.845
Mult,USC,250218 10:02:24.860, 0.000000, 0.000000, 0.000000, 0.000000, 0.000276,-0.000002, 0.000002, 9.928667,-5.419770, 9.816774, 1.668445,-16.876453,21.306218, 9.928667,-5.419770, 9.816774, 1.668445,-16.876453,21.306218, 9.928666,-5.419771, 9.816774, 1.668444,-16.876453,21.306219, 0.156924, 0.721108,14.620213,69.819475,300.374817, 0.725650, 0.266279,1831894.750000,300.000000,69.549992,-0.000000, 0.000001,-0.000001, 0.000000, 0.000000,-0.000001, 0.000000,-0.000001, 1.012842,-0.003552, 0.001816, 0.020004,-0.065481,,,,,,250218,10:02:24.860,36144.86
Mult,USC,250218 10:02:24.875, 0.000000, 0.000000, 0.000000, 0.000000, 0.000276,-0.000002, 0.000002, 9.489489,-5.189790, 8.016398, 1.582523,-9.687305,22.084128, 9.489489,-5.189790, 8.016398, 1.582523,-9.687305,22.084128, 9.489488,-5.189790, 8.016398, 1.582522,-9.687305,22.084128, 0.156924, 0.721108,14.620213,69.819475,300.374817, 0.725650, 0.266279,1831894.750000,300.000000,69.549992, 0.000001,-0.000001,-0.000001, 0.000000, 0.000000, 0.000000,-0.000001,-0.000001, 1.012036,-0.003024, 0.001999, 0.019260,-0.062554,,,,,,250218,10:02:24.875,36144.875
Mult,USC,250218 10:02:24.890, 0.000000, 0.000000, 0.000000, 0.000000, 0.000276,-0.000002, 0.000002, 8.543913,-6.185721,-8.580726,-0.119730,-8.304086,23.114600, 8.543913,-6.185721,-8.580726,-0.119730,-8.304086,23.114600, 8.543913,-6.185721,-8.580725,-0.119731,-8.304086,23.114600, 0.156924, 0.721108,14.620213,69.819475,300.374817, 0.725650, 0.266279,1831894.750000,300.000000,69.549992,-0.000001,-0.000001,-0.000001, 0.000000,-0.000001,-0.000001,-0.000001,-0.000001, 1.013260,-0.002869, 0.001846, 0.018338,-0.056091,,,,,,250218,10:02:24.890,36144.89
Mult,USC,250218 10:02:24.905, 0.000000, 0.000000, 0.000000, 0.000000, 0.000276,-0.000002, 0.000002, 9.806969,-5.398783, 3.903644, 2.332310,-12.175244,23.423968, 9.806969,-5.398783, 3.903644, 2.332310,-12.175244,23.423968, 9.806969,-5.398783, 3.903644, 2.332309,-12.175244,23.423968, 0.156924, 0.721108,14.620213,69.819475,300.374817, 0.725650, 0.266279,1831894.750000,300.000000,69.549992,-0.000000,-0.000000, 0.000000, 0.000001, 0.000000,-0.000001,-0.000001, 0.000000, 1.012976,-0.002869, 0.001877, 0.018408,-0.064629,,,,,,250218,10:02:24.905,36144.905
Mult,USC,250218 10:02:24.920, 0.000000, 0.000000, 0.000000, 0.000000, 0.000276,-0.000006,-0.000002,10.407888,-3.304349,11.957117,-6.054530,-10.387733,17.169114,10.407888,-3.304349,11.957117,-6.054530,-10.387733,17.169114,10.407888,-3.304350,11.957117,-6.054530,-10.387732,17.169114, 0.156929, 0.721406,14.636449,69.819475,300.293274, 0.726061, 0.266207,1833431.250000,300.000000,69.549992,-0.000001,-0.000000,-0.000001,-0.000001, 0.000001, 0.000000,-0.000001, 0.000000, 1.011179,-0.003143, 0.001999, 0.019135,-0.068910,,,,,,250218,10:02:24.920,36144.92
Mult,USC,250218 10:02:24.935, 0.000000, 0.000000, 0.000000, 0.000000, 0.000276,-0.000006,-0.000002, 8.863993,-3.817164, 2.138971,-4.607244,-13.834864,19.456842, 8.863993,-3.817164, 2.138971,-4.607244,-13.834864,19.456842, 8.863993,-3.817165, 2.138971,-4.607244,-13.834864,19.456842, 0.156929, 0.721406,14.636449,69.819475,300.293274, 0.726061, 0.266207,1833431.250000,300.000000,69.549992,-0.000001,-0.000000,-0.000001,-0.000001,-0.000001,-0.000001, 0.000000,-0.000001, 1.012402,-0.003113, 0.001813, 0.019290,-0.058470,,,,,,250218,10:02:24.935,36144.935
Mult,USC,250218 10:02:24.950, 0.000000, 0.000000, 0.000000, 0.000000, 0.000276,-0.000006,-0.000002, 9.402349,-4.158627,-5.966175, 0.163919,-18.280853,22.145604, 9.402349,-4.158627,-5.966175, 0.163919,-18.280853,22.145604, 9.402348,-4.158628,-5.966175, 0.163918,-18.280853,22.145604, 0.156929, 0.721406,14.636449,69.819475,300.293274, 0.726061, 0.266207,1833431.250000,300.000000,69.549992,-0.000001,-0.000001,-0.000001,-0.000001,-0.000001, 0.000000, 0.000000,-0.000001, 1.013159,-0.003326, 0.001724, 0.020422,-0.062275,,,,,,250218,10:02:24.950,36144.95
Mult,USC,250218 10:02:24.965, 0.000000, 0.000000, 0.000000, 0.000000, 0.000276,-0.000006,-0.000002,10.955967,-5.869777, 7.214498, 0.881531,-15.143744,23.598607,10.955967,-5.869777, 7.214498, 0.881531,-15.143744,23.598607,10.955967,-5.869778, 7.214498, 0.881530,-15.143744,23.598607, 0.156929, 0.721406,14.636449,69.819475,300.293274, 0.726061, 0.266207,1833431.250000,300.000000,69.549992,-0.000001,-0.000001, 0.000000,-0.000001, 0.000000,-0.000001,-0.000001,-0.000001, 1.010870,-0.002979, 0.001968, 0.021411,-0.072198,,,,,,250218,10:02:24.965,36144.965
Mult,USC,250218 10:02:24.980, 0.000000, 0.000000, 0.000000, 0.000000, 0.000276,-0.000006,-0.000002,10.518694,-6.976779, 6.810405, 6.618475,-14.341987,23.723586,10.518694,-6.976779, 6.810405, 6.618475,-14.341987,23.723586,10.518694,-6.976780, 6.810405, 6.618474,-14.341987,23.723586, 0.156929, 0.721406,14.636449,69.819475,300.293274, 0.726061, 0.266207,1833431.250000,300.000000,69.549992,-0.000000,-0.000000,-0.000001, 0.000000, 0.000000, 0.000001, 0.000000,-0.000001, 1.011203,-0.003491, 0.002069, 0.021844,-0.069174,,,,,,250218,10:02:24.980,36144.98
Mult,USC,250218 10:02:24.995, 0.000000, 0.000000, 0.000000, 0.000000, 0.000276,-0.000006,-0.000002,11.336161,-7.920010,-1.169502, 2.486451,-5.712253,23.212168,11.336161,-7.920010,-1.169502, 2.486451,-5.712253,23.212168,11.336160,-7.920011,-1.169503, 2.486451,-5.712253,23.212168, 0.156929, 0.721406,14.636449,69.819475,300.293274, 0.726061, 0.266207,1833431.250000,300.000000,69.549992,-0.000001,-0.000001,-0.000001,-0.000001,-0.000001,-0.000001, 0.000000,-0.000001, 1.011020,-0.002960, 0.002621, 0.021237,-0.074193,,,,,,250218,10:02:24.995,36144.995
Mult,USC,250218 10:02:25.010, 0.000000, 0.000000, 0.000000, 0.000000, 0.000276,-0.000001,-0.000000, 2.634140,-1.304986,-0.444469, 0.809413,-4.215105, 4.402195, 2.634140,-1.304986,-0.444469, 0.809413,-4.215105, 4.402195, 2.634140,-1.304986,-0.444469, 0.809412,-4.215105, 4.402195, 0.156929, 0.721406,14.636449,69.819475,300.293274, 0.726061, 0.266207,1833431.250000,300.000000,69.549992,-0.000001,-0.000001, 0.000000, 0.000000, 0.000000,-0.000001, 0.000000,-0.000001, 1.002045,-0.000592, 0.000467, 0.003998,-0.017378,,,,,,250218,10:02:25.010,36145.01
Mult,USC,250218 10:02:25.025, 0.000000, 0.000000, 0.000000, 0.000000, 0.000276,-0.000006,-0.000002, 9.976976,-3.394902,10.302039,-6.312004,-16.288440,17.855516, 9.976976,-3.394902,10.302039,-6.312004,-16.288440,17.855516, 9.976976,-3.394903,10.302039,-6.312005,-16.288439,17.855517, 0.156941, 0.720981,14.609596,69.819475,300.467499, 0.725570, 0.266362,1831129.125000,300.000000,69.549992,-0.000001,-0.000001,-0.000001,-0.000001,-0.000001, 0.000000, 0.000000, 0.000000, 1.010516,-0.003299, 0.001746, 0.018460,-0.066032,,,,,,250218,10:02:25.025,36145.025
Mult,USC,250218 10:02:25.040, 0.000000, 0.000000, 0.000000, 0.000000, 0.000276,-0.000006,-0.000002, 8.689275,-3.776596,-1.628726,-3.839618,-11.159490,20.403513, 8.689275,-3.776596,-1.628726,-3.839618,-11.159490,20.403513, 8.689274,-3.776597,-1.628727,-3.839619,-11.159489,20.403513, 0.156941, 0.720981,14.609596,69.819475,300.467499, 0.725570, 0.266362,1831129.125000,300.000000,69.549992,-0.000000,-0.000001,-0.000001,-0.000001, 0.000000, 0.000000,-0.000001,-0.000001, 1.011060,-0.002896, 0.001974, 0.017545,-0.057345,,,,,,250218,10:02:25.040,36145.04
Mult,USC,250218 10:02:25.055, 0.000000, 0.000000, 0.000000, 0.000000, 0.000276,-0.000006,-0.000002,10.206394,-4.788351,-2.930996, 2.696495,-21.689739,22.759207,10.206394,-4.788351,-2.930996, 2.696495,-21.689739,22.759207,10.206394,-4.788352,-2.930996, 2.696493,-21.689739,22.759206, 0.156941, 0.720981,14.609596,69.819475,300.467499, 0.725570, 0.266362,1831129.125000,300.000000,69.549992,-0.000001,-0.000000,-0.000001, 0.000000,-0.000001,-0.000001,-0.000001,-0.000001, 1.010489,-0.003021, 0.001617, 0.019376,-0.067514,,,,,,250218,10:02:25.055,36145.055
Mult,USC,250218 10:02:25.070, 0.000000, 0.000000, 0.000000, 0.000000, 0.000276,-0.000006,-0.000002,10.816976,-6.840777,12.313457, 0.743948,-19.675855,23.740179,10.816976,-6.840777,12.313457, 0.743948,-19.675855,23.740179,10.816976,-6.840778,12.313457, 0.743947,-19.675855,23.740179, 0.156941, 0.720981,14.609596,69.819475,300.467499, 0.725570, 0.266362,1831129.125000,300.000000,69.549992,-0.000000,-0.000001,-0.000001,-0.000001,-0.000001,-0.000001, 0.000000,-0.000001, 1.011093,-0.003296, 0.001999, 0.018594,-0.071124,,,,,,250218,10:02:25.070,36145.07
Mult,USC,250218 10:02:25.085, 0.000000, 0.000000, 0.000000, 0.000000, 0.000276,-0.000006,-0.000002,10.265593,-7.523383, 4.147718, 3.736082,-22.367542,23.733069,10.265593,-7.523383, 4.147718, 3.736082,-22.367542,23.733069,10.265592,-7.523384, 4.147718, 3.736080,-22.367542,23.733069, 0.156941, 0.720981,14.609596,69.819475,300.467499, 0.725570, 0.266362,1831129.125000,300.000000,69.549992,-0.000001,-0.000001,-0.000001, 0.000000, 0.000000, 0.000000, 0.000000,-0.000001, 1.010196,-0.003174, 0.002200, 0.019476,-0.067294,,,,,,250218,10:02:25.085,36145.085
Mult,USC,250218 10:02:25.100, 0.000000, 0.000000, 0.000000, 0.000000, 0.000276,-0.000006,-0.000002,12.199735,-7.039413,-3.483334, 6.532690,-4.470159,22.729392,12.199735,-7.039413,-3.483334, 6.532690,-4.470159,22.729392,12.199734,-7.039414,-3.483335, 6.532690,-4.470160,22.729392, 0.156941, 0.720981,14.609596,69.819475,300.467499, 0.725570, 0.266362,1831129.125000,300.000000,69.549992,-0.000001,-0.000000, 0.000000, 0.000001, 0.000000,-0.000001,-0.000001,-0.000001, 1.013330,-0.003357, 0.002045, 0.020264,-0.080309,,,,,,250218,10:02:25.100,36145.1
