Type,Units,Time,X Position,Y Position,Y Encoder,Z Position,Z Encoder,Yaw,Pitch,WAFBC Drag,WAFBC Side,WAFBC Lift,WAFBC Roll,WAFBC Pitch,WAFBC Yaw,WAFMC Drag,WAFMC Side,WAFMC Lift,WAFMC Roll,WAFMC Pitch,WAFMC Yaw,BAFMC Axial,BAFMC Side,BAFMC Normal,BAFMC Roll,BAFMC Pitch,BAFMC Yaw,DPT250,DPT251,PT250,TE250,Velocity,Dynamic Pressure,Mach,Reynolds Number per ft,Velocity Setpoint,Temperature Setpoint,cDAQ AI0,cDAQ AI1,cDAQ AI2,cDAQ AI3,cDAQ AI4,cDAQ AI5,cDAQ AI6,cDAQ AI7,cRIO AI0,cRIO AI1,cRIO AI2,cRIO AI3,Drag (raw),Side (raw),Lift (raw),Roll (raw),Pitch (raw),Yaw (raw),Date,ClockTime,Seconds
Type,USC / SI,Time,Inches / Millimeters,Inches / Millimeters,Inches / Millimeters,Inches / Millimeters,Inches / Millimeters,Degrees / Degrees,Degrees / Degrees,lb / N,lb / N,lb / N,ft-lb / N-m,ft-lb / N-m,ft-lb / N-m,lb / N,lb / N,lb / N,ft-lb / N-m,ft-lb / N-m,ft-lb / N-m,lb / N,lb / N,lb / N,ft-lb / N-m,ft-lb / N-m,ft-lb / N-m,PSId / Pascals,PSId / Pascals,PSIa / Pascals,F / F,Ft/s / m/s,PSId / Pascals, / ,1/ft / 1/ft,ft/s / m/s,F / F, / , / , / , / , / , / , / , / , / , / , / , / , / , / , / , / , / , / ,Time,,
Mult,USC,250218 10:05:37.525, 0.000000, 0.000000, 0.000000, 0.000000, 0.000276,-0.000002,-0.000002, 9.858557,-4.384649,14.111818, 1.249323,-13.181120,19.321890, 9.858557,-4.384649,14.111818, 1.249323,-13.181120,19.321890, 9.858557,-4.384649,14.111818, 1.249324,-13.181120,19.321890, 0.156944, 0.719046,14.608898,70.269560,300.142212, 0.723827, 0.265960,1827510.000000,300.000000,69.549992,-0.000001,-0.000000,-0.000001,-0.000001,-0.000001, 0.000000, 0.000000,-0.000001, 1.016580,-0.003049, 0.002072, 0.016724,-0.065244,,,,,,250218,10:05:37.525,36337.525
Mult,USC,250218 10:05:37.540, 0.000000, 0.000000, 0.000000, 0.000000, 0.000276,-0.000002,-0.000002, 9.178912,-4.731560, 2.254999,-0.684031,-19.817772,19.285345, 9.178912,-4.731560, 2.254999,-0.684031,-19.817772,19.285345, 9.178912,-4.731560, 2.254999,-0.684031,-19.817772,19.285345, 0.156944, 0.719046,14.608898,70.269560,300.142212, 0.723827, 0.265960,1827510.000000,300.000000,69.549992,-0.000000, 0.000001,-0.000001,-0.000001,-0.000001, 0.000000,-0.000001, 0.000000, 1.019180,-0.003082, 0.001624, 0.017413,-0.060484,,,,,,250218,10:05:37.540,36337.54
Mult,USC,250218 10:05:37.555, 0.000000, 0.000000, 0.000000, 0.000000, 0.000276,-0.000002,-0.000002, 8.242942,-5.522836,-10.722544,-0.854854,-7.832556,20.173898, 8.242942,-5.522836,-10.722544,-0.854854,-7.832556,20.173898, 8.242941,-5.522837,-10.722545,-0.854854,-7.832556,20.173898, 0.156944, 0.719046,14.608898,70.269560,300.142212, 0.723827, 0.265960,1827510.000000,300.000000,69.549992,-0.000001,-0.000001,-0.000001,-0.000001,-0.000001,-0.000001, 0.000000,-0.000001, 1.020105,-0.002991, 0.001935, 0.019196,-0.054229,,,,,,250218,10:05:37.555,36337.555
Mult,USC,250218 10:05:37.570, 0.000000, 0.000000, 0.000000, 0.000000, 0.000276,-0.000002,-0.000002,10.291648,-4.449113, 7.820913,-1.031664,-21.828655,21.122161,10.291648,-4.449113, 7.820913,-1.031664,-21.828655,21.122161,10.291649,-4.449114, 7.820913,-1.031664,-21.828655,21.122161, 0.156944, 0.719046,14.608898,70.269560,300.142212, 0.723827, 0.265960,1827510.000000,300.000000,69.549992,-0.000001,-0.000001, 0.000000,-0.000001, 0.000000,-0.000001,-0.000001, 0.000000, 1.019312,-0.003207, 0.002094, 0.021713,-0.068059,,,,,,250218,10:05:37.570,36337.57
Mult,USC,250218 10:05:37.585, 0.000000, 0.000000, 0.000000, 0.000000, 0.000276,-0.000002,-0.000002,11.129152,-4.779735,12.586306, 2.027495,-12.989326,22.291067,11.129152,-4.779735,12.586306, 2.027495,-12.989326,22.291067,11.129152,-4.779735,12.586306, 2.027496,-12.989326,22.291067, 0.156944, 0.719046,14.608898,70.269560,300.142212, 0.723827, 0.265960,1827510.000000,300.000000,69.549992,-0.000000,-0.000000, 0.000000, 0.000000, 0.000000, 0.000000,-0.000001, 0.000000, 1.019574,-0.002826, 0.001724, 0.020203,-0.073668,,,,,,250218,10:05:37.585,36337.585
Mult,USC,250218 10:05:37.600, 0.000000, 0.000000, 0.000000, 0.000000, 0.000276,-0.000002,-0.000002, 8.959404,-6.081479,-8.747151,-1.381564,-5.158252,23.515960, 8.959404,-6.081479,-8.747151,-1.381564,-5.158252,23.515960, 8.959404,-6.081480,-8.747151,-1.381563,-5.158252,23.515960, 0.156944, 0.719046,14.608898,70.269560,300.142212, 0.723827, 0.265960,1827510.000000,300.000000,69.549992,-0.000000,-0.000001,-0.000001,-0.000001,-0.000001,-0.000001, 0.000000,-0.000001, 1.019220,-0.003461, 0.001935, 0.021631,-0.058847,,,,,,250218,10:05:37.600,36337.6
Mult,USC,250218 10:05:37.615, 0.000000, 0.000000, 0.000000, 0.000000, 0.000276, 0.000002, 0.000000, 9.425535,-6.375287,-2.647966, 3.846396,-14.929711,23.624731, 9.425535,-6.375287,-2.647966, 3.846396,-14.929711,23.624731, 9.425535,-6.375287,-2.647966, 3.846397,-14.929710,23.624731, 0.156939, 0.719296,14.619210,70.269560,300.271332, 0.724484, 0.266075,1828381.750000,300.000000,69.549992,-0.000000,-0.000000, 0.000000,-0.000001,-0.000001, 0.000000,-0.000001,-0.000001, 1.018362,-0.003113, 0.002011, 0.020737,-0.061937,,,,,,250218,10:05:37.615,36337.615
Mult,USC,250218 10:05:37.630, 0.000000, 0.000000, 0.000000, 0.000000, 0.000276, 0.000002, 0.000000,11.349392,-5.442316,17.141173, 3.152652,-8.943264,23.097290,11.349392,-5.442316,17.141173, 3.152652,-8.943264,23.097290,11.349392,-5.442315,17.141173, 3.152652,-8.943264,23.097290, 0.156939, 0.719296,14.619210,70.269560,300.271332, 0.724484, 0.266075,1828381.750000,300.000000,69.549992,-0.000001,-0.000001,-0.000001, 0.000000, 0.000000, 0.000000,-0.000001, 0.000000, 1.019543,-0.003040, 0.002005, 0.020367,-0.075052,,,,,,250218,10:05:37.630,36337.63
Mult,USC,250218 10:05:37.645, 0.000000, 0.000000, 0.000000, 0.000000, 0.000276, 0.000002, 0.000000,10.417174,-6.042981,-2.995234,-0.283832,-18.503897,23.143543,10.417174,-6.042981,-2.995234,-0.283832,-18.503897,23.143543,10.417174,-6.042980,-2.995234,-0.283832,-18.503897,23.143543, 0.156939, 0.719296,14.619210,70.269560,300.271332, 0.724484, 0.266075,1828381.750000,300.000000,69.549992,-0.000001,-0.000001, 0.000000,-0.000001,-0.000001,-0.000001, 0.000000,-0.000001, 1.018268,-0.002899, 0.001743, 0.019409,-0.068537,,,,,,250218,10:05:37.645,36337.645
Mult,USC,250218 10:05:37.660, 0.000000, 0.000000, 0.000000, 0.000000, 0.000276, 0.000002, 0.000000, 9.753386,-5.266478,-8.335895,-0.891164,-13.186846,23.080919, 9.753386,-5.266478,-8.335895,-0.891164,-13.186846,23.080919, 9.753387,-5.266478,-8.335895,-0.891164,-13.186846,23.080919, 0.156939, 0.719296,14.619210,70.269560,300.271332, 0.724484, 0.266075,1828381.750000,300.000000,69.549992,-0.000001,-0.000001,-0.000001, 0.000000,-0.000001,-0.000001,-0.000001,-0.000001, 1.019376,-0.003296, 0.001782, 0.016724,-0.064372,,,,,,250218,10:05:37.660,36337.66
Mult,USC,250218 10:05:37.675, 0.000000, 0.000000, 0.000000, 0.000000, 0.000276, 0.000002, 0.000000, 9.179366,-4.628797,10.980158, 0.943760,-12.289451,22.667289, 9.179366,-4.628797,10.980158, 0.943760,-12.289451,22.667289, 9.179366,-4.628797,10.980158, 0.943760,-12.289451,22.667289, 0.156939, 0.719296,14.619210,70.269560,300.271332, 0.724484, 0.266075,1828381.750000,300.000000,69.549992,-0.000000,-0.000001, 0.000000, 0.000000, 0.000000,-0.000001,-0.000001, 0.000000, 1.017941,-0.003143, 0.002261, 0.018210,-0.060653,,,,,,250218,10:05:37.675,36337.675
Mult,USC,250218 10:05:37.690, 0.000000, 0.000000, 0.000000, 0.000000, 0.000276, 0.000002, 0.000000, 8.940522,-5.147442, 7.049300, 2.486785,-15.026677,22.315839, 8.940522,-5.147442, 7.049300, 2.486785,-15.026677,22.315839, 8.940522,-5.147441, 7.049300, 2.486785,-15.026677,22.315839, 0.156939, 0.719296,14.619210,70.269560,300.271332, 0.724484, 0.266075,1828381.750000,300.000000,69.549992,-0.000001,-0.000001,-0.000001, 0.000000, 0.000000,-0.000001,-0.000001, 0.000000, 1.020712,-0.003235, 0.001846, 0.016446,-0.058949,,,,,,250218,10:05:37.690,36337.69
Mult,USC,250218 10:05:37.705, 0.000000, 0.000000, 0.000000, 0.000000, 0.000276, 0.000002, 0.000000,10.324086,-5.471826,-6.843012,-1.659972,-18.198088,21.856391,10.324086,-5.471826,-6.843012,-1.659972,-18.198088,21.856391,10.324086,-5.471826,-6.843012,-1.659971,-18.198088,21.856391, 0.156939, 0.719296,14.619210,70.269560,300.271332, 0.724484, 0.266075,1828381.750000,300.000000,69.549992,-0.000001,-0.000001,-0.000001,-0.000001, 0.000000,-0.000001,-0.000001, 0.000000, 1.020425,-0.003619, 0.001678, 0.018439,-0.068088,,,,,,250218,10:05:37.705,36337.705
Mult,USC,250218 10:05:37.720, 0.000000, 0.000000, 0.000000, 0.000000, 0.000276,-0.000002, 0.000000,11.718113,-4.014923, 4.953458, 3.577791,-10.071262,20.361132,11.718113,-4.014923, 4.953458, 3.577791,-10.071262,20.361132,11.718113,-4.014923, 4.953458, 3.577791,-10.071262,20.361132, 0.156938, 0.719347,14.609925,70.269560,300.271149, 0.724023, 0.266075,1827219.375000,300.000000,69.549992,-0.000000,-0.000001,-0.000001,-0.000001,-0.000001,-0.000001, 0.000000, 0.000000, 1.020139,-0.003140, 0.001678, 0.020813,-0.077691,,,,,,250218,10:05:37.720,36337.72
Mult,USC,250218 10:05:37.735, 0.000000, 0.000000, 0.000000, 0.000000, 0.000276,-0.000002, 0.000000, 9.420611,-4.309692, 7.319772, 1.244214,-16.334868,19.035988, 9.420611,-4.309692, 7.319772, 1.244214,-16.334868,19.035988, 9.420611,-4.309692, 7.319772, 1.244213,-16.334868,19.035988, 0.156938, 0.719347,14.609925,70.269560,300.271149, 0.724023, 0.266075,1827219.375000,300.000000,69.549992,-0.000000,-0.000001,-0.000001, 0.000000,-0.000001,-0.000001, 0.000000, 0.000000, 1.020010,-0.003369, 0.002039, 0.020139,-0.062279,,,,,,250218,10:05:37.735,36337.735
Mult,USC,250218 10:05:37.750, 0.000000, 0.000000, 0.000000, 0.000000, 0.000276,-0.000002, 0.000000, 8.713588,-5.268906, 1.142749,-3.974426, 1.553719,18.896238, 8.713588,-5.268906, 1.142749,-3.974426, 1.553719,18.896238, 8.713587,-5.268906, 1.142749,-3.974426, 1.553719,18.896238, 0.156938, 0.719347,14.609925,70.269560,300.271149, 0.724023, 0.266075,1827219.375000,300.000000,69.549992,-0.000000,-0.000000, 0.000000,-0.000001,-0.000001,-0.000001, 0.000000, 0.000000, 1.020328,-0.002991, 0.001712, 0.019919,-0.057034,,,,,,250218,10:05:37.750,36337.75
Mult,USC,250218 10:05:37.765, 0.000000, 0.000000, 0.000000, 0.000000, 0.000276,-0.000002, 0.000000,11.711819,-4.115951, 1.548692, 0.549159,-9.123210,19.293728,11.711819,-4.115951, 1.548692, 0.549159,-9.123210,19.293728,11.711818,-4.115951, 1.548692, 0.549158,-9.123210,19.293728, 0.156938, 0.719347,14.609925,70.269560,300.271149, 0.724023, 0.266075,1827219.375000,300.000000,69.549992,-0.000000,-0.000001, 0.000000, 0.000000, 0.000000, 0.000000,-0.000001,-0.000001, 1.021481,-0.002991, 0.001617, 0.020010,-0.077486,,,,,,250218,10:05:37.765,36337.765
Mult,USC,250218 10:05:37.780, 0.000000, 0.000000, 0.000000, 0.000000, 0.000276,-0.000002, 0.000000,11.800904,-4.574499, 5.095537, 0.777701,-10.320632,20.452303,11.800904,-4.574499, 5.095537, 0.777701,-10.320632,20.452303,11.800904,-4.574500, 5.095537, 0.777700,-10.320632,20.452303, 0.156938, 0.719347,14.609925,70.269560,300.271149, 0.724023, 0.266075,1827219.375000,300.000000,69.549992,-0.000000,-0.000001,-0.000001, 0.000000, 0.000000,-0.000001,-0.000001,-0.000001, 1.018997,-0.002914, 0.002032, 0.018787,-0.078041,,,,,,250218,10:05:37.780,36337.78
Mult,USC,250218 10:05:37.795, 0.000000, 0.000000, 0.000000, 0.000000, 0.000276,-0.000002, 0.000000, 9.159261,-5.961687,-1.766075,-0.501517,-7.793143,21.921979, 9.159261,-5.961687,-1.766075,-0.501517,-7.793143,21.921979, 9.159261,-5.961687,-1.766075,-0.501517,-7.793143,21.921979, 0.156938, 0.719347,14.609925,70.269560,300.271149, 0.724023, 0.266075,1827219.375000,300.000000,69.549992,-0.000000,-0.000001,-0.000001,-0.000001, 0.000000,-0.000001, 0.000000,-0.000001, 1.020718,-0.003009, 0.001877, 0.019406,-0.060058,,,,,,250218,10:05:37.795,36337.795
Mult,USC,250218 10:05:37.810, 0.000000, 0.000000, 0.000000, 0.000000, 0.000276,-0.000000, 0.000000, 1.770212,-1.288022, 0.528193, 0.120851,-3.027579, 4.513339, 1.770212,-1.288022, 0.528193, 0.120851,-3.027579, 4.513339, 1.770212,-1.288022, 0.528193, 0.120851,-3.027579, 4.513339, 0.156938, 0.719347,14.609925,70.269560,300.271149, 0.724023, 0.266075,1827219.375000,300.000000,69.549992,-0.000001,-0.000000, 0.000000, 0.000000,-0.000001, 0.000000,-0.000001, 0.000000, 1.004245,-0.000623, 0.000339, 0.003647,-0.011591,,,,,,250218,10:05:37.810,36337.81
Mult,USC,250218 10:05:37.825, 0.000000, 0.000000, 0.000000, 0.000000, 0.000276, 0.000000,-0.000002,11.132719,-5.549526, 5.100410, 6.235925,-21.984610,22.451834,11.132719,-5.549526, 5.100410, 6.235925,-21.984610,22.451834,11.132720,-5.549526, 5.100410, 6.235926,-21.984610,22.451834, 0.156948, 0.719061,14.609249,70.269560,300.218353, 0.723735, 0.266028,1826813.625000,300.000000,69.549992,-0.000001,-0.000000, 0.000000,-0.000001,-0.000001, 0.000000,-0.000001, 0.000000, 1.018710,-0.003113, 0.001624, 0.017487,-0.073596,,,,,,250218,10:05:37.825,36337.825
Mult,USC,250218 10:05:37.840, 0.000000, 0.000000, 0.000000, 0.000000, 0.000276, 0.000000,-0.000002, 7.829245,-6.940885,-2.498584,-0.267194,-11.208924,22.006571, 7.829245,-6.940885,-2.498584,-0.267194,-11.208924,22.006571, 7.829245,-6.940885,-2.498584,-0.267193,-11.208924,22.006571, 0.156948, 0.719061,14.609249,70.269560,300.218353, 0.723735, 0.266028,1826813.625000,300.000000,69.549992,-0.000001,-0.000001, 0.000000,-0.000001,-0.000001, 0.000000, 0.000000,-0.000001, 1.019260,-0.003174, 0.001752, 0.018146,-0.051002,,,,,,250218,10:05:37.840,36337.84
Mult,USC,250218 10:05:37.855, 0.000000, 0.000000, 0.000000, 0.000000, 0.000276, 0.000000,-0.000002, 8.209426,-6.044098, 2.313584, 1.829431,-22.490790,21.065459, 8.209426,-6.044098, 2.313584, 1.829431,-22.490790,21.065459, 8.209426,-6.044098, 2.313584, 1.829431,-22.490790,21.065459, 0.156948, 0.719061,14.609249,70.269560,300.218353, 0.723735, 0.266028,1826813.625000,300.000000,69.549992,-0.000000,-0.000001,-0.000001, 0.000000,-0.000001,-0.000001, 0.000000, 0.000000, 1.022525,-0.003235, 0.001981, 0.018878,-0.053818,,,,,,250218,10:05:37.855,36337.855
Mult,USC,250218 10:05:37.870, 0.000000, 0.000000, 0.000000, 0.000000, 0.000276, 0.000000,-0.000002, 9.957838,-4.731063,11.452562, 2.090196,-10.492202,19.972595, 9.957838,-4.731063,11.452562, 2.090196,-10.492202,19.972595, 9.957839,-4.731063,11.452561, 2.090196,-10.492202,19.972595, 0.156948, 0.719061,14.609249,70.269560,300.218353, 0.723735, 0.266028,1826813.625000,300.000000,69.549992,-0.000001,-0.000001,-0.000001, 0.000000,-0.000001,-0.000001,-0.000001,-0.000001, 1.020297,-0.003143, 0.001935, 0.019916,-0.065813,,,,,,250218,10:05:37.870,36337.87
Mult,USC,250218 10:05:37.885, 0.000000, 0.000000, 0.000000, 0.000000, 0.000276, 0.000000,-0.000002, 9.755261,-4.456795,-4.371570,-0.517333,-16.356375,19.721353, 9.755261,-4.456795,-4.371570,-0.517333,-16.356375,19.721353, 9.755261,-4.456795,-4.371571,-0.517332,-16.356375,19.721353, 0.156948, 0.719061,14.609249,70.269560,300.218353, 0.723735, 0.266028,1826813.625000,300.000000,69.549992,-0.000000,-0.000001, 0.000000, 0.000000, 0.000000, 0.000000,-0.000001,-0.000001, 1.019696,-0.003235, 0.001846, 0.022672,-0.064462,,,,,,250218,10:05:37.885,36337.885
Mult,USC,250218 10:05:37.900, 0.000000, 0.000000, 0.000000, 0.000000, 0.000276, 0.000000,-0.000002, 9.813684,-4.465518,-2.238671,-2.302880,-9.770572,19.368448, 9.813684,-4.465518,-2.238671,-2.302880,-9.770572,19.368448, 9.813684,-4.465518,-2.238671,-2.302879,-9.770572,19.368448, 0.156948, 0.719061,14.609249,70.269560,300.218353, 0.723735, 0.266028,1826813.625000,300.000000,69.549992,-0.000000,-0.000001,-0.000001, 0.000000, 0.000001, 0.000001,-0.000001, 0.000000, 1.020404,-0.003387, 0.001678, 0.021021,-0.064715,,,,,,250218,10:05:37.900,36337.9
Mult,USC,250218 10:05:37.915, 0.000000, 0.000000, 0.000000, 0.000000, 0.000276,-0.000002,-0.000002,11.423974,-3.744411,10.115680,-0.483704,-23.456216,19.055123,11.423974,-3.744411,10.115680,-0.483704,-23.456216,19.055123,11.423975,-3.744411,10.115680,-0.483705,-23.456216,19.055123, 0.156922, 0.719226,14.611616,70.269560,300.264709, 0.724076, 0.266069,1827391.750000,300.000000,69.549992,-0.000001,-0.000000, 0.000000,-0.000001, 0.000000, 0.000000, 0.000000,-0.000001, 1.018063,-0.003308, 0.001746, 0.021774,-0.075795,,,,,,250218,10:05:37.915,36337.915
Mult,USC,250218 10:05:37.930, 0.000000, 0.000000, 0.000000, 0.000000, 0.000276,-0.000002,-0.000002,11.103225,-4.080776,-1.191036,-1.627078,-15.033163,20.112527,11.103225,-4.080776,-1.191036,-1.627078,-15.033163,20.112527,11.103224,-4.080777,-1.191037,-1.627078,-15.033163,20.112527, 0.156922, 0.719226,14.611616,70.269560,300.264709, 0.724076, 0.266069,1827391.750000,300.000000,69.549992,-0.000001,-0.000000, 0.000000, 0.000000, 0.000001,-0.000001, 0.000000, 0.000000, 1.020648,-0.002899, 0.001947, 0.020999,-0.073435,,,,,,250218,10:05:37.930,36337.93
Mult,USC,250218 10:05:37.945, 0.000000, 0.000000, 0.000000, 0.000000, 0.000276,-0.000002,-0.000002, 9.282086,-4.995517,-9.813514,-2.175252,-6.774237,22.103285, 9.282086,-4.995517,-9.813514,-2.175252,-6.774237,22.103285, 9.282086,-4.995518,-9.813515,-2.175251,-6.774237,22.103285, 0.156922, 0.719226,14.611616,70.269560,300.264709, 0.724076, 0.266069,1827391.750000,300.000000,69.549992,-0.000000,-0.000001,-0.000001, 0.000000,-0.000001,-0.000001,-0.000001, 0.000001, 1.022015,-0.003452, 0.001810, 0.020615,-0.061248,,,,,,250218,10:05:37.945,36337.945
Mult,USC,250218 10:05:37.960, 0.000000, 0.000000, 0.000000, 0.000000, 0.000276,-0.000002,-0.000002,10.375590,-4.951324, 7.307732,-0.410990,-13.793229,24.076284,10.375590,-4.951324, 7.307732,-0.410990,-13.793229,24.076284,10.375590,-4.951324, 7.307732,-0.410990,-13.793229,24.076284, 0.156922, 0.719226,14.611616,70.269560,300.264709, 0.724076, 0.266069,1827391.750000,300.000000,69.549992,-0.000000,-0.000000, 0.000001, 0.000000, 0.000000,-0.000001,-0.000001, 0.000000, 1.018997,-0.003400, 0.001846, 0.018536,-0.068506,,,,,,250218,10:05:37.960,36337.96
Mult,USC,250218 10:05:37.975, 0.000000, 0.000000, 0.000000, 0.000000, 0.000276,-0.000002,-0.000002, 9.343193,-5.991319, 6.628075, 2.959507,-21.763958,26.102830, 9.343193,-5.991319, 6.628075, 2.959507,-21.763958,26.102830, 9.343193,-5.991319, 6.628075, 2.959508,-21.763958,26.102829, 0.156922, 0.719226,14.611616,70.269560,300.264709, 0.724076, 0.266069,1827391.750000,300.000000,69.549992,-0.000000,-0.000000,-0.000001,-0.000001, 0.000000, 0.000000,-0.000001,-0.000001, 1.019000,-0.002835, 0.001630, 0.017487,-0.061532,,,,,,250218,10:05:37.975,36337.975
Mult,USC,250218 10:05:37.990, 0.000000, 0.000000, 0.000000, 0.000000, 0.000276,-0.000002,-0.000002, 9.699389,-6.957202,-4.476550, 1.092430,-9.710666,27.303930, 9.699389,-6.957202,-4.476550, 1.092430,-9.710666,27.303930, 9.699388,-6.957203,-4.476550, 1.092431,-9.710666,27.303930, 0.156922, 0.719226,14.611616,70.269560,300.264709, 0.724076, 0.266069,1827391.750000,300.000000,69.549992,-0.000001,-0.000001,-0.000001,-0.000001,-0.000001,-0.000001,-0.000001,-0.000001, 1.020544,-0.003329, 0.001678, 0.018530,-0.063615,,,,,,250218,10:05:37.990,36337.99
Mult,USC,250218 10:05:38.005, 0.000000, 0.000000, 0.000000, 0.000000, 0.000276,-0.000002,-0.000002, 9.160164,-6.978565,-0.083546, 4.000927,-22.846906,26.897451, 9.160164,-6.978565,-0.083546, 4.000927,-22.846906,26.897451, 9.160164,-6.978565,-0.083546, 4.000927,-22.846906,26.897450, 0.156922, 0.719226,14.611616,70.269560,300.264709, 0.724076, 0.266069,1827391.750000,300.000000,69.549992,-0.000001,-0.000001, 0.000000, 0.000000, 0.000000,-0.000001,-0.000001, 0.000001, 1.017938,-0.003049, 0.001950, 0.018243,-0.060058,,,,,,250218,10:05:38.005,36338.005
Mult,USC,250218 10:05:38.020, 0.000000, 0.000000, 0.000000, 0.000000, 0.000276, 0.000004, 0.000000,10.368185,-6.034606,12.953234, 5.371800,-9.408523,24.532298,10.368185,-6.034606,12.953234, 5.371800,-9.408523,24.532298,10.368185,-6.034605,12.953234, 5.371800,-9.408523,24.532298, 0.156932, 0.719691,14.624852,70.269560,300.211823, 0.724477, 0.266022,1828725.000000,300.000000,69.549992,-0.000001,-0.000000,-0.000001,-0.000001,-0.000001,-0.000001, 0.000000,-0.000001, 1.019278,-0.002948, 0.001813, 0.019577,-0.068406,,,,,,250218,10:05:38.020,36338.02
Mult,USC,250218 10:05:38.035, 0.000000, 0.000000, 0.000000, 0.000000, 0.000276, 0.000004, 0.000000, 8.319578,-6.886351,-2.109283,-0.665562,-19.305137,22.677344, 8.319578,-6.886351,-2.109283,-0.665562,-19.305137,22.677344, 8.319579,-6.886350,-2.109283,-0.665560,-19.305137,22.677344, 0.156932, 0.719691,14.624852,70.269560,300.211823, 0.724477, 0.266022,1828725.000000,300.000000,69.549992,-0.000000,-0.000001,-0.000001, 0.000000,-0.000001,-0.000001,-0.000001,-0.000001, 1.022229,-0.003403, 0.002039, 0.021286,-0.054319,,,,,,250218,10:05:38.035,36338.035
Mult,USC,250218 10:05:38.050, 0.000000, 0.000000, 0.000000, 0.000000, 0.000276, 0.000004, 0.000000,10.679555,-4.551710,-2.076361, 1.972155,-12.583455,20.827200,10.679555,-4.551710,-2.076361, 1.972155,-12.583455,20.827200,10.679556,-4.551709,-2.076361, 1.972156,-12.583455,20.827200, 0.156932, 0.719691,14.624852,70.269560,300.211823, 0.724477, 0.266022,1828725.000000,300.000000,69.549992,-0.000001,-0.000000,-0.000001,-0.000001,-0.000001,-0.000001,-0.000001,-0.000001, 1.021628,-0.003113, 0.002002, 0.021457,-0.070610,,,,,,250218,10:05:38.050,36338.05
Mult,USC,250218 10:05:38.065, 0.000000, 0.000000, 0.000000, 0.000000, 0.000276, 0.000004, 0.000000,10.359511,-4.306572, 5.667113,-1.942457,-26.245532,19.891548,10.359511,-4.306572, 5.667113,-1.942457,-26.245532,19.891548,10.359512,-4.306572, 5.667113,-1.942455,-26.245532,19.891548, 0.156932, 0.719691,14.624852,70.269560,300.211823, 0.724477, 0.266022,1828725.000000,300.000000,69.549992,-0.000001,-0.000001, 0.000000, 0.000000,-0.000001, 0.000000, 0.000000,-0.000001, 1.021704,-0.003369, 0.001559, 0.021368,-0.068507,,,,,,250218,10:05:38.065,36338.065
Mult,USC,250218 10:05:38.080, 0.000000, 0.000000, 0.000000, 0.000000, 0.000276, 0.000004, 0.000000,10.432760,-3.271864, 2.574730,-2.815307,-14.082465,19.810959,10.432760,-3.271864, 2.574730,-2.815307,-14.082465,19.810959,10.432760,-3.271864, 2.574730,-2.815306,-14.082465,19.810959, 0.156932, 0.719691,14.624852,70.269560,300.211823, 0.724477, 0.266022,1828725.000000,300.000000,69.549992,-0.000000,-0.000000,-0.000001,-0.000001,-0.000001,-0.000001,-0.000001,-0.000001, 1.018900,-0.002979, 0.001660, 0.020038,-0.069113,,,,,,250218,10:05:38.080,36338.08
Mult,USC,250218 10:05:38.095, 0.000000, 0.000000, 0.000000, 0.000000, 0.000276, 0.000004, 0.000000, 8.248008,-4.505733,-3.786980,-0.909668,-13.625669,19.848995, 8.248008,-4.505733,-3.786980,-0.909668,-13.625669,19.848995, 8.248008,-4.505733,-3.786980,-0.909667,-13.625669,19.848995, 0.156932, 0.719691,14.624852,70.269560,300.211823, 0.724477, 0.266022,1828725.000000,300.000000,69.549992,-0.000001,-0.000001,-0.000001,-0.000001,-0.000001, 0.000001,-0.000001,-0.000001, 1.015942,-0.003021, 0.001712, 0.019763,-0.054361,,,,,,250218,10:05:38.095,36338.095
Mult,USC,250218 10:05:38.110, 0.000000, 0.000000, 0.000000, 0.000000, 0.000276, 0.000001, 0.000000, 2.158342,-0.780073, 1.279298,-0.072487,-2.029430, 3.945831, 2.158342,-0.780073, 1.279298,-0.072487,-2.029430, 3.945831, 2.158342,-0.780073, 1.279298,-0.072486,-2.029430, 3.945831, 0.156932, 0.719691,14.624852,70.269560,300.211823, 0.724477, 0.266022,1828725.000000,300.000000,69.549992,-0.000001,-0.000001,-0.000001,-0.000001,-0.000001,-0.000001, 0.000000, 0.000000, 1.003543,-0.000653, 0.000369, 0.003900,-0.014288,,,,,,250218,10:05:38.110,36338.11
Mult,USC,250218 10:05:38.125, 0.000000, 0.000000, 0.000000, 0.000000, 0.000276, 0.000000, 0.000000,10.838935,-5.620286, 2.590889, 1.793315,-21.409542,20.164760,10.838935,-5.620286, 2.590889, 1.793315,-21.409542,20.164760,10.838935,-5.620286, 2.590889, 1.793315,-21.409542,20.164760, 0.156938, 0.719826,14.627445,70.269560,300.158783, 0.724349, 0.265975,1828726.000000,300.000000,69.549992,-0.000001,-0.000000, 0.000000, 0.000000,-0.000001,-0.000001,-0.000001,-0.000001, 1.018478,-0.003247, 0.001743, 0.017703,-0.071438,,,,,,250218,10:05:38.125,36338.125
Mult,USC,250218 10:05:38.140, 0.000000, 0.000000, 0.000000, 0.000000, 0.000276, 0.000000, 0.000000, 9.759513,-5.869898, 0.865196,-1.925490,-7.991889,21.156968, 9.759513,-5.869898, 0.865196,-1.925490,-7.991889,21.156968, 9.759513,-5.869898, 0.865196,-1.925490,-7.991889,21.156968, 0.156938, 0.719826,14.627445,70.269560,300.158783, 0.724349, 0.265975,1828726.000000,300.000000,69.549992,-0.000001,-0.000000,-0.000001, 0.000000,-0.000001,-0.000001, 0.000000,-0.000001, 1.018298,-0.003485, 0.001758, 0.019260,-0.064006,,,,,,250218,10:05:38.140,36338.14
Mult,USC,250218 10:05:38.155, 0.000000, 0.000000, 0.000000, 0.000000, 0.000276, 0.000000, 0.000000, 8.912640,-5.926263, 1.824798, 1.922674,-22.431046,22.302064, 8.912640,-5.926263, 1.824798, 1.922674,-22.431046,22.302064, 8.912640,-5.926263, 1.824798, 1.922674,-22.431046,22.302064, 0.156938, 0.719826,14.627445,70.269560,300.158783, 0.724349, 0.265975,1828726.000000,300.000000,69.549992,-0.000000,-0.000000,-0.000001,-0.000001,-0.000001,-0.000001,-0.000001,-0.000001, 1.018863,-0.003586, 0.001788, 0.019897,-0.058549,,,,,,250218,10:05:38.155,36338.155
Mult,USC,250218 10:05:38.170, 0.000000, 0.000000, 0.000000, 0.000000, 0.000276, 0.000000, 0.000000, 9.780265,-5.821641, 6.762757, 2.300691,-16.802478,23.438890, 9.780265,-5.821641, 6.762757, 2.300691,-16.802478,23.438890, 9.780265,-5.821641, 6.762757, 2.300691,-16.802478,23.438890, 0.156938, 0.719826,14.627445,70.269560,300.158783, 0.724349, 0.265975,1828726.000000,300.000000,69.549992,-0.000000,-0.000001,-0.000001, 0.000000, 0.000000,-0.000001,-0.000001,-0.000001, 1.019531,-0.003052, 0.001813, 0.020773,-0.064408,,,,,,250218,10:05:38.170,36338.17
Mult,USC,250218 10:05:38.185, 0.000000, 0.000000, 0.000000, 0.000000, 0.000276, 0.000000, 0.000000, 8.409950,-6.729642,-0.135471,-0.738490,-20.162879,24.266544, 8.409950,-6.729642,-0.135471,-0.738490,-20.162879,24.266544, 8.409950,-6.729642,-0.135471,-0.738490,-20.162879,24.266544, 0.156938, 0.719826,14.627445,70.269560,300.158783, 0.724349, 0.265975,1828726.000000,300.000000,69.549992,-0.000000, 0.000001,-0.000001,-0.000001,-0.000001,-0.000001,-0.000001,-0.000001, 1.018869,-0.003595, 0.001968, 0.021713,-0.054935,,,,,,250218,10:05:38.185,36338.185
Mult,USC,250218 10:05:38.200, 0.000000, 0.000000, 0.000000, 0.000000, 0.000276, 0.000000, 0.000000, 9.337194,-5.894584, 1.950485, 6.242203,-9.612706,23.808729, 9.337194,-5.894584, 1.950485, 6.242203,-9.612706,23.808729, 9.337194,-5.894584, 1.950485, 6.242203,-9.612706,23.808729, 0.156938, 0.719826,14.627445,70.269560,300.158783, 0.724349, 0.265975,1828726.000000,300.000000,69.549992,-0.000001,-0.000000,-0.000001,-0.000001,-0.000001,-0.000001, 0.000000,-0.000001, 1.016830,-0.003140, 0.001746, 0.021689,-0.061457,,,,,,250218,10:05:38.200,36338.2
Mult,USC,250218 10:05:38.215, 0.000000, 0.000000, 0.000000, 0.000000, 0.000276, 0.000000, 0.000000, 9.498543,-5.793230, 3.760776, 1.659524,-20.753916,22.475401, 9.498543,-5.793230, 3.760776, 1.659524,-20.753916,22.475401, 9.498543,-5.793230, 3.760776, 1.659524,-20.753916,22.475401, 0.156940, 0.719466,14.605503,70.269560,300.371033, 0.724286, 0.266163,1827274.000000,300.000000,69.549992,-0.000000,-0.000001,-0.000001, 0.000000,-0.000001, 0.000000, 0.000000,-0.000001, 1.017331,-0.003265, 0.001712, 0.021249,-0.062494,,,,,,250218,10:05:38.215,36338.215
Mult,USC,250218 10:05:38.230, 0.000000, 0.000000, 0.000000, 0.000000, 0.000276, 0.000000, 0.000000,10.326764,-4.778846, 3.297408, 1.452829,-12.249763,20.496392,10.326764,-4.778846, 3.297408, 1.452829,-12.249763,20.496392,10.326764,-4.778846, 3.297408, 1.452829,-12.249763,20.496392, 0.156940, 0.719466,14.605503,70.269560,300.371033, 0.724286, 0.266163,1827274.000000,300.000000,69.549992,-0.000001,-0.000000, 0.000000,-0.000001, 0.000000,-0.000001, 0.000000,-0.000001, 1.019412,-0.003357, 0.001712, 0.020798,-0.068171,,,,,,250218,10:05:38.230,36338.23
Mult,USC,250218 10:05:38.245, 0.000000, 0.000000, 0.000000, 0.000000, 0.000276, 0.000000, 0.000000,10.401529,-4.549705, 0.333135,-1.573909,-16.815941,19.330879,10.401529,-4.549705, 0.333135,-1.573909,-16.815941,19.330879,10.401529,-4.549705, 0.333135,-1.573909,-16.815941,19.330879, 0.156940, 0.719466,14.605503,70.269560,300.371033, 0.724286, 0.266163,1827274.000000,300.000000,69.549992,-0.000000,-0.000000,-0.000001, 0.000001,-0.000001,-0.000001,-0.000001,-0.000001, 1.018521,-0.003143, 0.001678, 0.020105,-0.068622,,,,,,250218,10:05:38.245,36338.245
Mult,USC,250218 10:05:38.260, 0.000000, 0.000000, 0.000000, 0.000000, 0.000276, 0.000000, 0.000000,10.494666,-3.538606, 2.386073,-1.552010,-5.080465,18.989734,10.494666,-3.538606, 2.386073,-1.552010,-5.080465,18.989734,10.494666,-3.538606, 2.386073,-1.552010,-5.080465,18.989734, 0.156940, 0.719466,14.605503,70.269560,300.371033, 0.724286, 0.266163,1827274.000000,300.000000,69.549992,-0.000001,-0.000001, 0.000000,-0.000001,-0.000001,-0.000001,-0.000001,-0.000001, 1.017883,-0.002899, 0.001782, 0.019254,-0.069433,,,,,,250218,10:05:38.260,36338.26
Mult,USC,250218 10:05:38.275, 0.000000, 0.000000, 0.000000, 0.000000, 0.000276, 0.000000, 0.000000,10.111201,-4.152507, 1.370970,-0.462427,-16.471112,19.459515,10.111201,-4.152507, 1.370970,-0.462427,-16.471112,19.459515,10.111201,-4.152507, 1.370970,-0.462427,-16.471112,19.459515, 0.156940, 0.719466,14.605503,70.269560,300.371033, 0.724286, 0.266163,1827274.000000,300.000000,69.549992,-0.000001,-0.000001, 0.000000, 0.000000,-0.000001, 0.000000, 0.000000, 0.000000, 1.015576,-0.002765, 0.001935, 0.019037,-0.066816,,,,,,250218,10:05:38.275,36338.275
Mult,USC,250218 10:05:38.290, 0.000000, 0.000000, 0.000000, 0.000000, 0.000276, 0.000000, 0.000000,10.677175,-4.010892, 5.517596,-2.137016,-2.248021,20.341212,10.677175,-4.010892, 5.517596,-2.137016,-2.248021,20.341212,10.677175,-4.010892, 5.517596,-2.137016,-2.248021,20.341212, 0.156940, 0.719466,14.605503,70.269560,300.371033, 0.724286, 0.266163,1827274.000000,300.000000,69.549992,-0.000001,-0.000001, 0.000000,-0.000001,-0.000001,-0.000001, 0.000000, 0.000000, 1.018002,-0.003357, 0.001743, 0.018246,-0.070563,,,,,,250218,10:05:38.290,36338.29
Mult,USC,250218 10:05:38.305, 0.000000, 0.000000, 0.000000, 0.000000, 0.000276, 0.000000, 0.000000,10.730006,-4.882534,-1.033214, 2.763558,-20.884181,20.816699,10.730006,-4.882534,-1.033214, 2.763558,-20.884181,20.816699,10.730006,-4.882534,-1.033214, 2.763558,-20.884181,20.816699, 0.156940, 0.719466,14.605503,70.269560,300.371033, 0.724286, 0.266163,1827274.000000,300.000000,69.549992,-0.000000,-0.000001, 0.000001,-0.000001, 0.000000,-0.000001, 0.000000, 0.000000, 1.017422,-0.003082, 0.001880, 0.020108,-0.070912,,,,,,250218,10:05:38.305,36338.305
Mult,USC,250218 10:05:38.320, 0.000000, 0.000000, 0.000000, 0.000000, 0.000276,-0.000002,-0.000002,10.121678,-4.873393, 2.629290, 1.610832,-4.919884,20.682347,10.121678,-4.873393, 2.629290, 1.610832,-4.919884,20.682347,10.121678,-4.873394, 2.629290, 1.610832,-4.919884,20.682347, 0.156944, 0.719385,14.614348,70.269560,300.233459, 0.724061, 0.266041,1827543.125000,300.000000,69.549992,-0.000000,-0.000001,-0.000001,-0.000001, 0.000000,-0.000001,-0.000001,-0.000001, 1.018640,-0.002869, 0.001678, 0.021158,-0.066741,,,,,,250218,10:05:38.320,36338.32
Mult,USC,250218 10:05:38.335, 0.000000, 0.000000, 0.000000, 0.000000, 0.000276,-0.000002,-0.000002, 9.033610,-5.777603, 1.325245,-0.789316,-20.605275,20.408254, 9.033610,-5.777603, 1.325245,-0.789316,-20.605275,20.408254, 9.033610,-5.777603, 1.325245,-0.789316,-20.605275,20.408254, 0.156944, 0.719385,14.614348,70.269560,300.233459, 0.724061, 0.266041,1827543.125000,300.000000,69.549992,-0.000001,-0.000000, 0.000000, 0.000000,-0.000001,-0.000001, 0.000000, 0.000000, 1.019092,-0.003299, 0.001678, 0.020926,-0.059278,,,,,,250218,10:05:38.335,36338.335
Mult,USC,250218 10:05:38.350, 0.000000, 0.000000, 0.000000, 0.000000, 0.000276,-0.000002,-0.000002, 9.124020,-4.959656, 1.496380,-0.309966,-14.925972,20.466795, 9.124020,-4.959656, 1.496380,-0.309966,-14.925972,20.466795, 9.124020,-4.959657, 1.496379,-0.309965,-14.925972,20.466795, 0.156944, 0.719385,14.614348,70.269560,300.233459, 0.724061, 0.266041,1827543.125000,300.000000,69.549992,-0.000001,-0.000000,-0.000001,-0.000001,-0.000001,-0.000001,-0.000001,-0.000001, 1.015833,-0.003491, 0.001904, 0.021594,-0.060055,,,,,,250218,10:05:38.350,36338.35
Mult,USC,250218 10:05:38.365, 0.000000, 0.000000, 0.000000, 0.000000, 0.000276,-0.000002,-0.000002, 9.597981,-5.773830, 2.774707,-0.778807,-6.557892,21.541267, 9.597981,-5.773830, 2.774707,-0.778807,-6.557892,21.541267, 9.597981,-5.773831, 2.774706,-0.778806,-6.557892,21.541267, 0.156944, 0.719385,14.614348,70.269560,300.233459, 0.724061, 0.266041,1827543.125000,300.000000,69.549992,-0.000001,-0.000000,-0.000001,-0.000001, 0.000000,-0.000001,-0.000001,-0.000001, 1.018387,-0.003113, 0.002039, 0.020172,-0.062998,,,,,,250218,10:05:38.365,36338.365
Mult,USC,250218 10:05:38.380, 0.000000, 0.000000, 0.000000, 0.000000, 0.000276,-0.000002,-0.000002,10.186816,-5.586143, 2.711865,-0.905436,-16.294459,23.523805,10.186816,-5.586143, 2.711865,-0.905436,-16.294459,23.523805,10.186816,-5.586143, 2.711865,-0.905435,-16.294459,23.523805, 0.156944, 0.719385,14.614348,70.269560,300.233459, 0.724061, 0.266041,1827543.125000,300.000000,69.549992,-0.000000,-0.000001,-0.000001, 0.000000, 0.000000,-0.000001, 0.000000,-0.000001, 1.015744,-0.003177, 0.001617, 0.019699,-0.067043,,,,,,250218,10:05:38.380,36338.38
Mult,USC,250218 10:05:38.395, 0.000000, 0.000000, 0.000000, 0.000000, 0.000276,-0.000002,-0.000002, 8.888779,-6.417046, 2.895859, 2.618032,-18.082465,25.078160, 8.888779,-6.417046, 2.895859, 2.618032,-18.082465,25.078160, 8.888779,-6.417046, 2.895858, 2.618032,-18.082465,25.078160, 0.156944, 0.719385,14.614348,70.269560,300.233459, 0.724061, 0.266041,1827543.125000,300.000000,69.549992,-0.000001,-0.000001, 0.000000, 0.000000, 0.000000,-0.000001,-0.000001, 0.000000, 1.018292,-0.003174, 0.001614, 0.019067,-0.058319,,,,,,250218,10:05:38.395,36338.395
Mult,USC,250218 10:05:38.410, 0.000000, 0.000000, 0.000000, 0.000000, 0.000276,-0.000000,-0.000000, 1.786095,-1.310514, 1.142318, 0.605019,-0.978573, 5.049586, 1.786095,-1.310514, 1.142318, 0.605019,-0.978573, 5.049586, 1.786095,-1.310514, 1.142318, 0.605019,-0.978573, 5.049586, 0.156944, 0.719385,14.614348,70.269560,300.233459, 0.724061, 0.266041,1827543.125000,300.000000,69.549992,-0.000000,-0.000000,-0.000001, 0.000000,-0.000001, 0.000000,-0.000001,-0.000001, 1.003064,-0.000653, 0.000400, 0.003616,-0.011708,,,,,,250218,10:05:38.410,36338.41
Mult,USC,250218 10:05:38.425, 0.000000, 0.000000, 0.000000, 0.000000, 0.000276, 0.000004, 0.000000, 9.693550,-6.964639,-0.967785, 5.104910,-15.194552,24.342747, 9.693550,-6.964639,-0.967785, 5.104910,-15.194552,24.342747, 9.693550,-6.964638,-0.967785, 5.104911,-15.194552,24.342747, 0.156936, 0.720383,14.626898,70.217922,300.298187, 0.725066, 0.266111,1829823.000000,300.000000,69.549992,-0.000000,-0.000001,-0.000001,-0.000001,-0.000001, 0.000000, 0.000000,-0.000001, 1.016415,-0.003143, 0.001910, 0.017355,-0.063593,,,,,,250218,10:05:38.425,36338.425
Mult,USC,250218 10:05:38.440, 0.000000, 0.000000, 0.000000, 0.000000, 0.000276, 0.000004, 0.000000,10.812769,-6.512006, 4.256746, 2.514032,-5.069816,22.158642,10.812769,-6.512006, 4.256746, 2.514032,-5.069816,22.158642,10.812770,-6.512005, 4.256746, 2.514032,-5.069816,22.158642, 0.156936, 0.720383,14.626898,70.217922,300.298187, 0.725066, 0.266111,1829823.000000,300.000000,69.549992,-0.000000,-0.000001,-0.000001,-0.000001,-0.000001,-0.000001,-0.000001, 0.000000, 1.020300,-0.003024, 0.001755, 0.017358,-0.071032,,,,,,250218,10:05:38.440,36338.44
Mult,USC,250218 10:05:38.455, 0.000000, 0.000000, 0.000000, 0.000000, 0.000276, 0.000004, 0.000000,10.977590,-5.287190, 0.345421, 2.632322,-22.475051,19.847209,10.977590,-5.287190, 0.345421, 2.632322,-22.475051,19.847209,10.977590,-5.287189, 0.345421, 2.632324,-22.475051,19.847209, 0.156936, 0.720383,14.626898,70.217922,300.298187, 0.725066, 0.266111,1829823.000000,300.000000,69.549992,-0.000000,-0.000001,-0.000001,-0.000001, 0.000000, 0.000000,-0.000001, 0.000000, 1.017838,-0.003177, 0.002325, 0.018906,-0.072441,,,,,,250218,10:05:38.455,36338.455
Mult,USC,250218 10:05:38.470, 0.000000, 0.000000, 0.000000, 0.000000, 0.000276, 0.000004, 0.000000,10.084083,-4.285216, 0.410302,-0.868807,-4.404687,18.313922,10.084083,-4.285216, 0.410302,-0.868807,-4.404687,18.313922,10.084083,-4.285215, 0.410302,-0.868807,-4.404687,18.313922, 0.156936, 0.720383,14.626898,70.217922,300.298187, 0.725066, 0.266111,1829823.000000,300.000000,69.549992,-0.000001,-0.000000,-0.000001,-0.000001, 0.000000,-0.000001,-0.000001,-0.000001, 1.018970,-0.003113, 0.001846, 0.019766,-0.066504,,,,,,250218,10:05:38.470,36338.47
Mult,USC,250218 10:05:38.485, 0.000000, 0.000000, 0.000000, 0.000000, 0.000276, 0.000004, 0.000000, 9.764542,-2.734901, 1.395410,-2.949077,-9.516161,18.093760, 9.764542,-2.734901, 1.395410,-2.949077,-9.516161,18.093760, 9.764542,-2.734900, 1.395410,-2.949076,-9.516162,18.093760, 0.156936, 0.720383,14.626898,70.217922,300.298187, 0.725066, 0.266111,1829823.000000,300.000000,69.549992,-0.000000,-0.000001,-0.000001,-0.000001, 0.000000,-0.000001,-0.000001,-0.000001, 1.021417,-0.003143, 0.001813, 0.020084,-0.064718,,,,,,250218,10:05:38.485,36338.485
Mult,USC,250218 10:05:38.500, 0.000000, 0.000000, 0.000000, 0.000000, 0.000276, 0.000004, 0.000000,10.277935,-3.061917, 4.238022,-3.406481,-16.092971,18.980121,10.277935,-3.061917, 4.238022,-3.406481,-16.092971,18.980121,10.277935,-3.061916, 4.238022,-3.406480,-16.092971,18.980121, 0.156936, 0.720383,14.626898,70.217922,300.298187, 0.725066, 0.266111,1829823.000000,300.000000,69.549992,-0.000000,-0.000000, 0.000000, 0.000000,-0.000001,-0.000001,-0.000001,-0.000001, 1.020102,-0.003204, 0.002008, 0.020239,-0.068134,,,,,,250218,10:05:38.500,36338.5
Mult,USC,250218 10:05:38.515, 0.000000, 0.000000, 0.000000, 0.000000, 0.000276, 0.000000, 0.000000,10.734231,-3.876322, 2.092098,-3.055846,-11.460035,21.047791,10.734231,-3.876322, 2.092098,-3.055846,-11.460035,21.047791,10.734231,-3.876322, 2.092098,-3.055846,-11.460035,21.047791, 0.156948, 0.720657,14.623350,70.217922,300.173065, 0.724286, 0.266001,1828616.875000,300.000000,69.549992,-0.000000,-0.000000,-0.000001, 0.000000, 0.000000,-0.000001, 0.000000,-0.000001, 1.018292,-0.002838, 0.001712, 0.021564,-0.070974,,,,,,250218,10:05:38.515,36338.515
Mult,USC,250218 10:05:38.530, 0.000000, 0.000000, 0.000000, 0.000000, 0.000276, 0.000000, 0.000000, 9.529025,-5.210080, 2.364763,-0.509179,-12.300486,23.214402, 9.529025,-5.210080, 2.364763,-0.509179,-12.300486,23.214402, 9.529025,-5.210080, 2.364763,-0.509179,-12.300486,23.214402, 0.156948, 0.720657,14.623350,70.217922,300.173065, 0.724286, 0.266001,1828616.875000,300.000000,69.549992,-0.000000,-0.000001, 0.000000, 0.000000, 0.000000,-0.000001,-0.000001, 0.000000, 1.015588,-0.003082, 0.001556, 0.019473,-0.062724,,,,,,250218,10:05:38.530,36338.53
Mult,USC,250218 10:05:38.545, 0.000000, 0.000000, 0.000000, 0.000000, 0.000276, 0.000000, 0.000000,10.084812,-5.979764, 3.233447, 2.705856,-20.185374,24.974731,10.084812,-5.979764, 3.233447, 2.705856,-20.185374,24.974731,10.084812,-5.979764, 3.233447, 2.705856,-20.185374,24.974731, 0.156948, 0.720657,14.623350,70.217922,300.173065, 0.724286, 0.266001,1828616.875000,300.000000,69.549992,-0.000001,-0.000001, 0.000000, 0.000000, 0.000001, 0.000000,-0.000001,-0.000001, 1.016183,-0.002991, 0.001648, 0.018146,-0.066413,,,,,,250218,10:05:38.545,36338.545
Mult,USC,250218 10:05:38.560, 0.000000, 0.000000, 0.000000, 0.000000, 0.000276, 0.000000, 0.000000, 9.000386,-7.514749, 2.806465, 3.529686,-6.984790,25.945452, 9.000386,-7.514749, 2.806465, 3.529686,-6.984790,25.945452, 9.000386,-7.514749, 2.806465, 3.529686,-6.984790,25.945452, 0.156948, 0.720657,14.623350,70.217922,300.173065, 0.724286, 0.266001,1828616.875000,300.000000,69.549992,-0.000001,-0.000000,-0.000001, 0.000000,-0.000002,-0.000001, 0.000000,-0.000001, 1.016696,-0.003357, 0.001999, 0.017700,-0.058783,,,,,,250218,10:05:38.560,36338.56
Mult,USC,250218 10:05:38.575, 0.000000, 0.000000, 0.000000, 0.000000, 0.000276, 0.000000, 0.000000, 9.932088,-7.189870, 0.342469, 3.856671,-5.527900,26.200704, 9.932088,-7.189870, 0.342469, 3.856671,-5.527900,26.200704, 9.932088,-7.189870, 0.342469, 3.856671,-5.527900,26.200704, 0.156948, 0.720657,14.623350,70.217922,300.173065, 0.724286, 0.266001,1828616.875000,300.000000,69.549992,-0.000000,-0.000001,-0.000001,-0.000001, 0.000000, 0.000000,-0.000001, 0.000001, 1.017719,-0.002960, 0.001935, 0.018427,-0.065050,,,,,,250218,10:05:38.575,36338.575
Mult,USC,250218 10:05:38.590, 0.000000, 0.000000, 0.000000, 0.000000, 0.000276, 0.000000, 0.000000, 9.487196,-7.079931,-0.006525, 2.776221,-7.232428,26.040312, 9.487196,-7.079931,-0.006525, 2.776221,-7.232428,26.040312, 9.487196,-7.079931,-0.006525, 2.776221,-7.232428,26.040312, 0.156948, 0.720657,14.623350,70.217922,300.173065, 0.724286, 0.266001,1828616.875000,300.000000,69.549992,-0.000000,-0.000001, 0.000000, 0.000000,-0.000001, 0.000000, 0.000000,-0.000001, 1.017435,-0.003143, 0.001938, 0.018463,-0.062082,,,,,,250218,10:05:38.590,36338.59
Mult,USC,250218 10:05:38.605, 0.000000, 0.000000, 0.000000, 0.000000, 0.000276, 0.000000, 0.000000,10.813224,-5.852547, 3.301175, 3.858858,-9.744428,25.118352,10.813224,-5.852547, 3.301175, 3.858858,-9.744428,25.118352,10.813224,-5.852547, 3.301175, 3.858858,-9.744428,25.118352, 0.156948, 0.720657,14.623350,70.217922,300.173065, 0.724286, 0.266001,1828616.875000,300.000000,69.549992,-0.000000,-0.000000,-0.000001,-0.000001,-0.000001,-0.000001,-0.000001,-0.000001, 1.018613,-0.002838, 0.001813, 0.018024,-0.071279,,,,,,250218,10:05:38.605,36338.605
Mult,USC,250218 10:05:38.620, 0.000000, 0.000000, 0.000000, 0.000000, 0.000276, 0.000004, 0.000000, 9.543219,-5.520377, 0.382261,-0.428329,-15.405620,23.577904, 9.543219,-5.520377, 0.382261,-0.428329,-15.405620,23.577904, 9.543220,-5.520376, 0.382261,-0.428328,-15.405620,23.577904, 0.156936, 0.720272,14.624460,70.217922,300.201965, 0.724480, 0.266026,1828931.750000,300.000000,69.549992,-0.000001,-0.000000, 0.000000, 0.000000,-0.000001,-0.000001, 0.000000, 0.000000, 1.017850,-0.003143, 0.001816, 0.019186,-0.062748,,,,,,250218,10:05:38.620,36338.62
Mult,USC,250218 10:05:38.635, 0.000000, 0.000000, 0.000000, 0.000000, 0.000276, 0.000004, 0.000000,10.081613,-4.567279, 1.389699, 1.842534, 5.547665,21.704628,10.081613,-4.567279, 1.389699, 1.842534, 5.547665,21.704628,10.081613,-4.567278, 1.389699, 1.842534, 5.547665,21.704628, 0.156936, 0.720272,14.624460,70.217922,300.201965, 0.724480, 0.266026,1828931.750000,300.000000,69.549992,-0.000001,-0.000000,-0.000001, 0.000000, 0.000000, 0.000000,-0.000001,-0.000001, 1.019183,-0.003369, 0.002103, 0.018777,-0.066465,,,,,,250218,10:05:38.635,36338.635
Mult,USC,250218 10:05:38.650, 0.000000, 0.000000, 0.000000, 0.000000, 0.000276, 0.000004, 0.000000, 9.822594,-4.754962,-0.210186, 0.386311,-20.164905,19.854231, 9.822594,-4.754962,-0.210186, 0.386311,-20.164905,19.854231, 9.822595,-4.754961,-0.210186, 0.386312,-20.164905,19.854231, 0.156936, 0.720272,14.624460,70.217922,300.201965, 0.724480, 0.266026,1828931.750000,300.000000,69.549992,-0.000001,-0.000000,-0.000001, 0.000000,-0.000001,-0.000001, 0.000000,-0.000001, 1.018073,-0.003171, 0.001746, 0.019537,-0.064788,,,,,,250218,10:05:38.650,36338.65
Mult,USC,250218 10:05:38.665, 0.000000, 0.000000, 0.000000, 0.000000, 0.000276, 0.000004, 0.000000,11.043594,-4.392146, 7.607564,-0.826912,-7.143826,18.378154,11.043594,-4.392146, 7.607564,-0.826912,-7.143826,18.378154,11.043595,-4.392145, 7.607564,-0.826911,-7.143826,18.378154, 0.156936, 0.720272,14.624460,70.217922,300.201965, 0.724480, 0.266026,1828931.750000,300.000000,69.549992,-0.000000, 0.000001, 0.000000,-0.000001,-0.000001, 0.000001,-0.000001, 0.000000, 1.018036,-0.003265, 0.001660, 0.020859,-0.072974,,,,,,250218,10:05:38.665,36338.665
Mult,USC,250218 10:05:38.680, 0.000000, 0.000000, 0.000000, 0.000000, 0.000276, 0.000004, 0.000000, 9.947107,-4.288231,-0.061990,-0.423017,-20.692449,17.965806, 9.947107,-4.288231,-0.061990,-0.423017,-20.692449,17.965806, 9.947107,-4.288230,-0.061990,-0.423016,-20.692449,17.965806, 0.156936, 0.720272,14.624460,70.217922,300.201965, 0.724480, 0.266026,1828931.750000,300.000000,69.549992,-0.000001,-0.000001,-0.000001, 0.000000,-0.000001,-0.000001,-0.000001, 0.000000, 1.015869,-0.002991, 0.001880, 0.019989,-0.065686,,,,,,250218,10:05:38.680,36338.68
Mult,USC,250218 10:05:38.695, 0.000000, 0.000000, 0.000000, 0.000000, 0.000276, 0.000004, 0.000000, 9.963951,-3.861478, 1.125835,-2.514542,-10.146706,18.456464, 9.963951,-3.861478, 1.125835,-2.514542,-10.146706,18.456464, 9.963951,-3.861477, 1.125835,-2.514541,-10.146707,18.456464, 0.156936, 0.720272,14.624460,70.217922,300.201965, 0.724480, 0.266026,1828931.750000,300.000000,69.549992,-0.000001,-0.000000, 0.000001,-0.000001, 0.000000,-0.000001,-0.000001,-0.000001, 1.013483,-0.003387, 0.001559, 0.018015,-0.065802,,,,,,250218,10:05:38.695,36338.695
Mult,USC,250218 10:05:38.710, 0.000000, 0.000000, 0.000000, 0.000000, 0.000276, 0.000001, 0.000000, 1.787828,-0.977987, 0.341021,-0.288928,-5.300910, 3.949361, 1.787828,-0.977987, 0.341021,-0.288928,-5.300910, 3.949361, 1.787828,-0.977987, 0.341021,-0.288927,-5.300910, 3.949361, 0.156936, 0.720272,14.624460,70.217922,300.201965, 0.724480, 0.266026,1828931.750000,300.000000,69.549992,-0.000000,-0.000001, 0.000000,-0.000001,-0.000001,-0.000001,-0.000001, 0.000000, 1.003833,-0.000528, 0.000339, 0.003488,-0.011773,,,,,,250218,10:05:38.710,36338.71
Mult,USC,250218 10:05:38.725, 0.000000, 0.000000, 0.000000, 0.000000, 0.000276, 0.000000, 0.000000, 9.430541,-5.052544, 6.287591, 2.434240,-11.022982,22.218793, 9.430541,-5.052544, 6.287591, 2.434240,-11.022982,22.218793, 9.430541,-5.052544, 6.287591, 2.434240,-11.022982,22.218793, 0.156957, 0.719821,14.609563,70.217922,300.358948, 0.724499, 0.266165,1828024.125000,300.000000,69.549992,-0.000001,-0.000001, 0.000000,-0.000001, 0.000000, 0.000000,-0.000001,-0.000001, 1.016574,-0.003113, 0.001654, 0.015686,-0.062206,,,,,,250218,10:05:38.725,36338.725
Mult,USC,250218 10:05:38.740, 0.000000, 0.000000, 0.000000, 0.000000, 0.000276, 0.000000, 0.000000, 9.491665,-4.489427, 1.200978, 0.661672,-9.859454,21.812512, 9.491665,-4.489427, 1.200978, 0.661672,-9.859454,21.812512, 9.491665,-4.489427, 1.200978, 0.661672,-9.859454,21.812512, 0.156957, 0.719821,14.609563,70.217922,300.358948, 0.724499, 0.266165,1828024.125000,300.000000,69.549992,-0.000001,-0.000001,-0.000001,-0.000001, 0.000000, 0.000000, 0.000000,-0.000001, 1.019217,-0.002869, 0.001782, 0.018372,-0.062628,,,,,,250218,10:05:38.740,36338.74
Mult,USC,250218 10:05:38.755, 0.000000, 0.000000, 0.000000, 0.000000, 0.000276, 0.000000, 0.000000,10.486116,-4.888923,-0.618202, 0.404150,-22.211435,20.556430,10.486116,-4.888923,-0.618202, 0.404150,-22.211435,20.556430,10.486116,-4.888923,-0.618202, 0.404150,-22.211435,20.556430, 0.156957, 0.719821,14.609563,70.217922,300.358948, 0.724499, 0.266165,1828024.125000,300.000000,69.549992,-0.000001,-0.000001, 0.000000,-0.000001,-0.000001,-0.000001,-0.000001,-0.000001, 1.019055,-0.003400, 0.001904, 0.018213,-0.069213,,,,,,250218,10:05:38.755,36338.755
Mult,USC,250218 10:05:38.770, 0.000000, 0.000000, 0.000000, 0.000000, 0.000276, 0.000000, 0.000000,10.086531,-4.614862, 6.224722,-1.110377,-7.878442,19.609279,10.086531,-4.614862, 6.224722,-1.110377,-7.878442,19.609279,10.086531,-4.614862, 6.224722,-1.110377,-7.878442,19.609279, 0.156957, 0.719821,14.609563,70.217922,300.358948, 0.724499, 0.266165,1828024.125000,300.000000,69.549992,-0.000001,-0.000000,-0.000001,-0.000001,-0.000001, 0.000000, 0.000001,-0.000001, 1.018829,-0.003522, 0.002008, 0.019989,-0.066537,,,,,,250218,10:05:38.770,36338.77
Mult,USC,250218 10:05:38.785, 0.000000, 0.000000, 0.000000, 0.000000, 0.000276, 0.000000, 0.000000, 9.656942,-4.687205, 1.556997,-1.809584,-13.369663,20.033387, 9.656942,-4.687205, 1.556997,-1.809584,-13.369663,20.033387, 9.656942,-4.687205, 1.556997,-1.809584,-13.369663,20.033387, 0.156957, 0.719821,14.609563,70.217922,300.358948, 0.724499, 0.266165,1828024.125000,300.000000,69.549992,-0.000000,-0.000001,-0.000001, 0.000000,-0.000001,-0.000001, 0.000000, 0.000000, 1.018573,-0.003143, 0.001947, 0.020996,-0.063622,,,,,,250218,10:05:38.785,36338.785
Mult,USC,250218 10:05:38.800, 0.000000, 0.000000, 0.000000, 0.000000, 0.000276, 0.000000, 0.000000,10.117346,-4.970369,-1.283507,-0.394956,-15.786501,21.490129,10.117346,-4.970369,-1.283507,-0.394956,-15.786501,21.490129,10.117346,-4.970369,-1.283507,-0.394956,-15.786501,21.490129, 0.156957, 0.719821,14.609563,70.217922,300.358948, 0.724499, 0.266165,1828024.125000,300.000000,69.549992,-0.000000,-0.000001,-0.000001, 0.000001,-0.000001, 0.000000, 0.000000,-0.000001, 1.020932,-0.003491, 0.001846, 0.021408,-0.066707,,,,,,250218,10:05:38.800,36338.8
Mult,USC,250218 10:05:38.815, 0.000000, 0.000000, 0.000000, 0.000000, 0.000276, 0.000000, 0.000002,10.321219,-5.369959, 3.224588,-0.556400,-17.355814,23.307001,10.321219,-5.369959, 3.224588,-0.556400,-17.355814,23.307001,10.321218,-5.369959, 3.224589,-0.556401,-17.355814,23.307001, 0.156957, 0.719821,14.609563,70.217922,300.358948, 0.724499, 0.266165,1828024.125000,300.000000,69.549992,-0.000000,-0.000000, 0.000000,-0.000001, 0.000000,-0.000001,-0.000001,-0.000001, 1.018668,-0.002808, 0.001950, 0.022028,-0.068007,,,,,,250218,10:05:38.815,36338.815
Mult,USC,250218 10:05:38.830, 0.000000, 0.000000, 0.000000, 0.000000, 0.000276, 0.000000, 0.000002, 8.756242,-5.224062, 3.625168, 3.914924,-8.582325,24.432560, 8.756242,-5.224062, 3.625168, 3.914924,-8.582325,24.432560, 8.756242,-5.224062, 3.625168, 3.914923,-8.582325,24.432561, 0.156957, 0.719821,14.609563,70.217922,300.358948, 0.724499, 0.266165,1828024.125000,300.000000,69.549992,-0.000001,-0.000001, 0.000000,-0.000001,-0.000001,-0.000001, 0.000000,-0.000001, 1.016571,-0.003171, 0.001968, 0.020200,-0.057696,,,,,,250218,10:05:38.830,36338.83
Mult,USC,250218 10:05:38.845, 0.000000, 0.000000, 0.000000, 0.000000, 0.000276, 0.000000, 0.000002, 9.448500,-6.221947,-0.183119, 1.038910,-14.162153,24.753421, 9.448500,-6.221947,-0.183119, 1.038910,-14.162153,24.753421, 9.448500,-6.221947,-0.183119, 1.038909,-14.162153,24.753421, 0.156957, 0.719821,14.609563,70.217922,300.358948, 0.724499, 0.266165,1828024.125000,300.000000,69.549992,-0.000001,-0.000000, 0.000000, 0.000000,-0.000001,-0.000001,-0.000001, 0.000000, 1.014691,-0.003400, 0.002014, 0.021088,-0.062001,,,,,,250218,10:05:38.845,36338.845
Mult,USC,250218 10:05:38.860, 0.000000, 0.000000, 0.000000, 0.000000, 0.000276, 0.000000, 0.000002,11.310412,-6.111278, 4.249246, 1.118310,-12.727413,24.043536,11.310412,-6.111278, 4.249246, 1.118310,-12.727413,24.043536,11.310412,-6.111278, 4.249247, 1.118309,-12.727413,24.043536, 0.156957, 0.719821,14.609563,70.217922,300.358948, 0.724499, 0.266165,1828024.125000,300.000000,69.549992,-0.000000,-0.000001,-0.000001,-0.000001,-0.000001,-0.000001, 0.000000,-0.000001, 1.015295,-0.003491, 0.001678, 0.020615,-0.074472,,,,,,250218,10:05:38.860,36338.86
Mult,USC,250218 10:05:38.875, 0.000000, 0.000000, 0.000000, 0.000000, 0.000276, 0.000000, 0.000002,10.210451,-6.136605, 4.252541, 3.771086,-6.683595,23.164016,10.210451,-6.136605, 4.252541, 3.771086,-6.683595,23.164016,10.210451,-6.136605, 4.252541, 3.771085,-6.683595,23.164016, 0.156957, 0.719821,14.609563,70.217922,300.358948, 0.724499, 0.266165,1828024.125000,300.000000,69.549992,-0.000001,-0.000001, 0.000000,-0.000001, 0.000000, 0.000001, 0.000000, 0.000000, 1.018573,-0.003357, 0.001904, 0.020081,-0.067158,,,,,,250218,10:05:38.875,36338.875
Mult,USC,250218 10:05:38.890, 0.000000, 0.000000, 0.000000, 0.000000, 0.000276, 0.000000, 0.000002, 8.999098,-5.895798,-0.091324,-0.282879,-4.951439,22.951558, 8.999098,-5.895798,-0.091324,-0.282879,-4.951439,22.951558, 8.999098,-5.895798,-0.091323,-0.282879,-4.951439,22.951558, 0.156957, 0.719821,14.609563,70.217922,300.358948, 0.724499, 0.266165,1828024.125000,300.000000,69.549992,-0.000001,-0.000000,-0.000001, 0.000000,-0.000001, 0.000000, 0.000000,-0.000001, 1.018011,-0.003265, 0.001691, 0.019165,-0.058972,,,,,,250218,10:05:38.890,36338.89
Mult,USC,250218 10:05:38.905, 0.000000, 0.000000, 0.000000, 0.000000, 0.000276, 0.000000, 0.000002,10.708995,-5.674131, 3.086326, 0.346494,-13.070282,22.768156,10.708995,-5.674131, 3.086326, 0.346494,-13.070282,22.768156,10.708995,-5.674131, 3.086327, 0.346494,-13.070282,22.768156, 0.156957, 0.719821,14.609563,70.217922,300.358948, 0.724499, 0.266165,1828024.125000,300.000000,69.549992,-0.000000,-0.000001, 0.000000, 0.000000,-0.000001,-0.000001,-0.000001,-0.000001, 1.016827,-0.003430, 0.001590, 0.018503,-0.070514,,,,,,250218,10:05:38.905,36338.905
Mult,USC,250218 10:05:38.920, 0.000000, 0.000000, 0.000000, 0.000000, 0.000276, 0.000000, 0.000002,10.185584,-5.556702, 3.047847, 1.541778,-24.338441,23.870911,10.185584,-5.556702, 3.047847, 1.541778,-24.338441,23.870911,10.185584,-5.556702, 3.047847, 1.541777,-24.338441,23.870911, 0.156928, 0.720553,14.629793,70.217922,300.303955, 0.725237, 0.266117,1830220.250000,300.000000,69.549992,-0.000000,-0.000000, 0.000000,-0.000001, 0.000000, 0.000000,-0.000001,-0.000001, 1.017209,-0.003369, 0.002008, 0.020804,-0.067158,,,,,,250218,10:05:38.920,36338.92
Mult,USC,250218 10:05:38.935, 0.000000, 0.000000, 0.000000, 0.000000, 0.000276, 0.000000, 0.000002, 9.587210,-5.420480, 3.111722, 2.532978,-6.005476,24.692777, 9.587210,-5.420480, 3.111722, 2.532978,-6.005476,24.692777, 9.587210,-5.420480, 3.111723, 2.532977,-6.005476,24.692777, 0.156928, 0.720553,14.629793,70.217922,300.303955, 0.725237, 0.266117,1830220.250000,300.000000,69.549992,-0.000000,-0.000000,-0.000001,-0.000001,-0.000001, 0.000000,-0.000001, 0.000000, 1.015326,-0.003052, 0.001788, 0.021786,-0.063138,,,,,,250218,10:05:38.935,36338.935
Mult,USC,250218 10:05:38.950, 0.000000, 0.000000, 0.000000, 0.000000, 0.000276, 0.000000, 0.000002,10.052872,-6.698213,-0.104294, 1.431623,-14.752301,24.623545,10.052872,-6.698213,-0.104294, 1.431623,-14.752301,24.623545,10.052872,-6.698213,-0.104293, 1.431622,-14.752301,24.623545, 0.156928, 0.720553,14.629793,70.217922,300.303955, 0.725237, 0.266117,1830220.250000,300.000000,69.549992,-0.000001,-0.000000, 0.000000,-0.000001,-0.000001,-0.000001,-0.000001, 0.000001, 1.014917,-0.002960, 0.001968, 0.023294,-0.065932,,,,,,250218,10:05:38.950,36338.95
Mult,USC,250218 10:05:38.965, 0.000000, 0.000000, 0.000000, 0.000000, 0.000276, 0.000000, 0.000002,11.207605,-6.434440, 5.666211, 0.786548,-11.894451,23.640936,11.207605,-6.434440, 5.666211, 0.786548,-11.894451,23.640936,11.207605,-6.434440, 5.666211, 0.786547,-11.894451,23.640936, 0.156928, 0.720553,14.629793,70.217922,300.303955, 0.725237, 0.266117,1830220.250000,300.000000,69.549992,-0.000001,-0.000002,-0.000001,-0.000002,-0.000001,-0.000001,-0.000001, 0.000000, 1.017300,-0.003311, 0.002136, 0.024814,-0.073708,,,,,,250218,10:05:38.965,36338.965
Mult,USC,250218 10:05:38.980, 0.000000, 0.000000, 0.000000, 0.000000, 0.000276, 0.000000, 0.000002, 9.547933,-5.723145,-1.513122, 3.373139,-20.664965,23.054735, 9.547933,-5.723145,-1.513122, 3.373139,-20.664965,23.054735, 9.547933,-5.723145,-1.513121, 3.373138,-20.664965,23.054735, 0.156928, 0.720553,14.629793,70.217922,300.303955, 0.725237, 0.266117,1830220.250000,300.000000,69.549992,-0.000001,-0.000000, 0.000000,-0.000001, 0.000001,-0.000001,-0.000001,-0.000001, 1.017523,-0.003595, 0.001813, 0.021399,-0.062889,,,,,,250218,10:05:38.980,36338.98
Mult,USC,250218 10:05:38.995, 0.000000, 0.000000, 0.000000, 0.000000, 0.000276, 0.000000, 0.000002, 8.847045,-5.586786, 2.621054,-0.783164,-4.899114,22.806042, 8.847045,-5.586786, 2.621054,-0.783164,-4.899114,22.806042, 8.847045,-5.586786, 2.621054,-0.783165,-4.899114,22.806042, 0.156928, 0.720553,14.629793,70.217922,300.303955, 0.725237, 0.266117,1830220.250000,300.000000,69.549992,-0.000001,-0.000001,-0.000001,-0.000001, 0.000000,-0.000001,-0.000001, 0.000000, 1.017209,-0.003387, 0.002103, 0.019724,-0.058039,,,,,,250218,10:05:38.995,36338.995
Mult,USC,250218 10:05:39.010, 0.000000, 0.000000, 0.000000, 0.000000, 0.000276, 0.000000, 0.000000, 2.078595,-1.037000, 0.906743,-0.004772,-4.207931, 4.545478, 2.078595,-1.037000, 0.906743,-0.004772,-4.207931, 4.545478, 2.078595,-1.037000, 0.906743,-0.004773,-4.207931, 4.545478, 0.156928, 0.720553,14.629793,70.217922,300.303955, 0.725237, 0.266117,1830220.250000,300.000000,69.549992,-0.000001,-0.000000, 0.000000,-0.000001,-0.000001, 0.000000,-0.000001, 0.000000, 1.003448,-0.000656, 0.000433, 0.003680,-0.013714,,,,,,250218,10:05:39.010,36339.01
Mult,USC,250218 10:05:39.025, 0.000000, 0.000000, 0.000000, 0.000000, 0.000276, 0.000000, 0.000000, 9.530341,-4.516626, 2.118823, 2.855424,-8.475125,22.220704, 9.530341,-4.516626, 2.118823, 2.855424,-8.475125,22.220704, 9.530341,-4.516626, 2.118823, 2.855424,-8.475125,22.220704, 0.156941, 0.720299,14.625280,70.217922,300.297333, 0.724981, 0.266111,1829615.250000,300.000000,69.549992,-0.000000,-0.000001, 0.000000, 0.000000,-0.000001,-0.000001, 0.000000, 0.000000, 1.016702,-0.002991, 0.001947, 0.017477,-0.062948,,,,,,250218,10:05:39.025,36339.025
Mult,USC,250218 10:05:39.040, 0.000000, 0.000000, 0.000000, 0.000000, 0.000276, 0.000000, 0.000000, 9.363821,-4.582492,-1.936177, 0.849020,-15.117300,21.382903, 9.363821,-4.582492,-1.936177, 0.849020,-15.117300,21.382903, 9.363821,-4.582492,-1.936177, 0.849020,-15.117300,21.382903, 0.156941, 0.720299,14.625280,70.217922,300.297333, 0.724981, 0.266111,1829615.250000,300.000000,69.549992,-0.000000,-0.000001, 0.000000, 0.000001,-0.000001, 0.000000,-0.000001, 0.000000, 1.016666,-0.003217, 0.001981, 0.018469,-0.061815,,,,,,250218,10:05:39.040,36339.04
Mult,USC,250218 10:05:39.055, 0.000000, 0.000000, 0.000000, 0.000000, 0.000276, 0.000000, 0.000000, 9.694091,-5.228386, 8.252473,-1.804113,-3.158518,19.951186, 9.694091,-5.228386, 8.252473,-1.804113,-3.158518,19.951186, 9.694091,-5.228386, 8.252473,-1.804113,-3.158518,19.951186, 0.156941, 0.720299,14.625280,70.217922,300.297333, 0.724981, 0.266111,1829615.250000,300.000000,69.549992,-0.000001,-0.000000,-0.000001,-0.000001,-0.000001,-0.000001,-0.000001,-0.000001, 1.016635,-0.003299, 0.001910, 0.021307,-0.063762,,,,,,250218,10:05:39.055,36339.055
Mult,USC,250218 10:05:39.070, 0.000000, 0.000000, 0.000000, 0.000000, 0.000276, 0.000000, 0.000000,10.609117,-4.569280, 3.312618, 1.822676,-14.759196,19.524837,10.609117,-4.569280, 3.312618, 1.822676,-14.759196,19.524837,10.609117,-4.569280, 3.312618, 1.822676,-14.759196,19.524837, 0.156941, 0.720299,14.625280,70.217922,300.297333, 0.724981, 0.266111,1829615.250000,300.000000,69.549992,-0.000001,-0.000001, 0.000000,-0.000001,-0.000001, 0.000000, 0.000000, 0.000000, 1.015744,-0.003052, 0.001456, 0.020923,-0.070114,,,,,,250218,10:05:39.070,36339.07
Mult,USC,250218 10:05:39.085, 0.000000, 0.000000, 0.000000, 0.000000, 0.000276, 0.000000, 0.000000,10.156730,-4.738707,-4.274696,-1.055889,-7.678974,20.211890,10.156730,-4.738707,-4.274696,-1.055889,-7.678974,20.211890,10.156730,-4.738707,-4.274696,-1.055889,-7.678974,20.211890, 0.156941, 0.720299,14.625280,70.217922,300.297333, 0.724981, 0.266111,1829615.250000,300.000000,69.549992,-0.000001,-0.000001,-0.000001,-0.000001, 0.000001, 0.000000, 0.000000,-0.000001, 1.017282,-0.002856, 0.002014, 0.022324,-0.067018,,,,,,250218,10:05:39.085,36339.085
Mult,USC,250218 10:05:39.100, 0.000000, 0.000000, 0.000000, 0.000000, 0.000276, 0.000000, 0.000000,10.326963,-5.025741, 2.852878,-1.973463,-9.087591,21.997069,10.326963,-5.025741, 2.852878,-1.973463,-9.087591,21.997069,10.326963,-5.025741, 2.852878,-1.973463,-9.087591,21.997069, 0.156941, 0.720299,14.625280,70.217922,300.297333, 0.724981, 0.266111,1829615.250000,300.000000,69.549992,-0.000000,-0.000001, 0.000000,-0.000001,-0.000001, 0.000000, 0.000000, 0.000001, 1.017236,-0.003018, 0.002045, 0.020081,-0.068025,,,,,,250218,10:05:39.100,36339.1
