Type,Units,Time,X Position,Y Position,Y Encoder,Z Position,Z Encoder,Yaw,Pitch,WAFBC Drag,WAFBC Side,WAFBC Lift,WAFBC Roll,WAFBC Pitch,WAFBC Yaw,WAFMC Drag,WAFMC Side,WAFMC Lift,WAFMC Roll,WAFMC Pitch,WAFMC Yaw,BAFMC Axial,BAFMC Side,BAFMC Normal,BAFMC Roll,BAFMC Pitch,BAFMC Yaw,DPT250,DPT251,PT250,TE250,Velocity,Dynamic Pressure,Mach,Reynolds Number per ft,Velocity Setpoint,Temperature Setpoint,cDAQ AI0,cDAQ AI1,cDAQ AI2,cDAQ AI3,cDAQ AI4,cDAQ AI5,cDAQ AI6,cDAQ AI7,cRIO AI0,cRIO AI1,cRIO AI2,cRIO AI3,Drag (raw),Side (raw),Lift (raw),Roll (raw),Pitch (raw),Yaw (raw),Date,ClockTime,Seconds
Type,USC / SI,Time,Inches / Millimeters,Inches / Millimeters,Inches / Millimeters,Inches / Millimeters,Inches / Millimeters,Degrees / Degrees,Degrees / Degrees,lb / N,lb / N,lb / N,ft-lb / N-m,ft-lb / N-m,ft-lb / N-m,lb / N,lb / N,lb / N,ft-lb / N-m,ft-lb / N-m,ft-lb / N-m,lb / N,lb / N,lb / N,ft-lb / N-m,ft-lb / N-m,ft-lb / N-m,PSId / Pascals,PSId / Pascals,PSIa / Pascals,F / F,Ft/s / m/s,PSId / Pascals, / ,1/ft / 1/ft,ft/s / m/s,F / F, / , / , / , / , / , / , / , / , / , / , / , / , / , / , / , / , / , / ,Time,,
Mult,USC,250218 10:23:03.925, 0.000000, 0.000000, 0.000000, 0.000000, 0.000315, 0.000000,-0.000002,13.150587,-6.055489,-6.435987, 0.026826,-2.036780,21.684146,13.150587,-6.055489,-6.435987, 0.026826,-2.036780,21.684146,13.150587,-6.055489,-6.435987, 0.026827,-2.036780,21.684146, 0.156920, 0.720485,14.625527,68.818915,300.021271, 0.725577, 0.266218,1836552.375000,300.000000,69.549992,-0.000001,-0.000000,-0.000001,-0.000001, 0.000000,-0.000001,-0.000001,-0.000001, 1.010989,-0.003021, 0.002423, 0.020490,-0.086745,,,,,,250218,10:23:03.925,37383.925
Mult,USC,250218 10:23:03.940, 0.000000, 0.000000, 0.000000, 0.000000, 0.000315, 0.000000,-0.000002,16.879881,-4.523930, 5.038901, 2.620834,-15.964658,21.380791,16.879881,-4.523930, 5.038901, 2.620834,-15.964658,21.380791,16.879881,-4.523930, 5.038901, 2.620835,-15.964658,21.380791, 0.156920, 0.720485,14.625527,68.818915,300.021271, 0.725577, 0.266218,1836552.375000,300.000000,69.549992,-0.000001,-0.000001,-0.000001, 0.000001,-0.000001, 0.000001,-0.000001, 0.000000, 1.011942,-0.003021, 0.002231, 0.020831,-0.112019,,,,,,250218,10:23:03.940,37383.94
Mult,USC,250218 10:23:03.955, 0.000000, 0.000000, 0.000000, 0.000000, 0.000315, 0.000000,-0.000002,16.928390,-5.085471, 7.576278,-2.202864,-18.655367,21.996807,16.928390,-5.085471, 7.576278,-2.202864,-18.655367,21.996807,16.928391,-5.085471, 7.576278,-2.202863,-18.655367,21.996807, 0.156920, 0.720485,14.625527,68.818915,300.021271, 0.725577, 0.266218,1836552.375000,300.000000,69.549992,-0.000001,-0.000000, 0.000000, 0.000000, 0.000000, 0.000000, 0.000000,-0.000001, 1.011813,-0.003336, 0.001846, 0.021405,-0.112137,,,,,,250218,10:23:03.955,37383.955
Mult,USC,250218 10:23:03.970, 0.000000, 0.000000, 0.000000, 0.000000, 0.000315, 0.000000,-0.000002,15.432897,-4.237743,-4.711359, 0.507069,-14.047219,22.592965,15.432897,-4.237743,-4.711359, 0.507069,-14.047219,22.592965,15.432896,-4.237743,-4.711359, 0.507069,-14.047219,22.592965, 0.156920, 0.720485,14.625527,68.818915,300.021271, 0.725577, 0.266218,1836552.375000,300.000000,69.549992,-0.000001,-0.000001, 0.000000,-0.000001,-0.000001,-0.000001, 0.000000,-0.000001, 1.010321,-0.002640, 0.001947, 0.019662,-0.102438,,,,,,250218,10:23:03.970,37383.97
Mult,USC,250218 10:23:03.985, 0.000000, 0.000000, 0.000000, 0.000000, 0.000315, 0.000000,-0.000002,12.127127,-5.226931, 0.866056, 0.799079,-14.953964,22.651841,12.127127,-5.226931, 0.866056, 0.799079,-14.953964,22.651841,12.127128,-5.226931, 0.866055, 0.799080,-14.953964,22.651841, 0.156920, 0.720485,14.625527,68.818915,300.021271, 0.725577, 0.266218,1836552.375000,300.000000,69.549992,-0.000000,-0.000000, 0.000000,-0.000001,-0.000001,-0.000001,-0.000001, 0.000001, 1.011209,-0.003247, 0.001559, 0.018817,-0.080073,,,,,,250218,10:23:03.985,37383.985
Mult,USC,250218 10:23:04.000, 0.000000, 0.000000, 0.000000, 0.000000, 0.000315, 0.000000,-0.000002,12.751530,-4.905774,12.195342, 0.560461,-10.366418,22.543989,12.751530,-4.905774,12.195342, 0.560461,-10.366418,22.543989,12.751531,-4.905774,12.195341, 0.560462,-10.366418,22.543989, 0.156920, 0.720485,14.625527,68.818915,300.021271, 0.725577, 0.266218,1836552.375000,300.000000,69.549992,-0.000000,-0.000000,-0.000001,-0.000001,-0.000001, 0.000001, 0.000000, 0.000000, 1.010474,-0.002927, 0.002109, 0.018967,-0.084404,,,,,,250218,10:23:04.000,37384.0
Mult,USC,250218 10:23:04.015, 0.000000, 0.000000, 0.000000, 0.000000, 0.000315, 0.000002, 0.000002,13.202944,-6.503985, 0.954180, 0.249675,-14.327773,23.088242,13.202944,-6.503985, 0.954180, 0.249675,-14.327773,23.088242,13.202945,-6.503985, 0.954180, 0.249674,-14.327773,23.088242, 0.156928, 0.720658,14.625365,68.818915,299.886475, 0.724966, 0.266098,1835831.125000,300.000000,69.549992,-0.000001,-0.000001,-0.000001,-0.000001, 0.000000,-0.000001,-0.000001,-0.000001, 1.011334,-0.002991, 0.001846, 0.018555,-0.086939,,,,,,250218,10:23:04.015,37384.015
Mult,USC,250218 10:23:04.030, 0.000000, 0.000000, 0.000000, 0.000000, 0.000315, 0.000002, 0.000002,16.197619,-5.844443,-3.020978, 1.966991,-21.099239,23.642721,16.197619,-5.844443,-3.020978, 1.966991,-21.099239,23.642721,16.197619,-5.844443,-3.020977, 1.966991,-21.099239,23.642721, 0.156928, 0.720658,14.625365,68.818915,299.886475, 0.724966, 0.266098,1835831.125000,300.000000,69.549992,-0.000000,-0.000001, 0.000000,-0.000001,-0.000001,-0.000001,-0.000001,-0.000001, 1.013217,-0.003082, 0.002161, 0.019098,-0.107217,,,,,,250218,10:23:04.030,37384.03
Mult,USC,250218 10:23:04.045, 0.000000, 0.000000, 0.000000, 0.000000, 0.000315, 0.000002, 0.000002,16.214249,-6.084226, 7.460441, 0.564619,-19.672792,23.796816,16.214249,-6.084226, 7.460441, 0.564619,-19.672792,23.796816,16.214249,-6.084226, 7.460441, 0.564619,-19.672792,23.796816, 0.156928, 0.720658,14.625365,68.818915,299.886475, 0.724966, 0.266098,1835831.125000,300.000000,69.549992, 0.000001,-0.000001,-0.000001,-0.000001,-0.000001,-0.000001,-0.000001, 0.000000, 1.010455,-0.003085, 0.001968, 0.022034,-0.107238,,,,,,250218,10:23:04.045,37384.045
Mult,USC,250218 10:23:04.060, 0.000000, 0.000000, 0.000000, 0.000000, 0.000315, 0.000002, 0.000002,14.116319,-5.415039, 3.989200, 2.852822,-21.646842,23.600651,14.116319,-5.415039, 3.989200, 2.852822,-21.646842,23.600651,14.116319,-5.415039, 3.989200, 2.852822,-21.646842,23.600651, 0.156928, 0.720658,14.625365,68.818915,299.886475, 0.724966, 0.266098,1835831.125000,300.000000,69.549992,-0.000001,-0.000000,-0.000001,-0.000001, 0.000000,-0.000001, 0.000001, 0.000000, 1.011053,-0.003143, 0.001813, 0.020901,-0.093435,,,,,,250218,10:23:04.060,37384.06
Mult,USC,250218 10:23:04.075, 0.000000, 0.000000, 0.000000, 0.000000, 0.000315, 0.000002, 0.000002,11.767046,-5.521051,-6.683551, 1.185768,-5.890091,22.573149,11.767046,-5.521051,-6.683551, 1.185768,-5.890091,22.573149,11.767046,-5.521051,-6.683550, 1.185767,-5.890091,22.573149, 0.156928, 0.720658,14.625365,68.818915,299.886475, 0.724966, 0.266098,1835831.125000,300.000000,69.549992,-0.000001,-0.000000,-0.000001,-0.000001,-0.000001,-0.000001,-0.000001, 0.000000, 1.013348,-0.002979, 0.002103, 0.021970,-0.077712,,,,,,250218,10:23:04.075,37384.075
Mult,USC,250218 10:23:04.090, 0.000000, 0.000000, 0.000000, 0.000000, 0.000315, 0.000002, 0.000002,15.098758,-5.684248, 1.694993, 0.286614,-20.983547,21.273825,15.098758,-5.684248, 1.694993, 0.286614,-20.983547,21.273825,15.098758,-5.684247, 1.694994, 0.286614,-20.983547,21.273825, 0.156928, 0.720658,14.625365,68.818915,299.886475, 0.724966, 0.266098,1835831.125000,300.000000,69.549992,-0.000000,-0.000001, 0.000000, 0.000000, 0.000001,-0.000001,-0.000001,-0.000001, 1.010928,-0.002957, 0.001846, 0.021472,-0.099795,,,,,,250218,10:23:04.090,37384.09
Mult,USC,250218 10:23:04.105, 0.000000, 0.000000, 0.000000, 0.000000, 0.000315, 0.000002, 0.000002,17.289758,-5.256341,10.408280,-1.039796,-19.334126,20.324931,17.289758,-5.256341,10.408280,-1.039796,-19.334126,20.324931,17.289758,-5.256340,10.408281,-1.039796,-19.334126,20.324931, 0.156928, 0.720658,14.625365,68.818915,299.886475, 0.724966, 0.266098,1835831.125000,300.000000,69.549992,-0.000001,-0.000000,-0.000001,-0.000001, 0.000000,-0.000001, 0.000000, 0.000000, 1.008820,-0.003113, 0.001846, 0.021277,-0.114549,,,,,,250218,10:23:04.105,37384.105
Mult,USC,250218 10:23:04.120, 0.000000, 0.000000, 0.000000, 0.000000, 0.000315, 0.000000,-0.000002,14.136295,-5.438663,-6.091575, 0.181169,-11.775139,20.478293,14.136295,-5.438663,-6.091575, 0.181169,-11.775139,20.478293,14.136295,-5.438663,-6.091575, 0.181170,-11.775139,20.478293, 0.156921, 0.720299,14.604734,68.818915,300.200531, 0.725411, 0.266377,1835037.250000,300.000000,69.549992,-0.000001,-0.000001,-0.000001, 0.000000,-0.000001,-0.000001,-0.000001,-0.000001, 1.008859,-0.002774, 0.001981, 0.019424,-0.093496,,,,,,250218,10:23:04.120,37384.12
Mult,USC,250218 10:23:04.135, 0.000000, 0.000000, 0.000000, 0.000000, 0.000315, 0.000000,-0.000002,13.548572,-4.375901, 0.051763, 1.252125,-9.746413,20.464074,13.548572,-4.375901, 0.051763, 1.252125,-9.746413,20.464074,13.548572,-4.375901, 0.051762, 1.252125,-9.746413,20.464074, 0.156921, 0.720299,14.604734,68.818915,300.200531, 0.725411, 0.266377,1835037.250000,300.000000,69.549992, 0.000001,-0.000001, 0.000000,-0.000001, 0.000000, 0.000000, 0.000001,-0.000001, 1.009686,-0.002991, 0.001968, 0.018472,-0.089702,,,,,,250218,10:23:04.135,37384.135
Mult,USC,250218 10:23:04.150, 0.000000, 0.000000, 0.000000, 0.000000, 0.000315, 0.000000,-0.000002,13.946825,-5.190378,12.695538,-0.790340,-20.556864,20.372177,13.946825,-5.190378,12.695538,-0.790340,-20.556864,20.372177,13.946825,-5.190378,12.695537,-0.790339,-20.556864,20.372177, 0.156921, 0.720299,14.604734,68.818915,300.200531, 0.725411, 0.266377,1835037.250000,300.000000,69.549992,-0.000001,-0.000000, 0.000000,-0.000001, 0.000000, 0.000000,-0.000001,-0.000001, 1.008731,-0.002899, 0.002194, 0.018433,-0.092307,,,,,,250218,10:23:04.150,37384.15
Mult,USC,250218 10:23:04.165, 0.000000, 0.000000, 0.000000, 0.000000, 0.000315, 0.000000,-0.000002,14.448874,-4.922886,-0.518954, 2.739713,-19.821922,20.436747,14.448874,-4.922886,-0.518954, 2.739713,-19.821922,20.436747,14.448874,-4.922886,-0.518955, 2.739714,-19.821922,20.436747, 0.156921, 0.720299,14.604734,68.818915,300.200531, 0.725411, 0.266377,1835037.250000,300.000000,69.549992,-0.000001,-0.000001,-0.000001, 0.000000, 0.000000, 0.000000,-0.000001, 0.000000, 1.009174,-0.003174, 0.002167, 0.018591,-0.095688,,,,,,250218,10:23:04.165,37384.165
Mult,USC,250218 10:23:04.180, 0.000000, 0.000000, 0.000000, 0.000000, 0.000315, 0.000000,-0.000002,13.501188,-5.476107,-6.419079,-0.571291,-17.640226,19.710435,13.501188,-5.476107,-6.419079,-0.571291,-17.640226,19.710435,13.501188,-5.476107,-6.419080,-0.571290,-17.640226,19.710435, 0.156921, 0.720299,14.604734,68.818915,300.200531, 0.725411, 0.266377,1835037.250000,300.000000,69.549992,-0.000001,-0.000001,-0.000001, 0.000000, 0.000000, 0.000000,-0.000001,-0.000001, 1.011276,-0.003421, 0.001968, 0.018561,-0.089262,,,,,,250218,10:23:04.180,37384.18
Mult,USC,250218 10:23:04.195, 0.000000, 0.000000, 0.000000, 0.000000, 0.000315, 0.000000,-0.000002,16.213603,-4.253800,12.340359, 1.726539,-17.704555,18.701988,16.213603,-4.253800,12.340359, 1.726539,-17.704555,18.701988,16.213604,-4.253800,12.340358, 1.726539,-17.704555,18.701988, 0.156921, 0.720299,14.604734,68.818915,300.200531, 0.725411, 0.266377,1835037.250000,300.000000,69.549992, 0.000001,-0.000001,-0.000001, 0.000000, 0.000000,-0.000001,-0.000001,-0.000001, 1.011343,-0.003369, 0.001910, 0.019638,-0.107668,,,,,,250218,10:23:04.195,37384.195
Mult,USC,250218 10:23:04.210, 0.000000, 0.000000, 0.000000, 0.000000, 0.000315, 0.000000,-0.000000, 2.968432,-0.870304, 1.445015,-0.384578,-4.500559, 3.796923, 2.968432,-0.870304, 1.445015,-0.384578,-4.500559, 3.796923, 2.968432,-0.870304, 1.445015,-0.384578,-4.500559, 3.796923, 0.156921, 0.720299,14.604734,68.818915,300.200531, 0.725411, 0.266377,1835037.250000,300.000000,69.549992,-0.000001,-0.000001,-0.000001,-0.000001,-0.000001, 0.000000, 0.000000,-0.000001, 1.002139,-0.000592, 0.000467, 0.004092,-0.019676,,,,,,250218,10:23:04.210,37384.21
Mult,USC,250218 10:23:04.225, 0.000000, 0.000000, 0.000000, 0.000000, 0.000315,-0.000002, 0.000000,12.884408,-4.886599,-9.324222,-0.414482,-6.335394,20.161370,12.884408,-4.886599,-9.324222,-0.414482,-6.335394,20.161370,12.884408,-4.886600,-9.324222,-0.414483,-6.335394,20.161370, 0.156918, 0.720444,14.612028,68.818915,299.894684, 0.725429, 0.266105,1836953.750000,300.000000,69.549992,-0.000001,-0.000001, 0.000000,-0.000001,-0.000001, 0.000000, 0.000000, 0.000000, 1.009366,-0.002765, 0.001874, 0.022253,-0.085302,,,,,,250218,10:23:04.225,37384.225
Mult,USC,250218 10:23:04.240, 0.000000, 0.000000, 0.000000, 0.000000, 0.000315,-0.000002, 0.000000,13.225072,-5.812318, 3.694030,-2.043784,-15.276205,21.563187,13.225072,-5.812318, 3.694030,-2.043784,-15.276205,21.563187,13.225072,-5.812319, 3.694030,-2.043785,-15.276205,21.563187, 0.156918, 0.720444,14.612028,68.818915,299.894684, 0.725429, 0.266105,1836953.750000,300.000000,69.549992,-0.000001,-0.000001, 0.000000, 0.000000, 0.000000, 0.000000, 0.000000, 0.000000, 1.011526,-0.003171, 0.002032, 0.022861,-0.087206,,,,,,250218,10:23:04.240,37384.24
Mult,USC,250218 10:23:04.255, 0.000000, 0.000000, 0.000000, 0.000000, 0.000315,-0.000002, 0.000000,16.149424,-5.165362,14.356165, 2.506641,-15.246717,22.959552,16.149424,-5.165362,14.356165, 2.506641,-15.246717,22.959552,16.149424,-5.165363,14.356165, 2.506640,-15.246717,22.959552, 0.156918, 0.720444,14.612028,68.818915,299.894684, 0.725429, 0.266105,1836953.750000,300.000000,69.549992,-0.000000,-0.000001,-0.000001,-0.000001,-0.000001,-0.000001, 0.000000, 0.000000, 1.012399,-0.002921, 0.001776, 0.020615,-0.107114,,,,,,250218,10:23:04.255,37384.255
Mult,USC,250218 10:23:04.270, 0.000000, 0.000000, 0.000000, 0.000000, 0.000315,-0.000002, 0.000000,15.335078,-5.949217,-6.320412, 1.560321,-21.914228,24.263240,15.335078,-5.949217,-6.320412, 1.560321,-21.914228,24.263240,15.335078,-5.949218,-6.320412, 1.560320,-21.914228,24.263240, 0.156918, 0.720444,14.612028,68.818915,299.894684, 0.725429, 0.266105,1836953.750000,300.000000,69.549992,-0.000000,-0.000001, 0.000000, 0.000000, 0.000000,-0.000001,-0.000001,-0.000001, 1.009967,-0.003265, 0.001782, 0.019070,-0.101519,,,,,,250218,10:23:04.270,37384.27
Mult,USC,250218 10:23:04.285, 0.000000, 0.000000, 0.000000, 0.000000, 0.000315,-0.000002, 0.000000,14.811578,-6.119941,-2.438947, 2.023387,-8.658189,23.992514,14.811578,-6.119941,-2.438947, 2.023387,-8.658189,23.992514,14.811578,-6.119942,-2.438947, 2.023387,-8.658190,23.992514, 0.156918, 0.720444,14.612028,68.818915,299.894684, 0.725429, 0.266105,1836953.750000,300.000000,69.549992,-0.000000,-0.000000, 0.000000,-0.000001,-0.000001,-0.000001,-0.000001,-0.000001, 1.010828,-0.003204, 0.002103, 0.019290,-0.097834,,,,,,250218,10:23:04.285,37384.285
Mult,USC,250218 10:23:04.300, 0.000000, 0.000000, 0.000000, 0.000000, 0.000315,-0.000002, 0.000000,14.431934,-6.437517,10.973080, 2.202667,-29.908833,22.855428,14.431934,-6.437517,10.973080, 2.202667,-29.908833,22.855428,14.431933,-6.437517,10.973080, 2.202666,-29.908833,22.855428, 0.156918, 0.720444,14.612028,68.818915,299.894684, 0.725429, 0.266105,1836953.750000,300.000000,69.549992,-0.000000,-0.000001, 0.000000,-0.000001,-0.000001, 0.000000, 0.000000,-0.000001, 1.011880,-0.002734, 0.001846, 0.020264,-0.095396,,,,,,250218,10:23:04.300,37384.3
Mult,USC,250218 10:23:04.315, 0.000000, 0.000000, 0.000000, 0.000000, 0.000315, 0.000002, 0.000000,14.110954,-5.685780, 5.079524, 1.172048,-15.620779,21.888471,14.110954,-5.685780, 5.079524, 1.172048,-15.620779,21.888471,14.110954,-5.685780, 5.079524, 1.172049,-15.620779,21.888471, 0.156926, 0.721110,14.635045,68.818915,299.830597, 0.725126, 0.266049,1836579.625000,300.000000,69.549992,-0.000001,-0.000001,-0.000001, 0.000000, 0.000000, 0.000000,-0.000001, 0.000000, 1.011780,-0.003363, 0.002167, 0.020367,-0.093247,,,,,,250218,10:23:04.315,37384.315
Mult,USC,250218 10:23:04.330, 0.000000, 0.000000, 0.000000, 0.000000, 0.000315, 0.000002, 0.000000,13.483417,-5.415073,-7.497788, 0.317577,-25.898916,21.471193,13.483417,-5.415073,-7.497788, 0.317577,-25.898916,21.471193,13.483417,-5.415072,-7.497788, 0.317578,-25.898916,21.471193, 0.156926, 0.721110,14.635045,68.818915,299.830597, 0.725126, 0.266049,1836579.625000,300.000000,69.549992,-0.000001,-0.000000,-0.000001, 0.000000, 0.000000,-0.000001,-0.000001,-0.000001, 1.009167,-0.003174, 0.002225, 0.021585,-0.089273,,,,,,250218,10:23:04.330,37384.33
Mult,USC,250218 10:23:04.345, 0.000000, 0.000000, 0.000000, 0.000000, 0.000315, 0.000002, 0.000000,14.890721,-3.982044, 7.122061, 0.163229,-21.169110,20.695136,14.890721,-3.982044, 7.122061, 0.163229,-21.169110,20.695136,14.890721,-3.982044, 7.122061, 0.163230,-21.169110,20.695136, 0.156926, 0.721110,14.635045,68.818915,299.830597, 0.725126, 0.266049,1836579.625000,300.000000,69.549992,-0.000000,-0.000001,-0.000001,-0.000001,-0.000001,-0.000001,-0.000002, 0.000000, 1.013443,-0.002869, 0.001880, 0.022098,-0.098853,,,,,,250218,10:23:04.345,37384.345
Mult,USC,250218 10:23:04.360, 0.000000, 0.000000, 0.000000, 0.000000, 0.000315, 0.000002, 0.000000,13.901759,-4.677690, 9.956119,-1.223050,-14.881895,20.589584,13.901759,-4.677690, 9.956119,-1.223050,-14.881895,20.589584,13.901759,-4.677689, 9.956119,-1.223050,-14.881895,20.589584, 0.156926, 0.721110,14.635045,68.818915,299.830597, 0.725126, 0.266049,1836579.625000,300.000000,69.549992,-0.000000,-0.000000, 0.000000,-0.000001, 0.000000, 0.000001,-0.000001, 0.000000, 1.010300,-0.002985, 0.001712, 0.021115,-0.092057,,,,,,250218,10:23:04.360,37384.36
Mult,USC,250218 10:23:04.375, 0.000000, 0.000000, 0.000000, 0.000000, 0.000315, 0.000002, 0.000000,13.638035,-4.137616,-3.484900,-1.887186,-13.527415,21.107501,13.638035,-4.137616,-3.484900,-1.887186,-13.527415,21.107501,13.638035,-4.137616,-3.484900,-1.887186,-13.527415,21.107501, 0.156926, 0.721110,14.635045,68.818915,299.830597, 0.725126, 0.266049,1836579.625000,300.000000,69.549992,-0.000001,-0.000001,-0.000001, 0.000000, 0.000000,-0.000001, 0.000000,-0.000001, 1.010449,-0.003265, 0.002063, 0.021497,-0.090380,,,,,,250218,10:23:04.375,37384.375
Mult,USC,250218 10:23:04.390, 0.000000, 0.000000, 0.000000, 0.000000, 0.000315, 0.000002, 0.000000,15.315247,-4.601423,-1.332244, 0.438237,-7.135541,21.731950,15.315247,-4.601423,-1.332244, 0.438237,-7.135541,21.731950,15.315247,-4.601422,-1.332244, 0.438238,-7.135541,21.731950, 0.156926, 0.721110,14.635045,68.818915,299.830597, 0.725126, 0.266049,1836579.625000,300.000000,69.549992,-0.000001,-0.000001,-0.000001,-0.000001, 0.000000, 0.000001, 0.000000,-0.000001, 1.011377,-0.002795, 0.001935, 0.022229,-0.101439,,,,,,250218,10:23:04.390,37384.39
Mult,USC,250218 10:23:04.405, 0.000000, 0.000000, 0.000000, 0.000000, 0.000315, 0.000002, 0.000000,16.719678,-4.937147, 9.354161,-0.984456,-15.517327,22.554426,16.719678,-4.937147, 9.354161,-0.984456,-15.517327,22.554426,16.719678,-4.937146, 9.354161,-0.984456,-15.517327,22.554426, 0.156926, 0.721110,14.635045,68.818915,299.830597, 0.725126, 0.266049,1836579.625000,300.000000,69.549992,-0.000001,-0.000001, 0.000000, 0.000000,-0.000001, 0.000000,-0.000001,-0.000001, 1.011438,-0.002963, 0.002066, 0.021906,-0.110819,,,,,,250218,10:23:04.405,37384.405
Mult,USC,250218 10:23:04.420, 0.000000, 0.000000, 0.000000, 0.000000, 0.000315, 0.000002, 0.000002,15.583550,-5.917272, 1.360469, 2.332847,-2.965132,23.416400,15.583550,-5.917272, 1.360469, 2.332847,-2.965132,23.416400,15.583550,-5.917271, 1.360470, 2.332847,-2.965132,23.416400, 0.156881, 0.721075,14.629257,68.829406,299.838562, 0.724459, 0.266053,1834812.250000,300.000000,69.549992,-0.000001,-0.000001, 0.000000,-0.000001,-0.000001,-0.000001,-0.000001, 0.000000, 1.013043,-0.003140, 0.001910, 0.022855,-0.102957,,,,,,250218,10:23:04.420,37384.42
Mult,USC,250218 10:23:04.435, 0.000000, 0.000000, 0.000000, 0.000000, 0.000315, 0.000002, 0.000002,14.656303,-6.859308,-5.378947, 2.126893,-12.032579,24.014871,14.656303,-6.859308,-5.378947, 2.126893,-12.032579,24.014871,14.656303,-6.859307,-5.378946, 2.126893,-12.032579,24.014871, 0.156881, 0.721075,14.629257,68.829406,299.838562, 0.724459, 0.266053,1834812.250000,300.000000,69.549992,-0.000001,-0.000001,-0.000001,-0.000001,-0.000001, 0.000001, 0.000000, 0.000000, 1.014337,-0.003021, 0.002191, 0.020770,-0.096717,,,,,,250218,10:23:04.435,37384.435
Mult,USC,250218 10:23:04.450, 0.000000, 0.000000, 0.000000, 0.000000, 0.000315, 0.000002, 0.000002,14.417514,-6.598074, 5.655077, 5.304783,-5.790195,23.615622,14.417514,-6.598074, 5.655077, 5.304783,-5.790195,23.615622,14.417514,-6.598073, 5.655077, 5.304783,-5.790195,23.615622, 0.156881, 0.721075,14.629257,68.829406,299.838562, 0.724459, 0.266053,1834812.250000,300.000000,69.549992,-0.000000,-0.000001, 0.000000,-0.000001, 0.000000,-0.000001,-0.000001,-0.000001, 1.010422,-0.003052, 0.001910, 0.020715,-0.095168,,,,,,250218,10:23:04.450,37384.45
Mult,USC,250218 10:23:04.465, 0.000000, 0.000000, 0.000000, 0.000000, 0.000315, 0.000002, 0.000002,13.014575,-6.715312, 3.762327, 2.596836,-14.053772,22.809000,13.014575,-6.715312, 3.762327, 2.596836,-14.053772,22.809000,13.014575,-6.715312, 3.762327, 2.596836,-14.053772,22.809000, 0.156881, 0.721075,14.629257,68.829406,299.838562, 0.724459, 0.266053,1834812.250000,300.000000,69.549992,-0.000001,-0.000001,-0.000001,-0.000001,-0.000001,-0.000001, 0.000000,-0.000001, 1.010992,-0.002917, 0.002069, 0.018436,-0.085723,,,,,,250218,10:23:04.465,37384.465
Mult,USC,250218 10:23:04.480, 0.000000, 0.000000, 0.000000, 0.000000, 0.000315, 0.000002, 0.000002,14.735351,-4.993778, 0.451333, 1.293456,-18.303978,21.295390,14.735351,-4.993778, 0.451333, 1.293456,-18.303978,21.295390,14.735352,-4.993778, 0.451334, 1.293456,-18.303978,21.295390, 0.156881, 0.721075,14.629257,68.829406,299.838562, 0.724459, 0.266053,1834812.250000,300.000000,69.549992,-0.000001,-0.000001,-0.000001,-0.000001, 0.000000,-0.000001,-0.000001, 0.000000, 1.010645,-0.003204, 0.001718, 0.018848,-0.097531,,,,,,250218,10:23:04.480,37384.48
Mult,USC,250218 10:23:04.495, 0.000000, 0.000000, 0.000000, 0.000000, 0.000315, 0.000002, 0.000002,16.190961,-4.565818, 3.097418, 0.315828,-19.515853,19.495658,16.190961,-4.565818, 3.097418, 0.315828,-19.515853,19.495658,16.190961,-4.565817, 3.097419, 0.315828,-19.515853,19.495658, 0.156881, 0.721075,14.629257,68.829406,299.838562, 0.724459, 0.266053,1834812.250000,300.000000,69.549992,-0.000001, 0.000001,-0.000001,-0.000001, 0.000000,-0.000001,-0.000001,-0.000001, 1.011942,-0.003113, 0.001648, 0.020016,-0.107325,,,,,,250218,10:23:04.495,37384.495
Mult,USC,250218 10:23:04.510, 0.000000, 0.000000, 0.000000, 0.000000, 0.000315, 0.000000, 0.000000, 2.700907,-0.849585, 0.475981,-0.282923,-1.957746, 3.728145, 2.700907,-0.849585, 0.475981,-0.282923,-1.957746, 3.728145, 2.700907,-0.849585, 0.475981,-0.282923,-1.957746, 3.728145, 0.156881, 0.721075,14.629257,68.829406,299.838562, 0.724459, 0.266053,1834812.250000,300.000000,69.549992,-0.000001,-0.000000, 0.000000, 0.000000,-0.000001,-0.000001,-0.000001,-0.000001, 1.002237,-0.000562, 0.000369, 0.004501,-0.017873,,,,,,250218,10:23:04.510,37384.51
Mult,USC,250218 10:23:04.525, 0.000000, 0.000000, 0.000000, 0.000000, 0.000315,-0.000002,-0.000002,13.173697,-4.588841, 3.052114,-2.551829,-11.876507,18.321926,13.173697,-4.588841, 3.052114,-2.551829,-11.876507,18.321926,13.173697,-4.588841, 3.052113,-2.551828,-11.876507,18.321926, 0.156952, 0.719413,14.606619,68.829406,299.931396, 0.725002, 0.266135,1835618.250000,300.000000,69.549992,-0.000001, 0.000001,-0.000001,-0.000001,-0.000001,-0.000001,-0.000001, 0.000000, 1.011758,-0.002991, 0.001749, 0.020203,-0.087068,,,,,,250218,10:23:04.525,37384.525
Mult,USC,250218 10:23:04.540, 0.000000, 0.000000, 0.000000, 0.000000, 0.000315,-0.000002,-0.000002,15.891227,-4.361019, 5.966074, 0.353091,-4.623486,18.938577,15.891227,-4.361019, 5.966074, 0.353091,-4.623486,18.938577,15.891227,-4.361020, 5.966074, 0.353091,-4.623486,18.938577, 0.156952, 0.719413,14.606619,68.829406,299.931396, 0.725002, 0.266135,1835618.250000,300.000000,69.549992,-0.000001,-0.000001,-0.000001, 0.000000,-0.000001,-0.000001, 0.000000, 0.000001, 1.009872,-0.002838, 0.002289, 0.021371,-0.105318,,,,,,250218,10:23:04.540,37384.54
Mult,USC,250218 10:23:04.555, 0.000000, 0.000000, 0.000000, 0.000000, 0.000315,-0.000002,-0.000002,15.534846,-5.159116,-2.458488, 1.918129,-10.889515,20.118625,15.534846,-5.159116,-2.458488, 1.918129,-10.889515,20.118625,15.534846,-5.159116,-2.458489, 1.918130,-10.889515,20.118625, 0.156952, 0.719413,14.606619,68.829406,299.931396, 0.725002, 0.266135,1835618.250000,300.000000,69.549992,-0.000001,-0.000001,-0.000001,-0.000001,-0.000001, 0.000000, 0.000000,-0.000001, 1.011758,-0.002921, 0.001910, 0.019473,-0.102840,,,,,,250218,10:23:04.555,37384.555
Mult,USC,250218 10:23:04.570, 0.000000, 0.000000, 0.000000, 0.000000, 0.000315,-0.000002,-0.000002,14.073361,-5.352035,-1.781886, 2.026442,-2.269040,20.746334,14.073361,-5.352035,-1.781886, 2.026442,-2.269040,20.746334,14.073361,-5.352036,-1.781886, 2.026443,-2.269040,20.746334, 0.156952, 0.719413,14.606619,68.829406,299.931396, 0.725002, 0.266135,1835618.250000,300.000000,69.549992,-0.000001,-0.000000,-0.000001,-0.000001, 0.000000,-0.000001,-0.000001,-0.000001, 1.009558,-0.003387, 0.001682, 0.020020,-0.092996,,,,,,250218,10:23:04.570,37384.57
Mult,USC,250218 10:23:04.585, 0.000000, 0.000000, 0.000000, 0.000000, 0.000315,-0.000002,-0.000002,14.728331,-5.679568, 8.827135, 0.384280,-7.643251,20.844716,14.728331,-5.679568, 8.827135, 0.384280,-7.643251,20.844716,14.728331,-5.679569, 8.827134, 0.384280,-7.643251,20.844716, 0.156952, 0.719413,14.606619,68.829406,299.931396, 0.725002, 0.266135,1835618.250000,300.000000,69.549992,-0.000001,-0.000001, 0.000000,-0.000001, 0.000000, 0.000000, 0.000000,-0.000001, 1.011270,-0.003308, 0.001999, 0.019159,-0.097329,,,,,,250218,10:23:04.585,37384.585
Mult,USC,250218 10:23:04.600, 0.000000, 0.000000, 0.000000, 0.000000, 0.000315,-0.000002,-0.000002,15.498805,-5.082087, 0.331444, 2.076665,-17.798643,20.904513,15.498805,-5.082087, 0.331444, 2.076665,-17.798643,20.904513,15.498805,-5.082088, 0.331444, 2.076665,-17.798643,20.904513, 0.156952, 0.719413,14.606619,68.829406,299.931396, 0.725002, 0.266135,1835618.250000,300.000000,69.549992,-0.000000,-0.000001,-0.000001, 0.000000, 0.000000,-0.000001,-0.000001, 0.000000, 1.010678,-0.002826, 0.001917, 0.018555,-0.102615,,,,,,250218,10:23:04.600,37384.6
Mult,USC,250218 10:23:04.615, 0.000000, 0.000000, 0.000000, 0.000000, 0.000315,-0.000002,-0.000002,13.486891,-5.531385,-5.458846, 0.253486,-4.984761,20.790866,13.486891,-5.531385,-5.458846, 0.253486,-4.984761,20.790866,13.486891,-5.531385,-5.458847, 0.253486,-4.984761,20.790866, 0.156928, 0.720653,14.612178,68.829406,299.931702, 0.725251, 0.266136,1836247.750000,300.000000,69.549992,-0.000001,-0.000000, 0.000000, 0.000000,-0.000001,-0.000001, 0.000001, 0.000000, 1.012753,-0.003281, 0.002002, 0.019543,-0.089097,,,,,,250218,10:23:04.615,37384.615
Mult,USC,250218 10:23:04.630, 0.000000, 0.000000, 0.000000, 0.000000, 0.000315,-0.000002,-0.000002,15.392571,-5.455466,10.313499, 0.499146,-12.075043,20.710408,15.392571,-5.455466,10.313499, 0.499146,-12.075043,20.710408,15.392571,-5.455466,10.313498, 0.499146,-12.075043,20.710408, 0.156928, 0.720653,14.612178,68.829406,299.931702, 0.725251, 0.266136,1836247.750000,300.000000,69.549992,-0.000001,-0.000001,-0.000001,-0.000001, 0.000000,-0.000001,-0.000001,-0.000001, 1.013800,-0.002835, 0.002039, 0.019604,-0.101853,,,,,,250218,10:23:04.630,37384.63
Mult,USC,250218 10:23:04.645, 0.000000, 0.000000, 0.000000, 0.000000, 0.000315,-0.000002,-0.000002,15.225770,-5.374521,10.550575, 1.044346,-14.932967,21.311265,15.225770,-5.374521,10.550575, 1.044346,-14.932967,21.311265,15.225770,-5.374521,10.550574, 1.044346,-14.932967,21.311265, 0.156928, 0.720653,14.612178,68.829406,299.931702, 0.725251, 0.266136,1836247.750000,300.000000,69.549992,-0.000000,-0.000001,-0.000001, 0.000000,-0.000001, 0.000001, 0.000000, 0.000000, 1.012268,-0.003082, 0.002014, 0.019193,-0.100800,,,,,,250218,10:23:04.645,37384.645
Mult,USC,250218 10:23:04.660, 0.000000, 0.000000, 0.000000, 0.000000, 0.000315,-0.000002,-0.000002,13.069458,-5.703632,-7.003745, 0.722245,-15.313611,22.442607,13.069458,-5.703632,-7.003745, 0.722245,-15.313611,22.442607,13.069458,-5.703633,-7.003745, 0.722246,-15.313611,22.442607, 0.156928, 0.720653,14.612178,68.829406,299.931702, 0.725251, 0.266136,1836247.750000,300.000000,69.549992,-0.000001,-0.000001,-0.000001,-0.000001,-0.000001, 0.000000,-0.000001, 0.000000, 1.012433,-0.003265, 0.001846, 0.021063,-0.086400,,,,,,250218,10:23:04.660,37384.66
Mult,USC,250218 10:23:04.675, 0.000000, 0.000000, 0.000000, 0.000000, 0.000315,-0.000002,-0.000002,12.298696,-5.474615,-0.847674,-0.549051,-22.685144,22.532234,12.298696,-5.474615,-0.847674,-0.549051,-22.685144,22.532234,12.298696,-5.474615,-0.847675,-0.549051,-22.685144,22.532234, 0.156928, 0.720653,14.612178,68.829406,299.931702, 0.725251, 0.266136,1836247.750000,300.000000,69.549992,-0.000000,-0.000000, 0.000000,-0.000001,-0.000001, 0.000000,-0.000001,-0.000001, 1.014850,-0.002991, 0.001947, 0.021530,-0.081175,,,,,,250218,10:23:04.675,37384.675
Mult,USC,250218 10:23:04.690, 0.000000, 0.000000, 0.000000, 0.000000, 0.000315,-0.000002,-0.000002,14.570637,-5.418303,12.831797, 4.073859,-11.450912,21.902272,14.570637,-5.418303,12.831797, 4.073859,-11.450912,21.902272,14.570637,-5.418304,12.831797, 4.073859,-11.450912,21.902272, 0.156928, 0.720653,14.612178,68.829406,299.931702, 0.725251, 0.266136,1836247.750000,300.000000,69.549992,-0.000001,-0.000001,-0.000001,-0.000001, 0.000000, 0.000000,-0.000001, 0.000000, 1.010126,-0.003052, 0.002002, 0.020737,-0.096517,,,,,,250218,10:23:04.690,37384.69
Mult,USC,250218 10:23:04.705, 0.000000, 0.000000, 0.000000, 0.000000, 0.000315,-0.000002,-0.000002,16.619090,-5.011321,-1.626365, 0.707736,-18.770162,21.083036,16.619090,-5.011321,-1.626365, 0.707736,-18.770162,21.083036,16.619089,-5.011321,-1.626366, 0.707736,-18.770162,21.083036, 0.156928, 0.720653,14.612178,68.829406,299.931702, 0.725251, 0.266136,1836247.750000,300.000000,69.549992,-0.000001,-0.000001, 0.000000,-0.000001,-0.000001, 0.000000,-0.000001,-0.000001, 1.010925,-0.003052, 0.001877, 0.021722,-0.110108,,,,,,250218,10:23:04.705,37384.705
Mult,USC,250218 10:23:04.720, 0.000000, 0.000000, 0.000000, 0.000000, 0.000315, 0.000000, 0.000002,15.504180,-4.567626,-9.592613, 1.904318,-8.522677,20.020222,15.504180,-4.567626,-9.592613, 1.904318,-8.522677,20.020222,15.504181,-4.567626,-9.592613, 1.904318,-8.522677,20.020222, 0.156918, 0.721554,14.630282,68.829406,299.826355, 0.724566, 0.266042,1835158.875000,300.000000,69.549992,-0.000001,-0.000001,-0.000001,-0.000001,-0.000001, 0.000000,-0.000001,-0.000001, 1.010233,-0.002856, 0.002066, 0.020334,-0.102928,,,,,,250218,10:23:04.720,37384.72
Mult,USC,250218 10:23:04.735, 0.000000, 0.000000, 0.000000, 0.000000, 0.000315, 0.000000, 0.000002,14.391204,-4.472745, 9.131677,-1.493604,-9.184085,19.088857,14.391204,-4.472745, 9.131677,-1.493604,-9.184085,19.088857,14.391204,-4.472745, 9.131678,-1.493605,-9.184085,19.088857, 0.156918, 0.721554,14.630282,68.829406,299.826355, 0.724566, 0.266042,1835158.875000,300.000000,69.549992,-0.000001,-0.000001,-0.000001,-0.000001,-0.000001,-0.000001,-0.000001,-0.000001, 1.011755,-0.002808, 0.001694, 0.020615,-0.095303,,,,,,250218,10:23:04.735,37384.735
Mult,USC,250218 10:23:04.750, 0.000000, 0.000000, 0.000000, 0.000000, 0.000315, 0.000000, 0.000002,14.185550,-4.322067, 7.581792,-1.235723,-18.671948,19.306565,14.185550,-4.322067, 7.581792,-1.235723,-18.671948,19.306565,14.185550,-4.322067, 7.581792,-1.235724,-18.671948,19.306565, 0.156918, 0.721554,14.630282,68.829406,299.826355, 0.724566, 0.266042,1835158.875000,300.000000,69.549992,-0.000001,-0.000001,-0.000001,-0.000001, 0.000000,-0.000001,-0.000001,-0.000001, 1.011368,-0.003427, 0.001364, 0.019708,-0.094010,,,,,,250218,10:23:04.750,37384.75
Mult,USC,250218 10:23:04.765, 0.000000, 0.000000, 0.000000, 0.000000, 0.000315, 0.000000, 0.000002,14.513725,-4.428667,-5.482638,-2.214821,-7.986401,20.599952,14.513725,-4.428667,-5.482638,-2.214821,-7.986401,20.599952,14.513725,-4.428667,-5.482638,-2.214822,-7.986401,20.599952, 0.156918, 0.721554,14.630282,68.829406,299.826355, 0.724566, 0.266042,1835158.875000,300.000000,69.549992,-0.000001,-0.000000,-0.000001, 0.000000,-0.000001,-0.000001, 0.000001,-0.000001, 1.011407,-0.003430, 0.001910, 0.019641,-0.096155,,,,,,250218,10:23:04.765,37384.765
Mult,USC,250218 10:23:04.780, 0.000000, 0.000000, 0.000000, 0.000000, 0.000315, 0.000000, 0.000002,15.107469,-4.638908,-0.700053, 0.330206,-9.499872,21.874210,15.107469,-4.638908,-0.700053, 0.330206,-9.499872,21.874210,15.107469,-4.638908,-0.700053, 0.330205,-9.499872,21.874210, 0.156918, 0.721554,14.630282,68.829406,299.826355, 0.724566, 0.266042,1835158.875000,300.000000,69.549992,-0.000001,-0.000001,-0.000001,-0.000001,-0.000001,-0.000001,-0.000001,-0.000001, 1.010770,-0.002921, 0.002039, 0.021021,-0.100041,,,,,,250218,10:23:04.780,37384.78
Mult,USC,250218 10:23:04.795, 0.000000, 0.000000, 0.000000, 0.000000, 0.000315, 0.000000, 0.000002,14.772093,-5.987592,13.296604, 2.808290,-18.856745,22.309147,14.772093,-5.987592,13.296604, 2.808290,-18.856745,22.309147,14.772093,-5.987592,13.296605, 2.808289,-18.856745,22.309147, 0.156918, 0.721554,14.630282,68.829406,299.826355, 0.724566, 0.266042,1835158.875000,300.000000,69.549992,-0.000000,-0.000001,-0.000001, 0.000000,-0.000001, 0.000000, 0.000000,-0.000001, 1.012262,-0.002838, 0.001724, 0.021979,-0.097745,,,,,,250218,10:23:04.795,37384.795
Mult,USC,250218 10:23:04.810, 0.000000, 0.000000, 0.000000, 0.000000, 0.000315, 0.000000, 0.000000, 2.742894,-1.268413, 0.812277, 0.328394,-3.677071, 4.504831, 2.742894,-1.268413, 0.812277, 0.328394,-3.677071, 4.504831, 2.742894,-1.268413, 0.812278, 0.328394,-3.677071, 4.504831, 0.156918, 0.721554,14.630282,68.829406,299.826355, 0.724566, 0.266042,1835158.875000,300.000000,69.549992,-0.000000,-0.000000, 0.000000, 0.000000, 0.000000,-0.000001,-0.000001, 0.000000, 1.002524,-0.000687, 0.000400, 0.004407,-0.018095,,,,,,250218,10:23:04.810,37384.81
Mult,USC,250218 10:23:04.825, 0.000000, 0.000000, 0.000000, 0.000000, 0.000315, 0.000000, 0.000000,13.686895,-6.288460,-6.950150, 2.620952,-19.701872,21.757835,13.686895,-6.288460,-6.950150, 2.620952,-19.701872,21.757835,13.686895,-6.288460,-6.950150, 2.620952,-19.701872,21.757835, 0.156937, 0.721360,14.627726,68.829406,300.139618, 0.726244, 0.266320,1837488.500000,300.000000,69.549992,-0.000000,-0.000000, 0.000000,-0.000001,-0.000001,-0.000001, 0.000000,-0.000001, 1.010953,-0.003082, 0.001981, 0.022849,-0.090447,,,,,,250218,10:23:04.825,37384.825
Mult,USC,250218 10:23:04.840, 0.000000, 0.000000, 0.000000, 0.000000, 0.000315, 0.000000, 0.000000,14.813896,-5.932918, 5.294886, 0.443453,-26.006876,20.760302,14.813896,-5.932918, 5.294886, 0.443453,-26.006876,20.760302,14.813896,-5.932918, 5.294886, 0.443453,-26.006876,20.760302, 0.156937, 0.721360,14.627726,68.829406,300.139618, 0.726244, 0.266320,1837488.500000,300.000000,69.549992,-0.000000,-0.000001,-0.000001, 0.000000,-0.000001,-0.000001, 0.000000,-0.000001, 1.009079,-0.002734, 0.001846, 0.023801,-0.097902,,,,,,250218,10:23:04.840,37384.84
Mult,USC,250218 10:23:04.855, 0.000000, 0.000000, 0.000000, 0.000000, 0.000315, 0.000000, 0.000000,13.630055,-5.699371, 8.450987, 0.985116,-15.922807,20.279153,13.630055,-5.699371, 8.450987, 0.985116,-15.922807,20.279153,13.630055,-5.699371, 8.450987, 0.985116,-15.922807,20.279153, 0.156937, 0.721360,14.627726,68.829406,300.139618, 0.726244, 0.266320,1837488.500000,300.000000,69.549992,-0.000001, 0.000001,-0.000001,-0.000001,-0.000001,-0.000001,-0.000001, 0.000000, 1.011722,-0.002917, 0.001752, 0.023798,-0.090049,,,,,,250218,10:23:04.855,37384.855
Mult,USC,250218 10:23:04.870, 0.000000, 0.000000, 0.000000, 0.000000, 0.000315, 0.000000, 0.000000,14.920609,-4.027508,-1.136232, 0.223822,-20.497148,20.406536,14.920609,-4.027508,-1.136232, 0.223822,-20.497148,20.406536,14.920609,-4.027508,-1.136232, 0.223822,-20.497148,20.406536, 0.156937, 0.721360,14.627726,68.829406,300.139618, 0.726244, 0.266320,1837488.500000,300.000000,69.549992,-0.000001,-0.000001, 0.000000,-0.000001, 0.000000,-0.000001,-0.000001, 0.000000, 1.008704,-0.003204, 0.001935, 0.021338,-0.098985,,,,,,250218,10:23:04.870,37384.87
Mult,USC,250218 10:23:04.885, 0.000000, 0.000000, 0.000000, 0.000000, 0.000315, 0.000000, 0.000000,14.516650,-4.045032,-1.031699,-0.613662,-17.092685,20.142462,14.516650,-4.045032,-1.031699,-0.613662,-17.092685,20.142462,14.516650,-4.045032,-1.031699,-0.613662,-17.092685,20.142462, 0.156937, 0.721360,14.627726,68.829406,300.139618, 0.726244, 0.266320,1837488.500000,300.000000,69.549992,-0.000001,-0.000001,-0.000001, 0.000000,-0.000001,-0.000001, 0.000000,-0.000001, 1.010422,-0.003082, 0.001746, 0.021371,-0.096241,,,,,,250218,10:23:04.885,37384.885
Mult,USC,250218 10:23:04.900, 0.000000, 0.000000, 0.000000, 0.000000, 0.000315, 0.000000, 0.000000,13.689384,-4.410792, 4.517776, 0.771756,-14.313347,19.443427,13.689384,-4.410792, 4.517776, 0.771756,-14.313347,19.443427,13.689384,-4.410792, 4.517776, 0.771756,-14.313347,19.443427, 0.156937, 0.721360,14.627726,68.829406,300.139618, 0.726244, 0.266320,1837488.500000,300.000000,69.549992,-0.000001,-0.000001,-0.000001, 0.000001, 0.000000,-0.000001,-0.000001,-0.000001, 1.011978,-0.003174, 0.002103, 0.021408,-0.090676,,,,,,250218,10:23:04.900,37384.9
Mult,USC,250218 10:23:04.915, 0.000000, 0.000000, 0.000000, 0.000000, 0.000315,-0.000002, 0.000000,14.377761,-5.242605, 6.942282,-3.720743,-14.401451,19.505347,14.377761,-5.242605, 6.942282,-3.720743,-14.401451,19.505347,14.377761,-5.242605, 6.942282,-3.720743,-14.401451,19.505347, 0.156937, 0.721360,14.627726,68.829406,300.139618, 0.726244, 0.266320,1837488.500000,300.000000,69.549992,-0.000001,-0.000001,-0.000001, 0.000000,-0.000001, 0.000000,-0.000001, 0.000000, 1.013126,-0.003082, 0.002069, 0.020398,-0.094990,,,,,,250218,10:23:04.915,37384.915
Mult,USC,250218 10:23:04.930, 0.000000, 0.000000, 0.000000, 0.000000, 0.000315,-0.000002, 0.000000,16.042255,-4.603815,-1.874528, 2.752362,-11.860575,19.943149,16.042255,-4.603815,-1.874528, 2.752362,-11.860575,19.943149,16.042254,-4.603815,-1.874528, 2.752362,-11.860575,19.943149, 0.156937, 0.721360,14.627726,68.829406,300.139618, 0.726244, 0.266320,1837488.500000,300.000000,69.549992,-0.000001,-0.000001,-0.000001,-0.000001,-0.000001, 0.000000,-0.000001,-0.000001, 1.013037,-0.003146, 0.001938, 0.020642,-0.106365,,,,,,250218,10:23:04.930,37384.93
Mult,USC,250218 10:23:04.945, 0.000000, 0.000000, 0.000000, 0.000000, 0.000315,-0.000002, 0.000000,15.472933,-5.863200,-1.303877,-0.004761,-24.311581,20.954214,15.472933,-5.863200,-1.303877,-0.004761,-24.311581,20.954214,15.472933,-5.863201,-1.303877,-0.004762,-24.311581,20.954214, 0.156937, 0.721360,14.627726,68.829406,300.139618, 0.726244, 0.266320,1837488.500000,300.000000,69.549992,-0.000001,-0.000000,-0.000001, 0.000000, 0.000000,-0.000001,-0.000001, 0.000000, 1.015207,-0.002927, 0.001712, 0.023508,-0.102267,,,,,,250218,10:23:04.945,37384.945
Mult,USC,250218 10:23:04.960, 0.000000, 0.000000, 0.000000, 0.000000, 0.000315,-0.000002, 0.000000,13.740848,-5.508735, 7.873174,-0.419460,-18.973516,22.022362,13.740848,-5.508735, 7.873174,-0.419460,-18.973516,22.022362,13.740848,-5.508735, 7.873174,-0.419461,-18.973516,22.022362, 0.156937, 0.721360,14.627726,68.829406,300.139618, 0.726244, 0.266320,1837488.500000,300.000000,69.549992,-0.000001,-0.000001, 0.000000,-0.000001,-0.000001, 0.000000,-0.000001,-0.000001, 1.012076,-0.002948, 0.002103, 0.023868,-0.090828,,,,,,250218,10:23:04.960,37384.96
Mult,USC,250218 10:23:04.975, 0.000000, 0.000000, 0.000000, 0.000000, 0.000315,-0.000002, 0.000000,12.477382,-5.619285, 3.795281, 0.884496,-14.021255,23.281882,12.477382,-5.619285, 3.795281, 0.884496,-14.021255,23.281882,12.477382,-5.619286, 3.795281, 0.884496,-14.021255,23.281882, 0.156937, 0.721360,14.627726,68.829406,300.139618, 0.726244, 0.266320,1837488.500000,300.000000,69.549992,-0.000000,-0.000000,-0.000001,-0.000001,-0.000001, 0.000000,-0.000001, 0.000000, 1.011569,-0.003427, 0.001846, 0.021722,-0.082355,,,,,,250218,10:23:04.975,37384.975
Mult,USC,250218 10:23:04.990, 0.000000, 0.000000, 0.000000, 0.000000, 0.000315,-0.000002, 0.000000,14.325867,-5.817488,-2.347791, 1.865220,-23.334600,24.011681,14.325867,-5.817488,-2.347791, 1.865220,-23.334600,24.011681,14.325867,-5.817489,-2.347791, 1.865219,-23.334600,24.011681, 0.156937, 0.721360,14.627726,68.829406,300.139618, 0.726244, 0.266320,1837488.500000,300.000000,69.549992,-0.000000,-0.000000, 0.000000, 0.000000,-0.000001,-0.000001,-0.000001,-0.000001, 1.011313,-0.003171, 0.001752, 0.023837,-0.094738,,,,,,250218,10:23:04.990,37384.99
Mult,USC,250218 10:23:05.005, 0.000000, 0.000000, 0.000000, 0.000000, 0.000315,-0.000002, 0.000000,14.878575,-5.822413, 3.345362, 1.860067,-25.212669,23.708290,14.878575,-5.822413, 3.345362, 1.860067,-25.212669,23.708290,14.878574,-5.822413, 3.345362, 1.860066,-25.212669,23.708290, 0.156937, 0.721360,14.627726,68.829406,300.139618, 0.726244, 0.266320,1837488.500000,300.000000,69.549992,-0.000001,-0.000000, 0.000000,-0.000001,-0.000001,-0.000001, 0.000000,-0.000001, 1.010428,-0.002835, 0.001712, 0.021915,-0.098410,,,,,,250218,10:23:05.005,37385.005
Mult,USC,250218 10:23:05.020, 0.000000, 0.000000, 0.000000, 0.000000, 0.000315, 0.000002,-0.000002,14.093034,-5.362068,10.219623, 1.863708,-9.977428,22.176379,14.093034,-5.362068,10.219623, 1.863708,-9.977428,22.176379,14.093035,-5.362067,10.219623, 1.863709,-9.977428,22.176379, 0.156925, 0.720873,14.633815,68.829406,300.139099, 0.726049, 0.266320,1836997.375000,300.000000,69.549992,-0.000000,-0.000001,-0.000001, 0.000000,-0.000001, 0.000000, 0.000000, 0.000000, 1.012421,-0.002808, 0.001935, 0.019983,-0.093251,,,,,,250218,10:23:05.020,37385.02
Mult,USC,250218 10:23:05.035, 0.000000, 0.000000, 0.000000, 0.000000, 0.000315, 0.000002,-0.000002,14.373956,-5.061181,-1.265764, 0.360465,-21.757979,21.046922,14.373956,-5.061181,-1.265764, 0.360465,-21.757979,21.046922,14.373956,-5.061180,-1.265764, 0.360467,-21.757979,21.046922, 0.156925, 0.720873,14.633815,68.829406,300.139099, 0.726049, 0.266320,1836997.375000,300.000000,69.549992,-0.000000,-0.000001, 0.000000, 0.000000, 0.000000,-0.000001,-0.000001, 0.000000, 1.012613,-0.002759, 0.001840, 0.022006,-0.095120,,,,,,250218,10:23:05.035,37385.035
Mult,USC,250218 10:23:05.050, 0.000000, 0.000000, 0.000000, 0.000000, 0.000315, 0.000002,-0.000002,15.386035,-5.613717,-0.143038,-0.967058,-15.244474,20.176975,15.386035,-5.613717,-0.143038,-0.967058,-15.244474,20.176975,15.386035,-5.613716,-0.143039,-0.967057,-15.244474,20.176975, 0.156925, 0.720873,14.633815,68.829406,300.139099, 0.726049, 0.266320,1836997.375000,300.000000,69.549992,-0.000001,-0.000001,-0.000001,-0.000001,-0.000001,-0.000001, 0.000000, 0.000000, 1.014105,-0.003018, 0.001968, 0.019202,-0.101635,,,,,,250218,10:23:05.050,37385.05
Mult,USC,250218 10:23:05.065, 0.000000, 0.000000, 0.000000, 0.000000, 0.000315, 0.000002,-0.000002,14.889946,-4.370908, 7.172921, 0.574592,-13.009954,19.712681,14.889946,-4.370908, 7.172921, 0.574592,-13.009954,19.712681,14.889947,-4.370907, 7.172921, 0.574593,-13.009954,19.712681, 0.156925, 0.720873,14.633815,68.829406,300.139099, 0.726049, 0.266320,1836997.375000,300.000000,69.549992,-0.000001,-0.000001,-0.000001,-0.000001, 0.000000,-0.000001, 0.000000,-0.000001, 1.010986,-0.003204, 0.001678, 0.020145,-0.098712,,,,,,250218,10:23:05.065,37385.065
Mult,USC,250218 10:23:05.080, 0.000000, 0.000000, 0.000000, 0.000000, 0.000315, 0.000002,-0.000002,14.419427,-4.606083, 1.828119,-0.069122,-17.578921,19.935298,14.419427,-4.606083, 1.828119,-0.069122,-17.578921,19.935298,14.419427,-4.606083, 1.828118,-0.069121,-17.578921,19.935298, 0.156925, 0.720873,14.633815,68.829406,300.139099, 0.726049, 0.266320,1836997.375000,300.000000,69.549992,-0.000000,-0.000000, 0.000000,-0.000001,-0.000001,-0.000001, 0.000001, 0.000000, 1.011749,-0.002856, 0.002066, 0.020264,-0.095471,,,,,,250218,10:23:05.080,37385.08
Mult,USC,250218 10:23:05.095, 0.000000, 0.000000, 0.000000, 0.000000, 0.000315, 0.000002,-0.000002,15.333474,-4.485923,-2.621493,-1.011932,-19.813542,20.112971,15.333474,-4.485923,-2.621493,-1.011932,-19.813542,20.112971,15.333474,-4.485922,-2.621493,-1.011931,-19.813543,20.112971, 0.156925, 0.720873,14.633815,68.829406,300.139099, 0.726049, 0.266320,1836997.375000,300.000000,69.549992,-0.000000,-0.000001,-0.000001,-0.000001,-0.000001,-0.000001,-0.000001, 0.000000, 1.011179,-0.002927, 0.001999, 0.021970,-0.101629,,,,,,250218,10:23:05.095,37385.095
Mult,USC,250218 10:23:05.110, 0.000000, 0.000000, 0.000000, 0.000000, 0.000315, 0.000000,-0.000000, 2.817302,-0.944621, 0.375226,-0.023616,-3.483866, 3.994994, 2.817302,-0.944621, 0.375226,-0.023616,-3.483866, 3.994994, 2.817302,-0.944620, 0.375226,-0.023615,-3.483866, 3.994994, 0.156925, 0.720873,14.633815,68.829406,300.139099, 0.726049, 0.266320,1836997.375000,300.000000,69.549992,-0.000001,-0.000001,-0.000001,-0.000001, 0.000000,-0.000001,-0.000001, 0.000000, 1.002237,-0.000684, 0.000336, 0.004562,-0.018644,,,,,,250218,10:23:05.110,37385.11
Mult,USC,250218 10:23:05.125, 0.000000, 0.000000, 0.000000, 0.000000, 0.000315, 0.000000,-0.000002,13.324056,-4.851201, 4.796490, 0.841247,-15.940905,19.882893,13.324056,-4.851201, 4.796490, 0.841247,-15.940905,19.882893,13.324057,-4.851201, 4.796490, 0.841248,-15.940905,19.882893, 0.156923, 0.720205,14.601814,68.829406,300.104126, 0.724786, 0.266289,1834016.625000,300.000000,69.549992, 0.000001,-0.000001,-0.000001,-0.000001,-0.000001,-0.000001,-0.000001,-0.000001, 1.009390,-0.002829, 0.001746, 0.022446,-0.088156,,,,,,250218,10:23:05.125,37385.125
Mult,USC,250218 10:23:05.140, 0.000000, 0.000000, 0.000000, 0.000000, 0.000315, 0.000000,-0.000002,14.355344,-5.915703, 2.986295,-0.927397,-16.674371,20.360264,14.355344,-5.915703, 2.986295,-0.927397,-16.674371,20.360264,14.355344,-5.915703, 2.986295,-0.927396,-16.674371,20.360264, 0.156923, 0.720205,14.601814,68.829406,300.104126, 0.724786, 0.266289,1834016.625000,300.000000,69.549992,-0.000000,-0.000000, 0.000000,-0.000001, 0.000000, 0.000000, 0.000000, 0.000000, 1.010321,-0.002991, 0.002103, 0.021530,-0.094732,,,,,,250218,10:23:05.140,37385.14
Mult,USC,250218 10:23:05.155, 0.000000, 0.000000, 0.000000, 0.000000, 0.000315, 0.000000,-0.000002,16.363548,-5.741829, 1.695270, 1.868956,-24.056210,20.796918,16.363548,-5.741829, 1.695270, 1.868956,-24.056210,20.796918,16.363548,-5.741829, 1.695269, 1.868957,-24.056210,20.796918, 0.156923, 0.720205,14.601814,68.829406,300.104126, 0.724786, 0.266289,1834016.625000,300.000000,69.549992,-0.000000,-0.000001,-0.000001,-0.000001,-0.000001,-0.000001,-0.000001,-0.000001, 1.013031,-0.002991, 0.001935, 0.021631,-0.108271,,,,,,250218,10:23:05.155,37385.155
Mult,USC,250218 10:23:05.170, 0.000000, 0.000000, 0.000000, 0.000000, 0.000315, 0.000000,-0.000002,14.465866,-5.584012, 4.213887, 1.566261,-14.119033,21.229417,14.465866,-5.584012, 4.213887, 1.566261,-14.119033,21.229417,14.465866,-5.584012, 4.213886, 1.566262,-14.119033,21.229417, 0.156923, 0.720205,14.601814,68.829406,300.104126, 0.724786, 0.266289,1834016.625000,300.000000,69.549992,-0.000001,-0.000001,-0.000001, 0.000000, 0.000000,-0.000001,-0.000001,-0.000001, 1.011368,-0.003369, 0.002390, 0.020679,-0.095622,,,,,,250218,10:23:05.170,37385.17
Mult,USC,250218 10:23:05.185, 0.000000, 0.000000, 0.000000, 0.000000, 0.000315, 0.000000,-0.000002,13.040132,-5.810994, 2.946307,-0.680964,-21.783038,21.549069,13.040132,-5.810994, 2.946307,-0.680964,-21.783038,21.549069,13.040132,-5.810994, 2.946306,-0.680963,-21.783038,21.549069, 0.156923, 0.720205,14.601814,68.829406,300.104126, 0.724786, 0.266289,1834016.625000,300.000000,69.549992,-0.000001,-0.000001, 0.000000,-0.000001,-0.000001,-0.000001,-0.000001,-0.000001, 1.009302,-0.002960, 0.002069, 0.019913,-0.086033,,,,,,250218,10:23:05.185,37385.185
Mult,USC,250218 10:23:05.200, 0.000000, 0.000000, 0.000000, 0.000000, 0.000315, 0.000000,-0.000002,14.045309,-5.598480, 2.663438, 1.203942,-11.674570,21.781468,14.045309,-5.598480, 2.663438, 1.203942,-11.674570,21.781468,14.045309,-5.598480, 2.663437, 1.203943,-11.674570,21.781468, 0.156923, 0.720205,14.601814,68.829406,300.104126, 0.724786, 0.266289,1834016.625000,300.000000,69.549992,-0.000001,-0.000000, 0.000000,-0.000001,-0.000001,-0.000001, 0.000000,-0.000001, 1.009015,-0.002991, 0.002167, 0.018686,-0.092781,,,,,,250218,10:23:05.200,37385.2
Mult,USC,250218 10:23:05.215, 0.000000, 0.000000, 0.000000, 0.000000, 0.000315, 0.000000,-0.000002,13.894556,-4.933387, 0.976211, 2.736638,-11.243999,21.900920,13.894556,-4.933387, 0.976211, 2.736638,-11.243999,21.900920,13.894556,-4.933387, 0.976210, 2.736639,-11.243999,21.900920, 0.156939, 0.720873,14.629127,68.829406,300.143188, 0.725309, 0.266323,1835101.375000,300.000000,69.549992,-0.000001,-0.000001, 0.000000,-0.000001, 0.000000, 0.000000,-0.000001,-0.000001, 1.012326,-0.002887, 0.002002, 0.019257,-0.091953,,,,,,250218,10:23:05.215,37385.215
Mult,USC,250218 10:23:05.230, 0.000000, 0.000000, 0.000000, 0.000000, 0.000315, 0.000000,-0.000002,14.819235,-5.644474, 1.034536,-0.005172,-16.462182,22.067051,14.819235,-5.644474, 1.034536,-0.005172,-16.462182,22.067051,14.819235,-5.644474, 1.034535,-0.005171,-16.462182,22.067051, 0.156939, 0.720873,14.629127,68.829406,300.143188, 0.725309, 0.266323,1835101.375000,300.000000,69.549992,-0.000001,-0.000001,-0.000001, 0.000000,-0.000001, 0.000000, 0.000000,-0.000001, 1.012613,-0.003021, 0.001590, 0.020465,-0.097911,,,,,,250218,10:23:05.230,37385.23
Mult,USC,250218 10:23:05.245, 0.000000, 0.000000, 0.000000, 0.000000, 0.000315, 0.000000,-0.000002,15.594347,-5.710890, 2.807394,-1.929208,-7.574733,21.716659,15.594347,-5.710890, 2.807394,-1.929208,-7.574733,21.716659,15.594348,-5.710890, 2.807394,-1.929208,-7.574733,21.716659, 0.156939, 0.720873,14.629127,68.829406,300.143188, 0.725309, 0.266323,1835101.375000,300.000000,69.549992,-0.000000,-0.000001,-0.000001, 0.000000,-0.000001, 0.000000,-0.000001,-0.000001, 1.013260,-0.003146, 0.002136, 0.021155,-0.102985,,,,,,250218,10:23:05.245,37385.245
Mult,USC,250218 10:23:05.260, 0.000000, 0.000000, 0.000000, 0.000000, 0.000315, 0.000000,-0.000002,15.376310,-4.624893,-1.476895, 5.145412,-16.030390,21.035811,15.376310,-4.624893,-1.476895, 5.145412,-16.030390,21.035811,15.376309,-4.624893,-1.476895, 5.145413,-16.030390,21.035811, 0.156939, 0.720873,14.629127,68.829406,300.143188, 0.725309, 0.266323,1835101.375000,300.000000,69.549992,-0.000001,-0.000001, 0.000000,-0.000001,-0.000001, 0.000000, 0.000000, 0.000000, 1.011023,-0.003217, 0.002167, 0.023584,-0.102012,,,,,,250218,10:23:05.260,37385.26
Mult,USC,250218 10:23:05.275, 0.000000, 0.000000, 0.000000, 0.000000, 0.000315, 0.000000,-0.000002,14.554141,-4.669918,-0.852813, 0.510388,-8.811197,20.491484,14.554141,-4.669918,-0.852813, 0.510388,-8.811197,20.491484,14.554141,-4.669918,-0.852813, 0.510389,-8.811197,20.491484, 0.156939, 0.720873,14.629127,68.829406,300.143188, 0.725309, 0.266323,1835101.375000,300.000000,69.549992,-0.000001,-0.000000, 0.000000,-0.000001, 0.000000,-0.000001,-0.000001,-0.000001, 1.011090,-0.003113, 0.001846, 0.023071,-0.096330,,,,,,250218,10:23:05.275,37385.275
Mult,USC,250218 10:23:05.290, 0.000000, 0.000000, 0.000000, 0.000000, 0.000315, 0.000000,-0.000002,15.274858,-5.119694, 4.809897,-0.918582,-11.641480,20.010821,15.274858,-5.119694, 4.809897,-0.918582,-11.641480,20.010821,15.274858,-5.119694, 4.809896,-0.918581,-11.641480,20.010821, 0.156939, 0.720873,14.629127,68.829406,300.143188, 0.725309, 0.266323,1835101.375000,300.000000,69.549992,-0.000000,-0.000001, 0.000000, 0.000000,-0.000001,-0.000001, 0.000000,-0.000001, 1.011212,-0.003174, 0.001782, 0.022159,-0.101038,,,,,,250218,10:23:05.290,37385.29
Mult,USC,250218 10:23:05.305, 0.000000, 0.000000, 0.000000, 0.000000, 0.000315, 0.000000,-0.000002,15.450853,-4.879808, 4.421418,-0.799355,-14.925686,19.990578,15.450853,-4.879808, 4.421418,-0.799355,-14.925686,19.990578,15.450853,-4.879808, 4.421418,-0.799354,-14.925686,19.990578, 0.156939, 0.720873,14.629127,68.829406,300.143188, 0.725309, 0.266323,1835101.375000,300.000000,69.549992,-0.000001,-0.000001, 0.000000,-0.000001,-0.000001, 0.000000,-0.000001,-0.000001, 1.010297,-0.002838, 0.001968, 0.022229,-0.102283,,,,,,250218,10:23:05.305,37385.305
Mult,USC,250218 10:23:05.320, 0.000000, 0.000000, 0.000000, 0.000000, 0.000315, 0.000000,-0.000002,14.302964,-4.310481,-1.512361, 1.375962,-4.474550,20.548023,14.302964,-4.310481,-1.512361, 1.375962,-4.474550,20.548023,14.302964,-4.310481,-1.512362, 1.375963,-4.474550,20.548022, 0.156921, 0.721036,14.627737,68.838792,299.878143, 0.724967, 0.266086,1835831.500000,300.000000,69.549992,-0.000001,-0.000000, 0.000000,-0.000001,-0.000001, 0.000000,-0.000001, 0.000000, 1.009494,-0.003174, 0.001807, 0.020169,-0.094755,,,,,,250218,10:23:05.320,37385.32
Mult,USC,250218 10:23:05.335, 0.000000, 0.000000, 0.000000, 0.000000, 0.000315, 0.000000,-0.000002,14.669873,-4.686131, 1.361187,-2.941126,-21.480080,21.476507,14.669873,-4.686131, 1.361187,-2.941126,-21.480080,21.476507,14.669873,-4.686131, 1.361187,-2.941125,-21.480080,21.476507, 0.156921, 0.721036,14.627737,68.838792,299.878143, 0.724967, 0.266086,1835831.500000,300.000000,69.549992,-0.000001,-0.000000,-0.000001,-0.000001,-0.000001,-0.000001,-0.000001,-0.000001, 1.010617,-0.002673, 0.001968, 0.020938,-0.097089,,,,,,250218,10:23:05.335,37385.335
Mult,USC,250218 10:23:05.350, 0.000000, 0.000000, 0.000000, 0.000000, 0.000315, 0.000000,-0.000002,14.257208,-5.144422, 7.862380, 1.068044,-12.574907,22.013640,14.257208,-5.144422, 7.862380, 1.068044,-12.574907,22.013640,14.257208,-5.144422, 7.862379, 1.068045,-12.574907,22.013640, 0.156921, 0.721036,14.627737,68.838792,299.878143, 0.724967, 0.266086,1835831.500000,300.000000,69.549992,-0.000000,-0.000001,-0.000001,-0.000001, 0.000000,-0.000001, 0.000000, 0.000000, 1.013574,-0.002774, 0.002002, 0.019952,-0.094361,,,,,,250218,10:23:05.350,37385.35
Mult,USC,250218 10:23:05.365, 0.000000, 0.000000, 0.000000, 0.000000, 0.000315, 0.000000,-0.000002,13.858048,-5.806631, 0.113807, 1.841517,-19.194722,22.745569,13.858048,-5.806631, 0.113807, 1.841517,-19.194722,22.745569,13.858048,-5.806631, 0.113807, 1.841518,-19.194722,22.745569, 0.156921, 0.721036,14.627737,68.838792,299.878143, 0.724967, 0.266086,1835831.500000,300.000000,69.549992,-0.000001,-0.000001, 0.000000, 0.000000, 0.000000, 0.000000, 0.000000,-0.000001, 1.011752,-0.002740, 0.002203, 0.020358,-0.091527,,,,,,250218,10:23:05.365,37385.365
Mult,USC,250218 10:23:05.380, 0.000000, 0.000000, 0.000000, 0.000000, 0.000315, 0.000000,-0.000002,14.033463,-6.041532,-0.825029, 1.102351,-20.720175,22.975275,14.033463,-6.041532,-0.825029, 1.102351,-20.720175,22.975275,14.033463,-6.041532,-0.825030, 1.102352,-20.720175,22.975275, 0.156921, 0.721036,14.627737,68.838792,299.878143, 0.724967, 0.266086,1835831.500000,300.000000,69.549992,-0.000001,-0.000001, 0.000000, 0.000000, 0.000000, 0.000000, 0.000000, 0.000000, 1.012042,-0.003204, 0.002103, 0.020178,-0.092651,,,,,,250218,10:23:05.380,37385.38
Mult,USC,250218 10:23:05.395, 0.000000, 0.000000, 0.000000, 0.000000, 0.000315, 0.000000,-0.000002,15.075656,-6.061636, 6.400428, 3.050463,-11.938979,22.489210,15.075656,-6.061636, 6.400428, 3.050463,-11.938979,22.489210,15.075656,-6.061636, 6.400427, 3.050464,-11.938979,22.489210, 0.156921, 0.721036,14.627737,68.838792,299.878143, 0.724967, 0.266086,1835831.500000,300.000000,69.549992,-0.000001,-0.000000,-0.000001, 0.000000, 0.000000, 0.000000, 0.000001, 0.000000, 1.013382,-0.002808, 0.001746, 0.022421,-0.099647,,,,,,250218,10:23:05.395,37385.395
Mult,USC,250218 10:23:05.410, 0.000000, 0.000000, 0.000000, 0.000000, 0.000315, 0.000000,-0.000000, 2.555707,-1.106976,-0.120281, 0.759314,-1.827296, 4.363272, 2.555707,-1.106976,-0.120281, 0.759314,-1.827296, 4.363272, 2.555707,-1.106976,-0.120281, 0.759314,-1.827296, 4.363272, 0.156921, 0.721036,14.627737,68.838792,299.878143, 0.724967, 0.266086,1835831.500000,300.000000,69.549992,-0.000000,-0.000001, 0.000000,-0.000001,-0.000001,-0.000001,-0.000001,-0.000001, 1.002747,-0.000589, 0.000433, 0.004468,-0.016878,,,,,,250218,10:23:05.410,37385.41
Mult,USC,250218 10:23:05.425, 0.000000, 0.000000, 0.000000, 0.000000, 0.000315, 0.000000,-0.000002,14.037369,-5.691645,-0.878235,-1.692811,-6.203655,21.409091,14.037369,-5.691645,-0.878235,-1.692811,-6.203655,21.409091,14.037369,-5.691645,-0.878236,-1.692810,-6.203655,21.409091, 0.156933, 0.720892,14.641006,68.838792,299.791718, 0.725206, 0.266009,1836967.000000,300.000000,69.549992,-0.000001,-0.000001,-0.000001,-0.000001,-0.000001,-0.000001, 0.000000,-0.000001, 1.010620,-0.003171, 0.001816, 0.022232,-0.092589,,,,,,250218,10:23:05.425,37385.425
Mult,USC,250218 10:23:05.440, 0.000000, 0.000000, 0.000000, 0.000000, 0.000315, 0.000000,-0.000002,16.878948,-4.913400, 7.016529, 0.505118,-6.017854,20.715621,16.878948,-4.913400, 7.016529, 0.505118,-6.017854,20.715621,16.878948,-4.913400, 7.016528, 0.505119,-6.017854,20.715621, 0.156933, 0.720892,14.641006,68.838792,299.791718, 0.725206, 0.266009,1836967.000000,300.000000,69.549992,-0.000001,-0.000001,-0.000001,-0.000001,-0.000001,-0.000001, 0.000000,-0.000001, 1.012076,-0.003369, 0.001743, 0.022986,-0.111823,,,,,,250218,10:23:05.440,37385.44
Mult,USC,250218 10:23:05.455, 0.000000, 0.000000, 0.000000, 0.000000, 0.000315, 0.000000,-0.000002,16.634921,-5.116198, 0.912242, 2.798696,-17.060554,20.529202,16.634921,-5.116198, 0.912242, 2.798696,-17.060554,20.529202,16.634921,-5.116198, 0.912242, 2.798697,-17.060554,20.529202, 0.156933, 0.720892,14.641006,68.838792,299.791718, 0.725206, 0.266009,1836967.000000,300.000000,69.549992,-0.000001,-0.000001, 0.000000, 0.000000,-0.000001, 0.000000, 0.000001, 0.000000, 1.010385,-0.003174, 0.002032, 0.020993,-0.110202,,,,,,250218,10:23:05.455,37385.455
Mult,USC,250218 10:23:05.470, 0.000000, 0.000000, 0.000000, 0.000000, 0.000315, 0.000000,-0.000002,14.093416,-5.162512,-1.263664,-0.826154, 1.997323,20.212590,14.093416,-5.162512,-1.263664,-0.826154, 1.997323,20.212590,14.093416,-5.162512,-1.263665,-0.826153, 1.997323,20.212590, 0.156933, 0.720892,14.641006,68.838792,299.791718, 0.725206, 0.266009,1836967.000000,300.000000,69.549992,-0.000001,-0.000001,-0.000001, 0.000001, 0.000000, 0.000001,-0.000001,-0.000001, 1.015903,-0.002805, 0.002228, 0.022195,-0.093045,,,,,,250218,10:23:05.470,37385.47
Mult,USC,250218 10:23:05.485, 0.000000, 0.000000, 0.000000, 0.000000, 0.000315, 0.000000,-0.000002,12.720765,-5.204414, 0.850752, 3.704282,-11.772513,19.536097,12.720765,-5.204414, 0.850752, 3.704282,-11.772513,19.536097,12.720765,-5.204414, 0.850752, 3.704283,-11.772513,19.536097, 0.156933, 0.720892,14.641006,68.838792,299.791718, 0.725206, 0.266009,1836967.000000,300.000000,69.549992,-0.000001,-0.000001,-0.000001, 0.000001,-0.000001,-0.000001,-0.000001,-0.000001, 1.012491,-0.002600, 0.002032, 0.020609,-0.084059,,,,,,250218,10:23:05.485,37385.485
Mult,USC,250218 10:23:05.500, 0.000000, 0.000000, 0.000000, 0.000000, 0.000315, 0.000000,-0.000002,14.258864,-4.891195, 6.532726,-0.380162,-14.461297,18.768046,14.258864,-4.891195, 6.532726,-0.380162,-14.461297,18.768046,14.258864,-4.891195, 6.532726,-0.380162,-14.461297,18.768046, 0.156933, 0.720892,14.641006,68.838792,299.791718, 0.725206, 0.266009,1836967.000000,300.000000,69.549992, 0.000001,-0.000001, 0.000001, 0.000001,-0.000001,-0.000001,-0.000001,-0.000001, 1.009778,-0.003174, 0.002069, 0.021710,-0.094346,,,,,,250218,10:23:05.500,37385.5
