Type,Units,Time,X Position,Y Position,Y Encoder,Z Position,Z Encoder,Yaw,Pitch,WAFBC Drag,WAFBC Side,WAFBC Lift,WAFBC Roll,WAFBC Pitch,WAFBC Yaw,WAFMC Drag,WAFMC Side,WAFMC Lift,WAFMC Roll,WAFMC Pitch,WAFMC Yaw,BAFMC Axial,BAFMC Side,BAFMC Normal,BAFMC Roll,BAFMC Pitch,BAFMC Yaw,DPT250,DPT251,PT250,TE250,Velocity,Dynamic Pressure,Mach,Reynolds Number per ft,Velocity Setpoint,Temperature Setpoint,cDAQ AI0,cDAQ AI1,cDAQ AI2,cDAQ AI3,cDAQ AI4,cDAQ AI5,cDAQ AI6,cDAQ AI7,cRIO AI0,cRIO AI1,cRIO AI2,cRIO AI3,Drag (raw),Side (raw),Lift (raw),Roll (raw),Pitch (raw),Yaw (raw),Date,ClockTime,Seconds
Type,USC / SI,Time,Inches / Millimeters,Inches / Millimeters,Inches / Millimeters,Inches / Millimeters,Inches / Millimeters,Degrees / Degrees,Degrees / Degrees,lb / N,lb / N,lb / N,ft-lb / N-m,ft-lb / N-m,ft-lb / N-m,lb / N,lb / N,lb / N,ft-lb / N-m,ft-lb / N-m,ft-lb / N-m,lb / N,lb / N,lb / N,ft-lb / N-m,ft-lb / N-m,ft-lb / N-m,PSId / Pascals,PSId / Pascals,PSIa / Pascals,F / F,Ft/s / m/s,PSId / Pascals, / ,1/ft / 1/ft,ft/s / m/s,F / F, / , / , / , / , / , / , / , / , / , / , / , / , / , / , / , / , / , / ,Time,,
Mult,USC,250218 10:10:29.625, 0.000000, 0.000000, 0.000000, 0.000000, 0.000276, 0.000000, 0.000000, 3.473627,-1.471326,-3.287260,-1.209128,-2.372694, 6.081774, 3.473627,-1.471326,-3.287260,-1.209128,-2.372694, 6.081774, 3.473627,-1.471326,-3.287260,-1.209128,-2.372694, 6.081774, 0.156928, 0.182274,14.702199,66.905777,150.444870, 0.184069, 0.133736,931736.125000,150.000000,69.549992,-0.000000,-0.000001,-0.000001, 0.000000, 0.000000, 0.000000, 0.000000,-0.000001, 1.014719,-0.002991, 0.001627, 0.017609,-0.022965,,,,,,250218,10:10:29.625,36629.625
Mult,USC,250218 10:10:29.640, 0.000000, 0.000000, 0.000000, 0.000000, 0.000276, 0.000000, 0.000000, 3.999617,-1.472127, 0.837156, 0.405906,-0.942598, 6.052054, 3.999617,-1.472127, 0.837156, 0.405906,-0.942598, 6.052054, 3.999617,-1.472127, 0.837156, 0.405906,-0.942598, 6.052054, 0.156928, 0.182274,14.702199,66.905777,150.444870, 0.184069, 0.133736,931736.125000,150.000000,69.549992,-0.000001,-0.000000, 0.000000,-0.000001, 0.000000,-0.000001,-0.000001,-0.000001, 1.012976,-0.003143, 0.001648, 0.018625,-0.026437,,,,,,250218,10:10:29.640,36629.64
Mult,USC,250218 10:10:29.655, 0.000000, 0.000000, 0.000000, 0.000000, 0.000276, 0.000000, 0.000000, 4.402775,-1.585767, 1.888303,-0.075799,-3.972855, 6.209913, 4.402775,-1.585767, 1.888303,-0.075799,-3.972855, 6.209913, 4.402775,-1.585767, 1.888303,-0.075799,-3.972855, 6.209913, 0.156928, 0.182274,14.702199,66.905777,150.444870, 0.184069, 0.133736,931736.125000,150.000000,69.549992,-0.000001,-0.000000, 0.000000, 0.000000, 0.000000, 0.000000,-0.000001, 0.000000, 1.017557,-0.002991, 0.001392, 0.019641,-0.029117,,,,,,250218,10:10:29.655,36629.655
Mult,USC,250218 10:10:29.670, 0.000000, 0.000000, 0.000000, 0.000000, 0.000276, 0.000000, 0.000000, 3.523274,-1.593369,-2.729473, 0.816110,-0.311092, 6.505635, 3.523274,-1.593369,-2.729473, 0.816110,-0.311092, 6.505635, 3.523274,-1.593369,-2.729473, 0.816110,-0.311092, 6.505635, 0.156928, 0.182274,14.702199,66.905777,150.444870, 0.184069, 0.133736,931736.125000,150.000000,69.549992,-0.000000,-0.000000, 0.000001, 0.000000, 0.000000,-0.000001, 0.000000, 0.000000, 1.018613,-0.003018, 0.001904, 0.020575,-0.023301,,,,,,250218,10:10:29.670,36629.67
Mult,USC,250218 10:10:29.685, 0.000000, 0.000000, 0.000000, 0.000000, 0.000276, 0.000000, 0.000000, 3.772816,-1.890900, 0.315617,-0.051256,-3.244379, 6.298889, 3.772816,-1.890900, 0.315617,-0.051256,-3.244379, 6.298889, 3.772816,-1.890900, 0.315617,-0.051256,-3.244379, 6.298889, 0.156928, 0.182274,14.702199,66.905777,150.444870, 0.184069, 0.133736,931736.125000,150.000000,69.549992,-0.000001,-0.000001,-0.000001,-0.000001, 0.000000,-0.000001,-0.000001, 0.000000, 1.015295,-0.003326, 0.001334, 0.021088,-0.024825,,,,,,250218,10:10:29.685,36629.685
Mult,USC,250218 10:10:29.700, 0.000000, 0.000000, 0.000000, 0.000000, 0.000276, 0.000000, 0.000000, 4.499089,-1.588338, 5.064622,-0.168019,-4.404586, 5.850846, 4.499089,-1.588338, 5.064622,-0.168019,-4.404586, 5.850846, 4.499089,-1.588338, 5.064622,-0.168019,-4.404586, 5.850846, 0.156928, 0.182274,14.702199,66.905777,150.444870, 0.184069, 0.133736,931736.125000,150.000000,69.549992,-0.000001,-0.000000,-0.000001,-0.000001,-0.000001, 0.000000,-0.000001,-0.000001, 1.014777,-0.002869, 0.001999, 0.020737,-0.029789,,,,,,250218,10:10:29.700,36629.7
Mult,USC,250218 10:10:29.715, 0.000000, 0.000000, 0.000000, 0.000000, 0.000276, 0.000000, 0.000002, 3.920600,-1.117606,-1.832983, 1.486906,-6.992584, 5.536049, 3.920600,-1.117606,-1.832983, 1.486906,-6.992584, 5.536049, 3.920600,-1.117606,-1.832983, 1.486906,-6.992584, 5.536049, 0.156936, 0.182610,14.705923,66.905777,150.069946, 0.183199, 0.133403,929649.625000,150.000000,69.549992,-0.000000,-0.000000, 0.000000, 0.000000,-0.000001,-0.000001,-0.000001, 0.000000, 1.015518,-0.003268, 0.001556, 0.018506,-0.026082,,,,,,250218,10:10:29.715,36629.715
Mult,USC,250218 10:10:29.730, 0.000000, 0.000000, 0.000000, 0.000000, 0.000276, 0.000000, 0.000002, 2.851773,-1.575291,-2.223849,-1.756440,-5.019478, 5.561786, 2.851773,-1.575291,-2.223849,-1.756440,-5.019478, 5.561786, 2.851773,-1.575291,-2.223848,-1.756440,-5.019478, 5.561786, 0.156936, 0.182610,14.705923,66.905777,150.069946, 0.183199, 0.133403,929649.625000,150.000000,69.549992,-0.000000,-0.000001,-0.000001, 0.000000, 0.000000, 0.000000,-0.000001, 0.000000, 1.014783,-0.003049, 0.001813, 0.017224,-0.018763,,,,,,250218,10:10:29.730,36629.73
Mult,USC,250218 10:10:29.745, 0.000000, 0.000000, 0.000000, 0.000000, 0.000276, 0.000000, 0.000002, 3.269519,-1.293075, 3.548754,-0.898712,-11.514344, 5.585361, 3.269519,-1.293075, 3.548754,-0.898712,-11.514344, 5.585361, 3.269519,-1.293075, 3.548755,-0.898712,-11.514344, 5.585361, 0.156936, 0.182610,14.705923,66.905777,150.069946, 0.183199, 0.133403,929649.625000,150.000000,69.549992,-0.000001,-0.000000, 0.000000, 0.000000, 0.000000,-0.000001, 0.000000,-0.000001, 1.016608,-0.003235, 0.001712, 0.018872,-0.021657,,,,,,250218,10:10:29.745,36629.745
Mult,USC,250218 10:10:29.760, 0.000000, 0.000000, 0.000000, 0.000000, 0.000276, 0.000000, 0.000002, 3.737565,-1.264431, 2.173653, 0.592404,-5.230236, 5.858208, 3.737565,-1.264431, 2.173653, 0.592404,-5.230236, 5.858208, 3.737565,-1.264431, 2.173653, 0.592404,-5.230236, 5.858208, 0.156936, 0.182610,14.705923,66.905777,150.069946, 0.183199, 0.133403,929649.625000,150.000000,69.549992,-0.000001,-0.000000,-0.000001, 0.000000,-0.000001,-0.000001,-0.000001,-0.000001, 1.014456,-0.003116, 0.001743, 0.017480,-0.024778,,,,,,250218,10:10:29.760,36629.76
Mult,USC,250218 10:10:29.775, 0.000000, 0.000000, 0.000000, 0.000000, 0.000276, 0.000000, 0.000002, 3.142023,-1.685120,-3.444314,-1.174110,-5.299814, 6.290207, 3.142023,-1.685120,-3.444314,-1.174110,-5.299814, 6.290207, 3.142023,-1.685120,-3.444314,-1.174110,-5.299814, 6.290207, 0.156936, 0.182610,14.705923,66.905777,150.069946, 0.183199, 0.133403,929649.625000,150.000000,69.549992,-0.000000,-0.000001, 0.000000, 0.000000, 0.000000,-0.000001,-0.000001,-0.000001, 1.014780,-0.003201, 0.001178, 0.018112,-0.020727,,,,,,250218,10:10:29.775,36629.775
Mult,USC,250218 10:10:29.790, 0.000000, 0.000000, 0.000000, 0.000000, 0.000276, 0.000000, 0.000002, 3.482806,-1.784922, 1.786096, 1.003188,-3.041630, 6.258465, 3.482806,-1.784922, 1.786096, 1.003188,-3.041630, 6.258465, 3.482806,-1.784922, 1.786097, 1.003188,-3.041630, 6.258465, 0.156936, 0.182610,14.705923,66.905777,150.069946, 0.183199, 0.133403,929649.625000,150.000000,69.549992, 0.000001,-0.000000, 0.000000,-0.000001, 0.000000,-0.000001, 0.000000,-0.000001, 1.016290,-0.003143, 0.001590, 0.018060,-0.022958,,,,,,250218,10:10:29.790,36629.79
Mult,USC,250218 10:10:29.805, 0.000000, 0.000000, 0.000000, 0.000000, 0.000276, 0.000000, 0.000002, 4.295990,-1.926906, 4.991171, 1.058401, 0.073494, 6.103578, 4.295990,-1.926906, 4.991171, 1.058401, 0.073494, 6.103578, 4.295990,-1.926906, 4.991171, 1.058401, 0.073494, 6.103578, 0.156936, 0.182610,14.705923,66.905777,150.069946, 0.183199, 0.133403,929649.625000,150.000000,69.549992,-0.000001,-0.000001,-0.000001,-0.000001, 0.000000,-0.000001, 0.000000, 0.000001, 1.014948,-0.003177, 0.001712, 0.018506,-0.028366,,,,,,250218,10:10:29.805,36629.805
Mult,USC,250218 10:10:29.820, 0.000000, 0.000000, 0.000000, 0.000000, 0.000276, 0.000000, 0.000000, 4.713868,-1.819324,-2.995213,-0.157018,-2.559350, 6.062245, 4.713868,-1.819324,-2.995213,-0.157018,-2.559350, 6.062245, 4.713868,-1.819324,-2.995213,-0.157018,-2.559350, 6.062245, 0.156927, 0.182545,14.704817,66.905777,150.049423, 0.183135, 0.133385,929452.562500,150.000000,69.549992,-0.000001,-0.000000,-0.000001,-0.000001, 0.000000,-0.000001, 0.000000, 0.000000, 1.013321,-0.002979, 0.001617, 0.021143,-0.031175,,,,,,250218,10:10:29.820,36629.82
Mult,USC,250218 10:10:29.835, 0.000000, 0.000000, 0.000000, 0.000000, 0.000276, 0.000000, 0.000000, 4.695861,-2.005831,-2.359706, 0.329063,-3.186058, 5.794864, 4.695861,-2.005831,-2.359706, 0.329063,-3.186058, 5.794864, 4.695861,-2.005831,-2.359706, 0.329063,-3.186058, 5.794864, 0.156927, 0.182545,14.704817,66.905777,150.049423, 0.183135, 0.133385,929452.562500,150.000000,69.549992,-0.000000,-0.000001, 0.000000,-0.000001, 0.000001,-0.000001, 0.000000, 0.000001, 1.015906,-0.002991, 0.001846, 0.021280,-0.031010,,,,,,250218,10:10:29.835,36629.835
Mult,USC,250218 10:10:29.850, 0.000000, 0.000000, 0.000000, 0.000000, 0.000276, 0.000000, 0.000000, 4.229902,-1.386921, 5.414832, 0.148776, 1.670645, 5.466941, 4.229902,-1.386921, 5.414832, 0.148776, 1.670645, 5.466941, 4.229902,-1.386921, 5.414832, 0.148776, 1.670645, 5.466941, 0.156927, 0.182545,14.704817,66.905777,150.049423, 0.183135, 0.133385,929452.562500,150.000000,69.549992,-0.000001, 0.000001, 0.000001,-0.000001, 0.000000,-0.000001, 0.000000,-0.000001, 1.016608,-0.002768, 0.001813, 0.020398,-0.028005,,,,,,250218,10:10:29.850,36629.85
Mult,USC,250218 10:10:29.865, 0.000000, 0.000000, 0.000000, 0.000000, 0.000276, 0.000000, 0.000000, 3.207406,-1.443873,-1.811929, 0.113334,-7.333465, 5.517983, 3.207406,-1.443873,-1.811929, 0.113334,-7.333465, 5.517983, 3.207406,-1.443873,-1.811929, 0.113334,-7.333465, 5.517983, 0.156927, 0.182545,14.704817,66.905777,150.049423, 0.183135, 0.133385,929452.562500,150.000000,69.549992,-0.000000,-0.000001, 0.000000,-0.000001, 0.000000,-0.000001,-0.000001,-0.000001, 1.015802,-0.003296, 0.001691, 0.019040,-0.021213,,,,,,250218,10:10:29.865,36629.865
Mult,USC,250218 10:10:29.880, 0.000000, 0.000000, 0.000000, 0.000000, 0.000276, 0.000000, 0.000000, 2.832437,-1.318250,-3.594081,-0.759916,-0.256905, 5.509700, 2.832437,-1.318250,-3.594081,-0.759916,-0.256905, 5.509700, 2.832437,-1.318250,-3.594081,-0.759916,-0.256905, 5.509700, 0.156927, 0.182545,14.704817,66.905777,150.049423, 0.183135, 0.133385,929452.562500,150.000000,69.549992,-0.000001,-0.000001,-0.000001, 0.000000,-0.000001,-0.000001,-0.000001,-0.000001, 1.016479,-0.003586, 0.001654, 0.017072,-0.018722,,,,,,250218,10:10:29.880,36629.88
Mult,USC,250218 10:10:29.895, 0.000000, 0.000000, 0.000000, 0.000000, 0.000276, 0.000000, 0.000000, 3.578105,-1.572117, 3.083227,-0.474969,-8.793806, 5.307219, 3.578105,-1.572117, 3.083227,-0.474969,-8.793806, 5.307219, 3.578105,-1.572117, 3.083227,-0.474969,-8.793806, 5.307219, 0.156927, 0.182545,14.704817,66.905777,150.049423, 0.183135, 0.133385,929452.562500,150.000000,69.549992,-0.000001,-0.000001,-0.000001,-0.000001,-0.000001,-0.000001,-0.000001,-0.000001, 1.014655,-0.002979, 0.001718, 0.017136,-0.023637,,,,,,250218,10:10:29.895,36629.895
Mult,USC,250218 10:10:29.910, 0.000000, 0.000000, 0.000000, 0.000000, 0.000276, 0.000000, 0.000000, 0.777620,-0.225083, 0.763448, 0.081520,-1.424190, 1.084106, 0.777620,-0.225083, 0.763448, 0.081520,-1.424190, 1.084106, 0.777620,-0.225083, 0.763448, 0.081520,-1.424190, 1.084106, 0.156927, 0.182545,14.704817,66.905777,150.049423, 0.183135, 0.133385,929452.562500,150.000000,69.549992,-0.000001,-0.000001,-0.000001, 0.000000,-0.000001, 0.000000,-0.000001, 0.000000, 1.003033,-0.000653, 0.000400, 0.003268,-0.005166,,,,,,250218,10:10:29.910,36629.91
Mult,USC,250218 10:10:29.925, 0.000000, 0.000000, 0.000000, 0.000000, 0.000276, 0.000000,-0.000002, 3.453275,-1.766764,-2.593869,-0.555038,-5.804275, 5.572855, 3.453275,-1.766764,-2.593869,-0.555038,-5.804275, 5.572855, 3.453275,-1.766764,-2.593869,-0.555038,-5.804275, 5.572855, 0.156928, 0.181954,14.687969,66.905777,150.092270, 0.183144, 0.133423,929234.437500,150.000000,69.549992,-0.000001,-0.000001, 0.000000,-0.000001,-0.000001, 0.000000, 0.000000,-0.000001, 1.015076,-0.003308, 0.002039, 0.017105,-0.022772,,,,,,250218,10:10:29.925,36629.925
Mult,USC,250218 10:10:29.940, 0.000000, 0.000000, 0.000000, 0.000000, 0.000276, 0.000000,-0.000002, 3.999279,-1.568345, 1.672500,-0.262688,-4.766112, 5.673901, 3.999279,-1.568345, 1.672500,-0.262688,-4.766112, 5.673901, 3.999279,-1.568345, 1.672500,-0.262688,-4.766112, 5.673901, 0.156928, 0.181954,14.687969,66.905777,150.092270, 0.183144, 0.133423,929234.437500,150.000000,69.549992,-0.000001,-0.000001,-0.000001, 0.000000, 0.000000,-0.000001,-0.000001,-0.000001, 1.016187,-0.003387, 0.001917, 0.017792,-0.026420,,,,,,250218,10:10:29.940,36629.94
Mult,USC,250218 10:10:29.955, 0.000000, 0.000000, 0.000000, 0.000000, 0.000276, 0.000000,-0.000002, 4.042171,-1.550886, 3.656035, 1.163607,-0.506393, 5.669390, 4.042171,-1.550886, 3.656035, 1.163607,-0.506393, 5.669390, 4.042172,-1.550886, 3.656035, 1.163607,-0.506393, 5.669390, 0.156928, 0.181954,14.687969,66.905777,150.092270, 0.183144, 0.133423,929234.437500,150.000000,69.549992,-0.000000,-0.000000,-0.000001, 0.000000, 0.000000, 0.000000,-0.000001,-0.000001, 1.015802,-0.003177, 0.001614, 0.020615,-0.026747,,,,,,250218,10:10:29.955,36629.955
Mult,USC,250218 10:10:29.970, 0.000000, 0.000000, 0.000000, 0.000000, 0.000276, 0.000000,-0.000002, 4.582947,-1.610497,-0.397612,-0.495155, 4.161005, 5.890930, 4.582947,-1.610497,-0.397612,-0.495155, 4.161005, 5.890930, 4.582947,-1.610497,-0.397613,-0.495155, 4.161005, 5.890930, 0.156928, 0.181954,14.687969,66.905777,150.092270, 0.183144, 0.133423,929234.437500,150.000000,69.549992,-0.000001,-0.000001,-0.000001,-0.000001,-0.000001, 0.000000,-0.000001,-0.000001, 1.016959,-0.003113, 0.001877, 0.020386,-0.030220,,,,,,250218,10:10:29.970,36629.97
Mult,USC,250218 10:10:29.985, 0.000000, 0.000000, 0.000000, 0.000000, 0.000276, 0.000000,-0.000002, 4.242932,-1.828520,-3.164748,-0.699656,-3.427434, 6.174895, 4.242932,-1.828520,-3.164748,-0.699656,-3.427434, 6.174895, 4.242932,-1.828520,-3.164748,-0.699656,-3.427434, 6.174895, 0.156928, 0.181954,14.687969,66.905777,150.092270, 0.183144, 0.133423,929234.437500,150.000000,69.549992,-0.000001,-0.000001, 0.000000,-0.000001, 0.000000,-0.000001,-0.000001, 0.000000, 1.016153,-0.002899, 0.001743, 0.020416,-0.028029,,,,,,250218,10:10:29.985,36629.985
Mult,USC,250218 10:10:30.000, 0.000000, 0.000000, 0.000000, 0.000000, 0.000276, 0.000000,-0.000002, 3.947856,-1.522214, 2.676454, 1.124382, 4.483736, 6.082258, 3.947856,-1.522214, 2.676454, 1.124382, 4.483736, 6.082258, 3.947856,-1.522214, 2.676454, 1.124382, 4.483736, 6.082258, 0.156928, 0.181954,14.687969,66.905777,150.092270, 0.183144, 0.133423,929234.437500,150.000000,69.549992,-0.000000,-0.000000,-0.000001,-0.000001, 0.000000, 0.000000,-0.000001,-0.000001, 1.013535,-0.002991, 0.001880, 0.018842,-0.026067,,,,,,250218,10:10:30.000,36630.0
Mult,USC,250218 10:10:30.015, 0.000000, 0.000000, 0.000000, 0.000000, 0.000276, 0.000002,-0.000002, 3.489796,-1.759786,-0.637232,-0.786910,-2.786843, 6.525242, 3.489796,-1.759786,-0.637232,-0.786910,-2.786843, 6.525242, 3.489796,-1.759786,-0.637232,-0.786909,-2.786843, 6.525243, 0.156917, 0.182634,14.711339,66.905777,150.296921, 0.183821, 0.133605,931398.562500,150.000000,69.549992,-0.000001,-0.000001, 0.000000,-0.000001,-0.000001, 0.000000,-0.000001, 0.000000, 1.014883,-0.002991, 0.001682, 0.018536,-0.022962,,,,,,250218,10:10:30.015,36630.015
Mult,USC,250218 10:10:30.030, 0.000000, 0.000000, 0.000000, 0.000000, 0.000276, 0.000002,-0.000002, 3.622175,-1.855890,-2.525025, 0.106248,-3.683694, 6.916695, 3.622175,-1.855890,-2.525025, 0.106248,-3.683694, 6.916695, 3.622175,-1.855890,-2.525026, 0.106248,-3.683694, 6.916695, 0.156917, 0.182634,14.711339,66.905777,150.296921, 0.183821, 0.133605,931398.562500,150.000000,69.549992,-0.000000,-0.000000, 0.000000,-0.000001, 0.000000, 0.000001,-0.000001, 0.000000, 1.013855,-0.002979, 0.001590, 0.017450,-0.023899,,,,,,250218,10:10:30.030,36630.03
Mult,USC,250218 10:10:30.045, 0.000000, 0.000000, 0.000000, 0.000000, 0.000276, 0.000002,-0.000002, 3.745503,-1.775020, 2.271818, 1.003996,-0.366387, 6.895460, 3.745503,-1.775020, 2.271818, 1.003996,-0.366387, 6.895460, 3.745503,-1.775020, 2.271817, 1.003997,-0.366387, 6.895460, 0.156917, 0.182634,14.711339,66.905777,150.296921, 0.183821, 0.133605,931398.562500,150.000000,69.549992,-0.000001,-0.000001, 0.000000, 0.000000, 0.000000,-0.000001, 0.000000, 0.000000, 1.015100,-0.002570, 0.001935, 0.016846,-0.024712,,,,,,250218,10:10:30.045,36630.045
Mult,USC,250218 10:10:30.060, 0.000000, 0.000000, 0.000000, 0.000000, 0.000276, 0.000002,-0.000002, 3.659964,-1.684277, 3.129019, 1.156328,-8.195653, 6.702576, 3.659964,-1.684277, 3.129019, 1.156328,-8.195653, 6.702576, 3.659964,-1.684277, 3.129019, 1.156328,-8.195653, 6.702576, 0.156917, 0.182634,14.711339,66.905777,150.296921, 0.183821, 0.133605,931398.562500,150.000000,69.549992,-0.000000,-0.000000,-0.000001,-0.000001,-0.000001,-0.000001, 0.000000,-0.000001, 1.013126,-0.003177, 0.001755, 0.016501,-0.024216,,,,,,250218,10:10:30.060,36630.06
Mult,USC,250218 10:10:30.075, 0.000000, 0.000000, 0.000000, 0.000000, 0.000276, 0.000002,-0.000002, 3.527523,-1.968966, 0.442827, 0.480785,-3.016398, 6.281917, 3.527523,-1.968966, 0.442827, 0.480785,-3.016398, 6.281917, 3.527523,-1.968966, 0.442827, 0.480785,-3.016398, 6.281917, 0.156917, 0.182634,14.711339,66.905777,150.296921, 0.183821, 0.133605,931398.562500,150.000000,69.549992,-0.000001,-0.000000,-0.000001, 0.000000,-0.000001,-0.000001, 0.000000,-0.000001, 1.014725,-0.002838, 0.001782, 0.016666,-0.023185,,,,,,250218,10:10:30.075,36630.075
Mult,USC,250218 10:10:30.090, 0.000000, 0.000000, 0.000000, 0.000000, 0.000276, 0.000002,-0.000002, 4.016638,-1.615376, 0.717044, 0.808322,-1.974492, 5.612608, 4.016638,-1.615376, 0.717044, 0.808322,-1.974492, 5.612608, 4.016638,-1.615376, 0.717044, 0.808322,-1.974492, 5.612608, 0.156917, 0.182634,14.711339,66.905777,150.296921, 0.183821, 0.133605,931398.562500,150.000000,69.549992,-0.000001,-0.000000,-0.000001,-0.000001,-0.000001, 0.000000, 0.000000,-0.000001, 1.014178,-0.003177, 0.001846, 0.019638,-0.026527,,,,,,250218,10:10:30.090,36630.09
Mult,USC,250218 10:10:30.105, 0.000000, 0.000000, 0.000000, 0.000000, 0.000276, 0.000002,-0.000002, 4.010153,-1.054413, 1.661650, 0.079530,-5.946514, 5.090609, 4.010153,-1.054413, 1.661650, 0.079530,-5.946514, 5.090609, 4.010153,-1.054413, 1.661650, 0.079530,-5.946514, 5.090609, 0.156917, 0.182634,14.711339,66.905777,150.296921, 0.183821, 0.133605,931398.562500,150.000000,69.549992,-0.000000,-0.000000, 0.000000, 0.000000, 0.000000, 0.000001, 0.000000, 0.000000, 1.016473,-0.003491, 0.001712, 0.020526,-0.026619,,,,,,250218,10:10:30.105,36630.105
Mult,USC,250218 10:10:30.120, 0.000000, 0.000000, 0.000000, 0.000000, 0.000276, 0.000000,-0.000002, 3.739597,-1.272212, 0.384095,-1.426721, 3.328206, 5.071117, 3.739597,-1.272212, 0.384095,-1.426721, 3.328206, 5.071117, 3.739597,-1.272212, 0.384095,-1.426721, 3.328206, 5.071117, 0.156936, 0.181964,14.718597,66.905777,149.978394, 0.183133, 0.133322,929883.187500,150.000000,69.549992,-0.000001,-0.000001,-0.000001,-0.000001,-0.000001, 0.000000,-0.000001, 0.000000, 1.016666,-0.003116, 0.002103, 0.020239,-0.024645,,,,,,250218,10:10:30.120,36630.12
Mult,USC,250218 10:10:30.135, 0.000000, 0.000000, 0.000000, 0.000000, 0.000276, 0.000000,-0.000002, 4.034324,-1.247830,-2.164339,-0.671498, 0.003846, 5.278231, 4.034324,-1.247830,-2.164339,-0.671498, 0.003846, 5.278231, 4.034324,-1.247830,-2.164339,-0.671498, 0.003846, 5.278231, 0.156936, 0.181964,14.718597,66.905777,149.978394, 0.183133, 0.133322,929883.187500,150.000000,69.549992,-0.000001,-0.000000,-0.000001,-0.000001,-0.000001, 0.000000, 0.000000,-0.000001, 1.016736,-0.003174, 0.001437, 0.020389,-0.026719,,,,,,250218,10:10:30.135,36630.135
Mult,USC,250218 10:10:30.150, 0.000000, 0.000000, 0.000000, 0.000000, 0.000276, 0.000000,-0.000002, 4.495692,-1.173678,-0.121523,-0.193979,-4.971032, 5.743609, 4.495692,-1.173678,-0.121523,-0.193979,-4.971032, 5.743609, 4.495692,-1.173678,-0.121524,-0.193979,-4.971032, 5.743609, 0.156936, 0.181964,14.718597,66.905777,149.978394, 0.183133, 0.133322,929883.187500,150.000000,69.549992,-0.000001,-0.000001,-0.000001,-0.000001,-0.000001, 0.000001,-0.000001, 0.000000, 1.017365,-0.003174, 0.001724, 0.018567,-0.029811,,,,,,250218,10:10:30.150,36630.15
Mult,USC,250218 10:10:30.165, 0.000000, 0.000000, 0.000000, 0.000000, 0.000276, 0.000000,-0.000002, 3.937111,-1.545568, 0.514738,-0.522681, 3.955526, 6.179552, 3.937111,-1.545568, 0.514738,-0.522681, 3.955526, 6.179552, 3.937111,-1.545568, 0.514738,-0.522681, 3.955526, 6.179552, 0.156936, 0.181964,14.718597,66.905777,149.978394, 0.183133, 0.133322,929883.187500,150.000000,69.549992,-0.000001,-0.000001,-0.000001,-0.000001, 0.000000,-0.000001,-0.000001,-0.000001, 1.013828,-0.002921, 0.001526, 0.017892,-0.025930,,,,,,250218,10:10:30.165,36630.165
Mult,USC,250218 10:10:30.180, 0.000000, 0.000000, 0.000000, 0.000000, 0.000276, 0.000000,-0.000002, 3.645253,-1.631367,-1.439080, 0.402156,-3.858708, 6.556856, 3.645253,-1.631367,-1.439080, 0.402156,-3.858708, 6.556856, 3.645253,-1.631367,-1.439080, 0.402156,-3.858708, 6.556856, 0.156936, 0.181964,14.718597,66.905777,149.978394, 0.183133, 0.133322,929883.187500,150.000000,69.549992,-0.000000,-0.000001, 0.000000,-0.000001, 0.000000,-0.000001, 0.000000, 0.000000, 1.016312,-0.003491, 0.001852, 0.016757,-0.024084,,,,,,250218,10:10:30.180,36630.18
Mult,USC,250218 10:10:30.195, 0.000000, 0.000000, 0.000000, 0.000000, 0.000276, 0.000000,-0.000002, 4.122602,-1.821246, 1.794556, 1.147926,-1.591353, 6.733778, 4.122602,-1.821246, 1.794556, 1.147926,-1.591353, 6.733778, 4.122602,-1.821246, 1.794556, 1.147926,-1.591353, 6.733778, 0.156936, 0.181964,14.718597,66.905777,149.978394, 0.183133, 0.133322,929883.187500,150.000000,69.549992,-0.000000,-0.000001,-0.000001, 0.000000, 0.000000,-0.000001,-0.000001,-0.000001, 1.014725,-0.003143, 0.001746, 0.016599,-0.027219,,,,,,250218,10:10:30.195,36630.195
Mult,USC,250218 10:10:30.210, 0.000000, 0.000000, 0.000000, 0.000000, 0.000276, 0.000000,-0.000000, 0.673286,-0.457357, 0.234098, 0.101178,-0.384446, 1.347796, 0.673286,-0.457357, 0.234098, 0.101178,-0.384446, 1.347796, 0.673286,-0.457357, 0.234098, 0.101178,-0.384446, 1.347796, 0.156936, 0.181964,14.718597,66.905777,149.978394, 0.183133, 0.133322,929883.187500,150.000000,69.549992,-0.000000,-0.000000,-0.000001,-0.000001,-0.000001,-0.000001, 0.000000,-0.000001, 1.003003,-0.000653, 0.000369, 0.003583,-0.004409,,,,,,250218,10:10:30.210,36630.21
Mult,USC,250218 10:10:30.225, 0.000000, 0.000000, 0.000000, 0.000000, 0.000276, 0.000002, 0.000000, 3.341188,-2.131016, 0.048554, 0.832501,-3.180333, 6.651834, 3.341188,-2.131016, 0.048554, 0.832501,-3.180333, 6.651834, 3.341189,-2.131016, 0.048554, 0.832501,-3.180333, 6.651834, 0.156934, 0.181981,14.702261,66.905777,150.000488, 0.182817, 0.133341,928141.125000,150.000000,69.549992,-0.000001,-0.000001,-0.000001,-0.000001,-0.000001, 0.000000,-0.000001,-0.000001, 1.017139,-0.003326, 0.001712, 0.018280,-0.021916,,,,,,250218,10:10:30.225,36630.225
Mult,USC,250218 10:10:30.240, 0.000000, 0.000000, 0.000000, 0.000000, 0.000276, 0.000002, 0.000000, 3.972003,-1.798557, 2.375167, 0.168258,-0.122505, 6.405753, 3.972003,-1.798557, 2.375167, 0.168258,-0.122505, 6.405753, 3.972003,-1.798557, 2.375167, 0.168258,-0.122505, 6.405753, 0.156934, 0.181981,14.702261,66.905777,150.000488, 0.182817, 0.133341,928141.125000,150.000000,69.549992,-0.000001,-0.000001, 0.000000,-0.000001,-0.000001,-0.000001, 0.000000,-0.000001, 1.019028,-0.003113, 0.001743, 0.018686,-0.026187,,,,,,250218,10:10:30.240,36630.24
Mult,USC,250218 10:10:30.255, 0.000000, 0.000000, 0.000000, 0.000000, 0.000276, 0.000002, 0.000000, 4.238593,-1.309771, 0.085099, 1.148408,-1.598091, 6.151105, 4.238593,-1.309771, 0.085099, 1.148408,-1.598091, 6.151105, 4.238593,-1.309771, 0.085099, 1.148408,-1.598091, 6.151105, 0.156934, 0.181981,14.702261,66.905777,150.000488, 0.182817, 0.133341,928141.125000,150.000000,69.549992,-0.000001,-0.000000,-0.000001, 0.000001,-0.000001, 0.000000,-0.000001,-0.000001, 1.021530,-0.003146, 0.001437, 0.019504,-0.028087,,,,,,250218,10:10:30.255,36630.255
Mult,USC,250218 10:10:30.270, 0.000000, 0.000000, 0.000000, 0.000000, 0.000276, 0.000002, 0.000000, 3.371458,-1.505153,-3.101155,-1.101514,-6.305939, 6.018539, 3.371458,-1.505153,-3.101155,-1.101514,-6.305939, 6.018539, 3.371459,-1.505153,-3.101155,-1.101514,-6.305939, 6.018539, 0.156934, 0.181981,14.702261,66.905777,150.000488, 0.182817, 0.133341,928141.125000,150.000000,69.549992,-0.000000,-0.000001, 0.000000, 0.000000, 0.000000, 0.000000, 0.000000, 0.000000, 1.022357,-0.002991, 0.001590, 0.020209,-0.022295,,,,,,250218,10:10:30.270,36630.27
Mult,USC,250218 10:10:30.285, 0.000000, 0.000000, 0.000000, 0.000000, 0.000276, 0.000002, 0.000000, 3.447853,-1.356694, 0.479928,-0.066305,-1.612163, 5.513233, 3.447853,-1.356694, 0.479928,-0.066305,-1.612163, 5.513233, 3.447853,-1.356694, 0.479928,-0.066305,-1.612163, 5.513233, 0.156934, 0.181981,14.702261,66.905777,150.000488, 0.182817, 0.133341,928141.125000,150.000000,69.549992,-0.000000,-0.000001,-0.000001,-0.000001,-0.000001, 0.000000,-0.000001,-0.000001, 1.016885,-0.003296, 0.001782, 0.019318,-0.022764,,,,,,250218,10:10:30.285,36630.285
Mult,USC,250218 10:10:30.300, 0.000000, 0.000000, 0.000000, 0.000000, 0.000276, 0.000002, 0.000000, 3.967420,-1.289652, 0.987027, 0.343441,-3.841033, 5.322059, 3.967420,-1.289652, 0.987027, 0.343441,-3.841033, 5.322059, 3.967420,-1.289652, 0.987027, 0.343441,-3.841033, 5.322059, 0.156934, 0.181981,14.702261,66.905777,150.000488, 0.182817, 0.133341,928141.125000,150.000000,69.549992,-0.000001,-0.000001,-0.000001, 0.000000, 0.000000, 0.000000, 0.000000,-0.000001, 1.017325,-0.002704, 0.001654, 0.019757,-0.026271,,,,,,250218,10:10:30.300,36630.3
Mult,USC,250218 10:10:30.315, 0.000000, 0.000000, 0.000000, 0.000000, 0.000276, 0.000000, 0.000002, 4.106525,-1.390551,-0.669070,-1.178608,-1.007799, 5.514260, 4.106525,-1.390551,-0.669070,-1.178608,-1.007799, 5.514260, 4.106525,-1.390551,-0.669070,-1.178609,-1.007799, 5.514260, 0.156929, 0.182294,14.698004,66.894186,150.338669, 0.183760, 0.133644,930849.062500,150.000000,69.549992,-0.000001,-0.000000, 0.000000, 0.000000,-0.000001, 0.000000, 0.000000,-0.000001, 1.015973,-0.003055, 0.001328, 0.018185,-0.027129,,,,,,250218,10:10:30.315,36630.315
Mult,USC,250218 10:10:30.330, 0.000000, 0.000000, 0.000000, 0.000000, 0.000276, 0.000000, 0.000002, 4.217093,-1.566882,-0.265261, 0.863491, 1.212038, 5.756460, 4.217093,-1.566882,-0.265261, 0.863491, 1.212038, 5.756460, 4.217093,-1.566882,-0.265260, 0.863491, 1.212038, 5.756460, 0.156929, 0.182294,14.698004,66.894186,150.338669, 0.183760, 0.133644,930849.062500,150.000000,69.549992,-0.000001,-0.000001,-0.000001, 0.000000,-0.000001,-0.000001,-0.000001,-0.000001, 1.014688,-0.003387, 0.001813, 0.018018,-0.027853,,,,,,250218,10:10:30.330,36630.33
Mult,USC,250218 10:10:30.345, 0.000000, 0.000000, 0.000000, 0.000000, 0.000276, 0.000000, 0.000002, 4.290436,-1.623685, 3.352590,-0.714903, 2.407770, 6.297274, 4.290436,-1.623685, 3.352590,-0.714903, 2.407770, 6.297274, 4.290436,-1.623685, 3.352590,-0.714903, 2.407770, 6.297274, 0.156929, 0.182294,14.698004,66.894186,150.338669, 0.183760, 0.133644,930849.062500,150.000000,69.549992,-0.000000,-0.000000,-0.000001, 0.000000,-0.000001, 0.000000,-0.000001, 0.000000, 1.014499,-0.003485, 0.001392, 0.017871,-0.028313,,,,,,250218,10:10:30.345,36630.345
Mult,USC,250218 10:10:30.360, 0.000000, 0.000000, 0.000000, 0.000000, 0.000276, 0.000000, 0.000002, 3.798855,-1.630711,-0.709738,-0.223144,-5.930506, 6.871972, 3.798855,-1.630711,-0.709738,-0.223144,-5.930506, 6.871972, 3.798855,-1.630711,-0.709738,-0.223144,-5.930506, 6.871972, 0.156929, 0.182294,14.698004,66.894186,150.338669, 0.183760, 0.133644,930849.062500,150.000000,69.549992,-0.000001,-0.000001,-0.000001, 0.000000, 0.000000, 0.000000, 0.000000,-0.000001, 1.019122,-0.003146, 0.001782, 0.016125,-0.025090,,,,,,250218,10:10:30.360,36630.36
Mult,USC,250218 10:10:30.375, 0.000000, 0.000000, 0.000000, 0.000000, 0.000276, 0.000000, 0.000002, 3.820129,-1.512387,-0.735136, 1.525381, 1.733094, 6.996084, 3.820129,-1.512387,-0.735136, 1.525381, 1.733094, 6.996084, 3.820129,-1.512387,-0.735136, 1.525381, 1.733094, 6.996084, 0.156929, 0.182294,14.698004,66.894186,150.338669, 0.183760, 0.133644,930849.062500,150.000000,69.549992,-0.000000,-0.000001, 0.000000, 0.000000, 0.000000, 0.000000,-0.000001,-0.000001, 1.016150,-0.003452, 0.001422, 0.017291,-0.025258,,,,,,250218,10:10:30.375,36630.375
Mult,USC,250218 10:10:30.390, 0.000000, 0.000000, 0.000000, 0.000000, 0.000276, 0.000000, 0.000002, 3.733667,-1.836887, 0.935820,-0.009351,-7.338337, 6.720983, 3.733667,-1.836887, 0.935820,-0.009351,-7.338337, 6.720983, 3.733667,-1.836887, 0.935820,-0.009351,-7.338337, 6.720983, 0.156929, 0.182294,14.698004,66.894186,150.338669, 0.183760, 0.133644,930849.062500,150.000000,69.549992,-0.000001,-0.000001,-0.000001,-0.000001, 0.000001,-0.000001, 0.000000, 0.000000, 1.017810,-0.003082, 0.001935, 0.018176,-0.024612,,,,,,250218,10:10:30.390,36630.39
Mult,USC,250218 10:10:30.405, 0.000000, 0.000000, 0.000000, 0.000000, 0.000276, 0.000000, 0.000002, 3.763509,-1.830282, 0.804112, 0.590814,-5.297085, 6.241351, 3.763509,-1.830282, 0.804112, 0.590814,-5.297085, 6.241351, 3.763509,-1.830282, 0.804112, 0.590814,-5.297085, 6.241351, 0.156929, 0.182294,14.698004,66.894186,150.338669, 0.183760, 0.133644,930849.062500,150.000000,69.549992,-0.000000,-0.000001, 0.000000,-0.000001,-0.000001, 0.000000,-0.000001, 0.000000, 1.018491,-0.002960, 0.001743, 0.019037,-0.024810,,,,,,250218,10:10:30.405,36630.405
Mult,USC,250218 10:10:30.420, 0.000000, 0.000000, 0.000000, 0.000000, 0.000276, 0.000000, 0.000002, 3.294805,-1.893321,-2.350066, 0.137727,-3.773303, 5.909410, 3.294805,-1.893321,-2.350066, 0.137727,-3.773303, 5.909410, 3.294805,-1.893321,-2.350066, 0.137726,-3.773303, 5.909410, 0.156944, 0.182055,14.691418,66.894186,150.223343, 0.183396, 0.133541,929718.187500,150.000000,69.549992,-0.000001,-0.000000,-0.000001,-0.000001, 0.000001,-0.000001,-0.000001,-0.000001, 1.017337,-0.003204, 0.001758, 0.020142,-0.021691,,,,,,250218,10:10:30.420,36630.42
Mult,USC,250218 10:10:30.435, 0.000000, 0.000000, 0.000000, 0.000000, 0.000276, 0.000000, 0.000002, 3.650383,-1.377352, 0.917363,-0.881433,-5.013145, 5.765444, 3.650383,-1.377352, 0.917363,-0.881433,-5.013145, 5.765444, 3.650383,-1.377352, 0.917364,-0.881434,-5.013145, 5.765444, 0.156944, 0.182055,14.691418,66.894186,150.223343, 0.183396, 0.133541,929718.187500,150.000000,69.549992,-0.000000,-0.000000,-0.000001, 0.000000, 0.000000,-0.000001,-0.000001, 0.000000, 1.016467,-0.003326, 0.001270, 0.019669,-0.024116,,,,,,250218,10:10:30.435,36630.435
Mult,USC,250218 10:10:30.450, 0.000000, 0.000000, 0.000000, 0.000000, 0.000276, 0.000000, 0.000002, 3.740105,-1.119170, 2.869285,-0.069819,-3.931428, 5.981343, 3.740105,-1.119170, 2.869285,-0.069819,-3.931428, 5.981343, 3.740105,-1.119170, 2.869285,-0.069819,-3.931428, 5.981343, 0.156944, 0.182055,14.691418,66.894186,150.223343, 0.183396, 0.133541,929718.187500,150.000000,69.549992,-0.000000,-0.000001, 0.000000,-0.000001,-0.000001, 0.000000, 0.000000, 0.000000, 1.015610,-0.003174, 0.001590, 0.020108,-0.024813,,,,,,250218,10:10:30.450,36630.45
Mult,USC,250218 10:10:30.465, 0.000000, 0.000000, 0.000000, 0.000000, 0.000276, 0.000000, 0.000002, 3.403065,-1.577169, 0.108096,-0.811611, 1.135178, 6.463096, 3.403065,-1.577169, 0.108096,-0.811611, 1.135178, 6.463096, 3.403065,-1.577169, 0.108097,-0.811612, 1.135178, 6.463096, 0.156944, 0.182055,14.691418,66.894186,150.223343, 0.183396, 0.133541,929718.187500,150.000000,69.549992,-0.000000,-0.000000, 0.000000, 0.000000, 0.000000,-0.000001,-0.000001, 0.000000, 1.014502,-0.002930, 0.001678, 0.019031,-0.022383,,,,,,250218,10:10:30.465,36630.465
Mult,USC,250218 10:10:30.480, 0.000000, 0.000000, 0.000000, 0.000000, 0.000276, 0.000000, 0.000002, 4.064674,-1.768554,-1.218006, 0.435955,-4.128484, 6.625035, 4.064674,-1.768554,-1.218006, 0.435955,-4.128484, 6.625035, 4.064674,-1.768554,-1.218006, 0.435955,-4.128484, 6.625035, 0.156944, 0.182055,14.691418,66.894186,150.223343, 0.183396, 0.133541,929718.187500,150.000000,69.549992,-0.000001,-0.000001,-0.000001,-0.000001, 0.000000, 0.000000, 0.000000, 0.000000, 1.014459,-0.003113, 0.001813, 0.017639,-0.026847,,,,,,250218,10:10:30.480,36630.48
Mult,USC,250218 10:10:30.495, 0.000000, 0.000000, 0.000000, 0.000000, 0.000276, 0.000000, 0.000002, 4.877685,-1.482394, 3.692763, 1.450870, 2.863412, 6.297410, 4.877685,-1.482394, 3.692763, 1.450870, 2.863412, 6.297410, 4.877685,-1.482394, 3.692763, 1.450870, 2.863412, 6.297410, 0.156944, 0.182055,14.691418,66.894186,150.223343, 0.183396, 0.133541,929718.187500,150.000000,69.549992,-0.000000,-0.000000, 0.000000,-0.000001, 0.000000,-0.000001,-0.000001, 0.000000, 1.015656,-0.003204, 0.002072, 0.018274,-0.032318,,,,,,250218,10:10:30.495,36630.495
Mult,USC,250218 10:10:30.510, 0.000000, 0.000000, 0.000000, 0.000000, 0.000276, 0.000000, 0.000000, 0.881016,-0.389804, 0.069328, 0.028263,-0.591334, 1.206728, 0.881016,-0.389804, 0.069328, 0.028263,-0.591334, 1.206728, 0.881016,-0.389804, 0.069328, 0.028263,-0.591334, 1.206728, 0.156944, 0.182055,14.691418,66.894186,150.223343, 0.183396, 0.133541,929718.187500,150.000000,69.549992,-0.000001,-0.000001,-0.000001,-0.000001,-0.000001, 0.000000,-0.000001, 0.000000, 1.003320,-0.000592, 0.000272, 0.003458,-0.005806,,,,,,250218,10:10:30.510,36630.51
Mult,USC,250218 10:10:30.525, 0.000000, 0.000000, 0.000000, 0.000000, 0.000276, 0.000000, 0.000000, 3.515767,-1.834117,-2.692712, 0.462580,-1.994011, 5.720025, 3.515767,-1.834117,-2.692712, 0.462580,-1.994011, 5.720025, 3.515767,-1.834117,-2.692712, 0.462580,-1.994011, 5.720025, 0.156929, 0.182484,14.696498,66.894186,150.335526, 0.183734, 0.133641,930734.312500,150.000000,69.549992,-0.000001,-0.000000,-0.000001,-0.000001,-0.000001,-0.000001,-0.000001,-0.000001, 1.018259,-0.003146, 0.001749, 0.017645,-0.023183,,,,,,250218,10:10:30.525,36630.525
Mult,USC,250218 10:10:30.540, 0.000000, 0.000000, 0.000000, 0.000000, 0.000276, 0.000000, 0.000000, 3.480124,-1.741599, 1.535851,-0.921438,-0.875897, 5.653752, 3.480124,-1.741599, 1.535851,-0.921438,-0.875897, 5.653752, 3.480124,-1.741599, 1.535851,-0.921438,-0.875897, 5.653752, 0.156929, 0.182484,14.696498,66.894186,150.335526, 0.183734, 0.133641,930734.312500,150.000000,69.549992,-0.000000,-0.000001,-0.000001, 0.000000,-0.000001,-0.000001,-0.000001, 0.000000, 1.018350,-0.003024, 0.001877, 0.018082,-0.022878,,,,,,250218,10:10:30.540,36630.54
Mult,USC,250218 10:10:30.555, 0.000000, 0.000000, 0.000000, 0.000000, 0.000276, 0.000000, 0.000000, 3.600318,-1.119085, 1.345299,-0.138725,-6.906492, 6.118619, 3.600318,-1.119085, 1.345299,-0.138725,-6.906492, 6.118619, 3.600318,-1.119085, 1.345299,-0.138725,-6.906492, 6.118619, 0.156929, 0.182484,14.696498,66.894186,150.335526, 0.183734, 0.133641,930734.312500,150.000000,69.549992,-0.000001,-0.000000,-0.000001, 0.000000,-0.000001,-0.000001,-0.000001,-0.000001, 1.018491,-0.002960, 0.001712, 0.020590,-0.023880,,,,,,250218,10:10:30.555,36630.555
Mult,USC,250218 10:10:30.570, 0.000000, 0.000000, 0.000000, 0.000000, 0.000276, 0.000000, 0.000000, 3.534049,-1.311911,-2.075857,-0.214537,-7.112347, 6.533459, 3.534049,-1.311911,-2.075857,-0.214537,-7.112347, 6.533459, 3.534049,-1.311911,-2.075857,-0.214537,-7.112347, 6.533459, 0.156929, 0.182484,14.696498,66.894186,150.335526, 0.183734, 0.133641,930734.312500,150.000000,69.549992,-0.000001,-0.000001, 0.000000, 0.000000, 0.000000,-0.000001,-0.000001, 0.000001, 1.016632,-0.002884, 0.001776, 0.019730,-0.023432,,,,,,250218,10:10:30.570,36630.57
Mult,USC,250218 10:10:30.585, 0.000000, 0.000000, 0.000000, 0.000000, 0.000276, 0.000000, 0.000000, 3.633394,-1.373055, 2.177724, 0.300749,-0.495577, 6.373959, 3.633394,-1.373055, 2.177724, 0.300749,-0.495577, 6.373959, 3.633394,-1.373055, 2.177724, 0.300749,-0.495577, 6.373959, 0.156929, 0.182484,14.696498,66.894186,150.335526, 0.183734, 0.133641,930734.312500,150.000000,69.549992,-0.000001,-0.000000, 0.000001, 0.000000,-0.000001, 0.000000,-0.000001,-0.000001, 1.016580,-0.003113, 0.001752, 0.019760,-0.024031,,,,,,250218,10:10:30.585,36630.585
Mult,USC,250218 10:10:30.600, 0.000000, 0.000000, 0.000000, 0.000000, 0.000276, 0.000000, 0.000000, 3.866311,-1.572608, 2.268681, 1.559868,-6.553329, 5.807826, 3.866311,-1.572608, 2.268681, 1.559868,-6.553329, 5.807826, 3.866311,-1.572608, 2.268681, 1.559868,-6.553329, 5.807826, 0.156929, 0.182484,14.696498,66.894186,150.335526, 0.183734, 0.133641,930734.312500,150.000000,69.549992,-0.000001,-0.000000,-0.000001, 0.000000,-0.000001,-0.000001, 0.000000,-0.000001, 1.019620,-0.003143, 0.001968, 0.019821,-0.025599,,,,,,250218,10:10:30.600,36630.6
Mult,USC,250218 10:10:30.615, 0.000000, 0.000000, 0.000000, 0.000000, 0.000276, 0.000000, 0.000000, 3.371789,-1.703492,-0.676306,-0.693205, 2.148722, 5.370020, 3.371789,-1.703492,-0.676306,-0.693205, 2.148722, 5.370020, 3.371789,-1.703492,-0.676306,-0.693205, 2.148722, 5.370020, 0.156925, 0.182341,14.715356,66.894186,149.901718, 0.182910, 0.133255,929239.375000,150.000000,69.549992,-0.000001,-0.000001,-0.000001, 0.000000, 0.000001,-0.000001,-0.000001, 0.000000, 1.017786,-0.003113, 0.002011, 0.018372,-0.022138,,,,,,250218,10:10:30.615,36630.615
Mult,USC,250218 10:10:30.630, 0.000000, 0.000000, 0.000000, 0.000000, 0.000276, 0.000000, 0.000000, 3.629597,-1.663246,-0.481547,-0.051264, 0.296641, 5.070144, 3.629597,-1.663246,-0.481547,-0.051264, 0.296641, 5.070144, 3.629597,-1.663246,-0.481547,-0.051264, 0.296641, 5.070144, 0.156925, 0.182341,14.715356,66.894186,149.901718, 0.182910, 0.133255,929239.375000,150.000000,69.549992,-0.000001,-0.000001, 0.000000, 0.000000,-0.000001, 0.000000, 0.000000, 0.000000, 1.015808,-0.003052, 0.001712, 0.018875,-0.023893,,,,,,250218,10:10:30.630,36630.63
Mult,USC,250218 10:10:30.645, 0.000000, 0.000000, 0.000000, 0.000000, 0.000276, 0.000000, 0.000000, 3.644945,-1.570198, 1.174483, 0.620392,-0.735981, 5.056343, 3.644945,-1.570198, 1.174483, 0.620392,-0.735981, 5.056343, 3.644945,-1.570198, 1.174483, 0.620392,-0.735981, 5.056343, 0.156925, 0.182341,14.715356,66.894186,149.901718, 0.182910, 0.133255,929239.375000,150.000000,69.549992,-0.000001,-0.000000, 0.000000, 0.000000, 0.000000,-0.000001,-0.000001,-0.000001, 1.016528,-0.003369, 0.001968, 0.016779,-0.024044,,,,,,250218,10:10:30.645,36630.645
Mult,USC,250218 10:10:30.660, 0.000000, 0.000000, 0.000000, 0.000000, 0.000276, 0.000000, 0.000000, 3.241364,-1.606182,-0.856863,-0.701006, 0.724471, 5.401845, 3.241364,-1.606182,-0.856863,-0.701006, 0.724471, 5.401845, 3.241364,-1.606182,-0.856863,-0.701006, 0.724471, 5.401845, 0.156925, 0.182341,14.715356,66.894186,149.901718, 0.182910, 0.133255,929239.375000,150.000000,69.549992,-0.000001,-0.000000, 0.000000, 0.000000, 0.000000,-0.000001, 0.000000,-0.000001, 1.016754,-0.003143, 0.001947, 0.017987,-0.021310,,,,,,250218,10:10:30.660,36630.66
Mult,USC,250218 10:10:30.675, 0.000000, 0.000000, 0.000000, 0.000000, 0.000276, 0.000000, 0.000000, 3.129902,-1.146055,-1.692676, 0.001696, 0.365687, 5.786360, 3.129902,-1.146055,-1.692676, 0.001696, 0.365687, 5.786360, 3.129902,-1.146055,-1.692676, 0.001696, 0.365687, 5.786360, 0.156925, 0.182341,14.715356,66.894186,149.901718, 0.182910, 0.133255,929239.375000,150.000000,69.549992,-0.000001,-0.000001, 0.000000, 0.000000, 0.000000,-0.000001,-0.000001, 0.000001, 1.016696,-0.003387, 0.001743, 0.019003,-0.020719,,,,,,250218,10:10:30.675,36630.675
Mult,USC,250218 10:10:30.690, 0.000000, 0.000000, 0.000000, 0.000000, 0.000276, 0.000000, 0.000000, 2.822096,-1.125967, 0.900307, 0.551975,-0.984356, 5.962067, 2.822096,-1.125967, 0.900307, 0.551975,-0.984356, 5.962067, 2.822096,-1.125967, 0.900307, 0.551975,-0.984356, 5.962067, 0.156925, 0.182341,14.715356,66.894186,149.901718, 0.182910, 0.133255,929239.375000,150.000000,69.549992,-0.000001,-0.000001,-0.000001,-0.000001,-0.000001,-0.000001,-0.000001,-0.000001, 1.020358,-0.002991, 0.001813, 0.019504,-0.018668,,,,,,250218,10:10:30.690,36630.69
Mult,USC,250218 10:10:30.705, 0.000000, 0.000000, 0.000000, 0.000000, 0.000276, 0.000000, 0.000000, 1.815647,-1.494800, 1.309970,-0.599835,-0.129289, 5.964548, 1.815647,-1.494800, 1.309970,-0.599835,-0.129289, 5.964548, 1.815647,-1.494800, 1.309970,-0.599835,-0.129289, 5.964548, 0.156925, 0.182341,14.715356,66.894186,149.901718, 0.182910, 0.133255,929239.375000,150.000000,69.549992,-0.000000,-0.000001, 0.000001,-0.000001, 0.000000,-0.000001, 0.000000,-0.000001, 1.015842,-0.003201, 0.001691, 0.018466,-0.011839,,,,,,250218,10:10:30.705,36630.705
Mult,USC,250218 10:10:30.720, 0.000000, 0.000000, 0.000000, 0.000000, 0.000276, 0.000000, 0.000002, 2.006821,-1.707131, 0.192718, 0.871760,-5.160701, 5.733105, 2.006821,-1.707131, 0.192718, 0.871760,-5.160701, 5.733105, 2.006821,-1.707131, 0.192718, 0.871760,-5.160701, 5.733105, 0.156933, 0.182286,14.712455,66.894186,150.058014, 0.183255, 0.133394,930024.875000,150.000000,69.549992,-0.000001,-0.000000, 0.000000,-0.000001, 0.000000,-0.000001,-0.000001,-0.000001, 1.016702,-0.003296, 0.001746, 0.020764,-0.013120,,,,,,250218,10:10:30.720,36630.72
Mult,USC,250218 10:10:30.735, 0.000000, 0.000000, 0.000000, 0.000000, 0.000276, 0.000000, 0.000002, 3.033384,-1.945983, 2.091572,-0.363106,-4.287605, 5.539557, 3.033384,-1.945983, 2.091572,-0.363106,-4.287605, 5.539557, 3.033384,-1.945983, 2.091572,-0.363106,-4.287605, 5.539557, 0.156933, 0.182286,14.712455,66.894186,150.058014, 0.183255, 0.133394,930024.875000,150.000000,69.549992,-0.000001,-0.000001,-0.000001,-0.000001,-0.000001, 0.000000, 0.000000,-0.000001, 1.014490,-0.003079, 0.001968, 0.020068,-0.019888,,,,,,250218,10:10:30.735,36630.735
Mult,USC,250218 10:10:30.750, 0.000000, 0.000000, 0.000000, 0.000000, 0.000276, 0.000000, 0.000002, 3.228493,-1.661544, 1.333837, 1.220166,-2.729599, 5.454876, 3.228493,-1.661544, 1.333837, 1.220166,-2.729599, 5.454876, 3.228493,-1.661544, 1.333838, 1.220166,-2.729599, 5.454876, 0.156933, 0.182286,14.712455,66.894186,150.058014, 0.183255, 0.133394,930024.875000,150.000000,69.549992,-0.000000,-0.000000, 0.000000,-0.000001, 0.000000,-0.000001,-0.000001, 0.000000, 1.015710,-0.003082, 0.001752, 0.018628,-0.021280,,,,,,250218,10:10:30.750,36630.75
Mult,USC,250218 10:10:30.765, 0.000000, 0.000000, 0.000000, 0.000000, 0.000276, 0.000000, 0.000002, 2.252875,-1.667832,-0.351039,-0.100112,-3.047163, 5.528646, 2.252875,-1.667832,-0.351039,-0.100112,-3.047163, 5.528646, 2.252875,-1.667832,-0.351039,-0.100113,-3.047163, 5.528646, 0.156933, 0.182286,14.712455,66.894186,150.058014, 0.183255, 0.133394,930024.875000,150.000000,69.549992,-0.000000,-0.000001,-0.000001, 0.000000,-0.000001,-0.000001,-0.000001, 0.000000, 1.018680,-0.003265, 0.001743, 0.018115,-0.014732,,,,,,250218,10:10:30.765,36630.765
Mult,USC,250218 10:10:30.780, 0.000000, 0.000000, 0.000000, 0.000000, 0.000276, 0.000000, 0.000002, 2.190544,-1.620905, 1.883089,-1.362842,-2.910541, 5.710153, 2.190544,-1.620905, 1.883089,-1.362842,-2.910541, 5.710153, 2.190544,-1.620905, 1.883089,-1.362842,-2.910541, 5.710153, 0.156933, 0.182286,14.712455,66.894186,150.058014, 0.183255, 0.133394,930024.875000,150.000000,69.549992,-0.000001,-0.000001,-0.000001, 0.000000, 0.000001,-0.000001, 0.000001,-0.000001, 1.014554,-0.003522, 0.002002, 0.018210,-0.014310,,,,,,250218,10:10:30.780,36630.78
Mult,USC,250218 10:10:30.795, 0.000000, 0.000000, 0.000000, 0.000000, 0.000276, 0.000000, 0.000002, 2.344593,-1.229301,-0.393192, 0.789065,-3.863259, 5.977315, 2.344593,-1.229301,-0.393192, 0.789065,-3.863259, 5.977315, 2.344593,-1.229301,-0.393192, 0.789065,-3.863259, 5.977315, 0.156933, 0.182286,14.712455,66.894186,150.058014, 0.183255, 0.133394,930024.875000,150.000000,69.549992,-0.000000,-0.000000,-0.000001,-0.000001, 0.000000,-0.000001,-0.000001,-0.000001, 1.015622,-0.003152, 0.001526, 0.015399,-0.015484,,,,,,250218,10:10:30.795,36630.795
Mult,USC,250218 10:10:30.810, 0.000000, 0.000000, 0.000000, 0.000000, 0.000276, 0.000000, 0.000000, 0.489632,-0.273198,-0.602389,-0.245452,-0.804675, 1.289818, 0.489632,-0.273198,-0.602389,-0.245452,-0.804675, 1.289818, 0.489632,-0.273198,-0.602389,-0.245452,-0.804675, 1.289818, 0.156933, 0.182286,14.712455,66.894186,150.058014, 0.183255, 0.133394,930024.875000,150.000000,69.549992,-0.000001,-0.000000,-0.000001,-0.000001, 0.000000, 0.000000,-0.000001,-0.000001, 1.003256,-0.000653, 0.000369, 0.003745,-0.003231,,,,,,250218,10:10:30.810,36630.81
Mult,USC,250218 10:10:30.825, 0.000000, 0.000000, 0.000000, 0.000000, 0.000276, 0.000000, 0.000002, 3.176649,-1.248150, 1.892259,-0.425360,-2.823939, 5.646749, 3.176649,-1.248150, 1.892259,-0.425360,-2.823939, 5.646749, 3.176649,-1.248150, 1.892259,-0.425360,-2.823939, 5.646749, 0.156921, 0.181572,14.698094,66.894186,150.259369, 0.183568, 0.133573,930363.750000,150.000000,69.549992,-0.000001,-0.000001,-0.000001,-0.000001, 0.000000, 0.000000,-0.000001, 0.000000, 1.015610,-0.002856, 0.001877, 0.019669,-0.020995,,,,,,250218,10:10:30.825,36630.825
Mult,USC,250218 10:10:30.840, 0.000000, 0.000000, 0.000000, 0.000000, 0.000276, 0.000000, 0.000002, 2.853132,-1.300818, 2.922036,-0.275484,-2.621035, 5.461668, 2.853132,-1.300818, 2.922036,-0.275484,-2.621035, 5.461668, 2.853132,-1.300818, 2.922036,-0.275484,-2.621035, 5.461668, 0.156921, 0.181572,14.698094,66.894186,150.259369, 0.183568, 0.133573,930363.750000,150.000000,69.549992,-0.000000,-0.000000,-0.000001,-0.000001,-0.000001,-0.000001,-0.000001,-0.000001, 1.015680,-0.003391, 0.001334, 0.019168,-0.018837,,,,,,250218,10:10:30.840,36630.84
Mult,USC,250218 10:10:30.855, 0.000000, 0.000000, 0.000000, 0.000000, 0.000276, 0.000000, 0.000002, 2.205923,-1.696694,-1.335702,-0.714238, 1.213195, 5.703495, 2.205923,-1.696694,-1.335702,-0.714238, 1.213195, 5.703495, 2.205923,-1.696694,-1.335702,-0.714238, 1.213195, 5.703495, 0.156921, 0.181572,14.698094,66.894186,150.259369, 0.183568, 0.133573,930363.750000,150.000000,69.549992,-0.000000,-0.000001,-0.000001, 0.000000,-0.000001,-0.000001,-0.000001,-0.000001, 1.018396,-0.003143, 0.001813, 0.020364,-0.014393,,,,,,250218,10:10:30.855,36630.855
Mult,USC,250218 10:10:30.870, 0.000000, 0.000000, 0.000000, 0.000000, 0.000276, 0.000000, 0.000002, 2.819740,-1.643714,-2.097851, 0.192915,-2.322347, 6.005829, 2.819740,-1.643714,-2.097851, 0.192915,-2.322347, 6.005829, 2.819740,-1.643714,-2.097851, 0.192914,-2.322347, 6.005829, 0.156921, 0.181572,14.698094,66.894186,150.259369, 0.183568, 0.133573,930363.750000,150.000000,69.549992,-0.000001,-0.000001, 0.000000, 0.000000, 0.000000, 0.000000,-0.000001,-0.000001, 1.016577,-0.003235, 0.001648, 0.021945,-0.018569,,,,,,250218,10:10:30.870,36630.87
Mult,USC,250218 10:10:30.885, 0.000000, 0.000000, 0.000000, 0.000000, 0.000276, 0.000000, 0.000002, 2.855446,-1.712086, 1.217819, 0.837994,-3.763349, 6.189680, 2.855446,-1.712086, 1.217819, 0.837994,-3.763349, 6.189680, 2.855446,-1.712086, 1.217819, 0.837994,-3.763349, 6.189680, 0.156921, 0.181572,14.698094,66.894186,150.259369, 0.183568, 0.133573,930363.750000,150.000000,69.549992,-0.000001,-0.000000,-0.000001, 0.000000, 0.000000,-0.000001, 0.000000, 0.000001, 1.016028,-0.003204, 0.001813, 0.021054,-0.018783,,,,,,250218,10:10:30.885,36630.885
Mult,USC,250218 10:10:30.900, 0.000000, 0.000000, 0.000000, 0.000000, 0.000276, 0.000000, 0.000002, 2.315163,-1.732626, 0.532695,-0.066453,-0.753277, 6.348185, 2.315163,-1.732626, 0.532695,-0.066453,-0.753277, 6.348185, 2.315163,-1.732626, 0.532695,-0.066453,-0.753277, 6.348185, 0.156921, 0.181572,14.698094,66.894186,150.259369, 0.183568, 0.133573,930363.750000,150.000000,69.549992,-0.000001,-0.000001,-0.000001, 0.000000,-0.000001, 0.000000, 0.000001, 0.000000, 1.015417,-0.003009, 0.001968, 0.020456,-0.015129,,,,,,250218,10:10:30.900,36630.9
Mult,USC,250218 10:10:30.915, 0.000000, 0.000000, 0.000000, 0.000000, 0.000276, 0.000000, 0.000002, 3.280935,-1.312433,-2.548906,-0.387257,-5.921886, 5.972178, 3.280935,-1.312433,-2.548906,-0.387257,-5.921886, 5.972178, 3.280935,-1.312433,-2.548906,-0.387258,-5.921886, 5.972178, 0.156922, 0.181188,14.689420,66.894186,150.505081, 0.184060, 0.133791,931335.250000,150.000000,69.549992,-0.000000,-0.000000,-0.000001,-0.000001, 0.000000,-0.000001,-0.000001,-0.000001, 1.016696,-0.003174, 0.001678, 0.019897,-0.021737,,,,,,250218,10:10:30.915,36630.915
Mult,USC,250218 10:10:30.930, 0.000000, 0.000000, 0.000000, 0.000000, 0.000276, 0.000000, 0.000002, 2.885794,-1.119190, 1.407553,-0.391625,-3.729663, 5.549862, 2.885794,-1.119190, 1.407553,-0.391625,-3.729663, 5.549862, 2.885794,-1.119190, 1.407553,-0.391626,-3.729663, 5.549862, 0.156922, 0.181188,14.689420,66.894186,150.505081, 0.184060, 0.133791,931335.250000,150.000000,69.549992, 0.000001,-0.000001, 0.000000, 0.000000,-0.000001,-0.000001,-0.000001, 0.000000, 1.015860,-0.003235, 0.001648, 0.017957,-0.019085,,,,,,250218,10:10:30.930,36630.93
Mult,USC,250218 10:10:30.945, 0.000000, 0.000000, 0.000000, 0.000000, 0.000276, 0.000000, 0.000002, 2.368153,-1.402619, 1.079984,-1.540056,-5.052079, 5.599548, 2.368153,-1.402619, 1.079984,-1.540056,-5.052079, 5.599548, 2.368153,-1.402619, 1.079984,-1.540056,-5.052079, 5.599548, 0.156922, 0.181188,14.689420,66.894186,150.505081, 0.184060, 0.133791,931335.250000,150.000000,69.549992,-0.000001,-0.000001, 0.000000,-0.000001, 0.000000,-0.000001, 0.000000,-0.000001, 1.016129,-0.003024, 0.001456, 0.017883,-0.015543,,,,,,250218,10:10:30.945,36630.945
Mult,USC,250218 10:10:30.960, 0.000000, 0.000000, 0.000000, 0.000000, 0.000276, 0.000000, 0.000002, 2.139044,-1.447283,-2.515594, 0.408603,-3.319639, 5.803662, 2.139044,-1.447283,-2.515594, 0.408603,-3.319639, 5.803662, 2.139044,-1.447283,-2.515594, 0.408603,-3.319639, 5.803662, 0.156922, 0.181188,14.689420,66.894186,150.505081, 0.184060, 0.133791,931335.250000,150.000000,69.549992,-0.000000,-0.000000, 0.000000,-0.000001, 0.000000, 0.000000, 0.000000, 0.000000, 1.018484,-0.002991, 0.001816, 0.017487,-0.014094,,,,,,250218,10:10:30.960,36630.96
Mult,USC,250218 10:10:30.975, 0.000000, 0.000000, 0.000000, 0.000000, 0.000276, 0.000000, 0.000002, 2.890368,-1.690945, 0.832137, 0.019007,-2.632631, 6.104699, 2.890368,-1.690945, 0.832137, 0.019007,-2.632631, 6.104699, 2.890368,-1.690945, 0.832137, 0.019007,-2.632631, 6.104699, 0.156922, 0.181188,14.689420,66.894186,150.505081, 0.184060, 0.133791,931335.250000,150.000000,69.549992,-0.000000,-0.000001,-0.000001,-0.000001, 0.000000, 0.000000, 0.000000,-0.000001, 1.016888,-0.003171, 0.001559, 0.018945,-0.018987,,,,,,250218,10:10:30.975,36630.975
Mult,USC,250218 10:10:30.990, 0.000000, 0.000000, 0.000000, 0.000000, 0.000276, 0.000000, 0.000002, 2.839787,-1.920303, 3.087317, 0.160915,-6.013309, 6.278532, 2.839787,-1.920303, 3.087317, 0.160915,-6.013309, 6.278532, 2.839786,-1.920303, 3.087318, 0.160915,-6.013309, 6.278532, 0.156922, 0.181188,14.689420,66.894186,150.505081, 0.184060, 0.133791,931335.250000,150.000000,69.549992,-0.000000,-0.000001, 0.000000,-0.000001,-0.000001,-0.000001,-0.000001, 0.000000, 1.016864,-0.002856, 0.001373, 0.020172,-0.018646,,,,,,250218,10:10:30.990,36630.99
Mult,USC,250218 10:10:31.005, 0.000000, 0.000000, 0.000000, 0.000000, 0.000276, 0.000000, 0.000002, 2.462161,-1.828338, 0.561185, 0.953152,-0.875945, 6.233288, 2.462161,-1.828338, 0.561185, 0.953152,-0.875945, 6.233288, 2.462161,-1.828338, 0.561185, 0.953152,-0.875945, 6.233288, 0.156922, 0.181188,14.689420,66.894186,150.505081, 0.184060, 0.133791,931335.250000,150.000000,69.549992,-0.000001,-0.000000,-0.000001, 0.000000,-0.000001,-0.000001, 0.000000, 0.000000, 1.017786,-0.003113, 0.001678, 0.021030,-0.016114,,,,,,250218,10:10:31.005,36631.005
Mult,USC,250218 10:10:31.020, 0.000000, 0.000000, 0.000000, 0.000000, 0.000276, 0.000000, 0.000000, 2.278929,-1.766779,-0.723682, 0.576863,-1.071506, 6.043701, 2.278929,-1.766779,-0.723682, 0.576863,-1.071506, 6.043701, 2.278929,-1.766779,-0.723682, 0.576863,-1.071506, 6.043701, 0.156942, 0.182949,14.712905,66.894186,150.416763, 0.184138, 0.133713,932276.875000,150.000000,69.549992,-0.000001,-0.000001,-0.000001, 0.000000,-0.000001, 0.000000,-0.000001,-0.000001, 1.018164,-0.002991, 0.001813, 0.020514,-0.014906,,,,,,250218,10:10:31.020,36631.02
Mult,USC,250218 10:10:31.035, 0.000000, 0.000000, 0.000000, 0.000000, 0.000276, 0.000000, 0.000000, 2.587153,-1.564283, 0.784065, 0.820730,-2.849108, 5.456967, 2.587153,-1.564283, 0.784065, 0.820730,-2.849108, 5.456967, 2.587153,-1.564283, 0.784065, 0.820730,-2.849108, 5.456967, 0.156942, 0.182949,14.712905,66.894186,150.416763, 0.184138, 0.133713,932276.875000,150.000000,69.549992,-0.000000,-0.000000,-0.000001,-0.000001, 0.000000,-0.000001, 0.000000,-0.000001, 1.016757,-0.002948, 0.001434, 0.020490,-0.017009,,,,,,250218,10:10:31.035,36631.035
Mult,USC,250218 10:10:31.050, 0.000000, 0.000000, 0.000000, 0.000000, 0.000276, 0.000000, 0.000000, 2.865146,-1.583397, 1.208450,-0.456877,-0.261368, 5.037676, 2.865146,-1.583397, 1.208450,-0.456877,-0.261368, 5.037676, 2.865146,-1.583397, 1.208450,-0.456877,-0.261368, 5.037676, 0.156942, 0.182949,14.712905,66.894186,150.416763, 0.184138, 0.133713,932276.875000,150.000000,69.549992,-0.000001,-0.000001,-0.000001,-0.000001,-0.000001, 0.000001,-0.000001,-0.000002, 1.016956,-0.003204, 0.001590, 0.018979,-0.018810,,,,,,250218,10:10:31.050,36631.05
Mult,USC,250218 10:10:31.065, 0.000000, 0.000000, 0.000000, 0.000000, 0.000276, 0.000000, 0.000000, 2.980640,-1.297006,-1.714693,-0.201333,-6.726814, 4.877217, 2.980640,-1.297006,-1.714693,-0.201333,-6.726814, 4.877217, 2.980640,-1.297006,-1.714693,-0.201333,-6.726814, 4.877217, 0.156942, 0.182949,14.712905,66.894186,150.416763, 0.184138, 0.133713,932276.875000,150.000000,69.549992,-0.000000,-0.000001, 0.000000,-0.000001, 0.000000,-0.000001,-0.000001,-0.000001, 1.016345,-0.003204, 0.001935, 0.019189,-0.019713,,,,,,250218,10:10:31.065,36631.065
Mult,USC,250218 10:10:31.080, 0.000000, 0.000000, 0.000000, 0.000000, 0.000276, 0.000000, 0.000000, 2.656149,-1.211313,-0.284228, 0.650283,-4.507499, 4.568070, 2.656149,-1.211313,-0.284228, 0.650283,-4.507499, 4.568070, 2.656149,-1.211313,-0.284228, 0.650283,-4.507499, 4.568070, 0.156942, 0.182949,14.712905,66.894186,150.416763, 0.184138, 0.133713,932276.875000,150.000000,69.549992,-0.000001,-0.000001, 0.000000, 0.000000,-0.000001, 0.000000, 0.000000, 0.000000, 1.018906,-0.003018, 0.001624, 0.017892,-0.017542,,,,,,250218,10:10:31.080,36631.08
Mult,USC,250218 10:10:31.095, 0.000000, 0.000000, 0.000000, 0.000000, 0.000276, 0.000000, 0.000000, 1.963860,-1.216682, 2.629792,-1.568018,-2.105197, 4.509668, 1.963860,-1.216682, 2.629792,-1.568018,-2.105197, 4.509668, 1.963860,-1.216682, 2.629792,-1.568018,-2.105197, 4.509668, 0.156942, 0.182949,14.712905,66.894186,150.416763, 0.184138, 0.133713,932276.875000,150.000000,69.549992,-0.000001,-0.000000,-0.000001,-0.000001,-0.000001, 0.000000,-0.000001,-0.000001, 1.015488,-0.003357, 0.001617, 0.017740,-0.012876,,,,,,250218,10:10:31.095,36631.095
Mult,USC,250218 10:10:31.110, 0.000000, 0.000000, 0.000000, 0.000000, 0.000276, 0.000000, 0.000000, 0.407037,-0.225220, 0.062914, 0.041877,-1.251585, 0.934451, 0.407037,-0.225220, 0.062914, 0.041877,-1.251585, 0.934451, 0.407037,-0.225220, 0.062914, 0.041877,-1.251585, 0.934451, 0.156942, 0.182949,14.712905,66.894186,150.416763, 0.184138, 0.133713,932276.875000,150.000000,69.549992,-0.000001,-0.000000,-0.000001, 0.000000,-0.000001,-0.000001,-0.000001,-0.000001, 1.003256,-0.000687, 0.000369, 0.003616,-0.002683,,,,,,250218,10:10:31.110,36631.11
Mult,USC,250218 10:10:31.125, 0.000000, 0.000000, 0.000000, 0.000000, 0.000276, 0.000000, 0.000000, 2.784992,-1.442636, 0.535196,-0.393808,-2.224644, 5.104217, 2.784992,-1.442636, 0.535196,-0.393808,-2.224644, 5.104217, 2.784992,-1.442636, 0.535196,-0.393808,-2.224644, 5.104217, 0.156928, 0.182055,14.695282,66.894186,150.138702, 0.183238, 0.133466,929438.812500,150.000000,69.549992,-0.000001,-0.000000, 0.000000, 0.000000, 0.000000, 0.000000,-0.000001,-0.000001, 1.018124,-0.003427, 0.001620, 0.018625,-0.018314,,,,,,250218,10:10:31.125,36631.125
Mult,USC,250218 10:10:31.140, 0.000000, 0.000000, 0.000000, 0.000000, 0.000276, 0.000000, 0.000000, 3.206737,-1.500221, 1.788011,-0.568960,-5.770502, 5.397274, 3.206737,-1.500221, 1.788011,-0.568960,-5.770502, 5.397274, 3.206737,-1.500221, 1.788011,-0.568960,-5.770502, 5.397274, 0.156928, 0.182055,14.695282,66.894186,150.138702, 0.183238, 0.133466,929438.812500,150.000000,69.549992,-0.000001,-0.000001, 0.000000,-0.000001,-0.000001,-0.000001, 0.000000,-0.000001, 1.017621,-0.003079, 0.001559, 0.018466,-0.021146,,,,,,250218,10:10:31.140,36631.14
Mult,USC,250218 10:10:31.155, 0.000000, 0.000000, 0.000000, 0.000000, 0.000276, 0.000000, 0.000000, 2.764712,-1.591346, 1.287862,-0.026802,-2.925467, 5.659231, 2.764712,-1.591346, 1.287862,-0.026802,-2.925467, 5.659231, 2.764712,-1.591346, 1.287862,-0.026802,-2.925467, 5.659231, 0.156928, 0.182055,14.695282,66.894186,150.138702, 0.183238, 0.133466,929438.812500,150.000000,69.549992,-0.000001,-0.000000,-0.000001, 0.000000,-0.000001, 0.000000, 0.000000,-0.000001, 1.016479,-0.002795, 0.001590, 0.019516,-0.018172,,,,,,250218,10:10:31.155,36631.155
Mult,USC,250218 10:10:31.170, 0.000000, 0.000000, 0.000000, 0.000000, 0.000276, 0.000000, 0.000000, 2.356395,-1.699645,-0.395006,-0.466427, 0.296842, 6.249332, 2.356395,-1.699645,-0.395006,-0.466427, 0.296842, 6.249332, 2.356395,-1.699645,-0.395006,-0.466427, 0.296842, 6.249332, 0.156928, 0.182055,14.695282,66.894186,150.138702, 0.183238, 0.133466,929438.812500,150.000000,69.549992,-0.000001,-0.000001, 0.000000,-0.000001,-0.000001,-0.000001, 0.000001,-0.000001, 1.017935,-0.002991, 0.001846, 0.020493,-0.015397,,,,,,250218,10:10:31.170,36631.17
Mult,USC,250218 10:10:31.185, 0.000000, 0.000000, 0.000000, 0.000000, 0.000276, 0.000000, 0.000000, 2.243215,-1.938307,-0.430756, 0.303323,-3.189700, 6.798060, 2.243215,-1.938307,-0.430756, 0.303323,-3.189700, 6.798060, 2.243215,-1.938307,-0.430756, 0.303323,-3.189700, 6.798060, 0.156928, 0.182055,14.695282,66.894186,150.138702, 0.183238, 0.133466,929438.812500,150.000000,69.549992,-0.000000,-0.000001,-0.000001,-0.000001,-0.000001,-0.000001,-0.000001,-0.000001, 1.016095,-0.003177, 0.001456, 0.020178,-0.014634,,,,,,250218,10:10:31.185,36631.185
Mult,USC,250218 10:10:31.200, 0.000000, 0.000000, 0.000000, 0.000000, 0.000276, 0.000000, 0.000000, 2.264537,-1.764724, 0.494702, 1.132926,-0.917107, 6.905534, 2.264537,-1.764724, 0.494702, 1.132926,-0.917107, 6.905534, 2.264537,-1.764724, 0.494702, 1.132926,-0.917107, 6.905534, 0.156928, 0.182055,14.695282,66.894186,150.138702, 0.183238, 0.133466,929438.812500,150.000000,69.549992,-0.000001,-0.000001, 0.000000,-0.000001,-0.000001,-0.000001,-0.000001,-0.000001, 1.018900,-0.003494, 0.001694, 0.018524,-0.014824,,,,,,250218,10:10:31.200,36631.2
Mult,USC,250218 10:10:31.215, 0.000000, 0.000000, 0.000000, 0.000000, 0.000276, 0.000000,-0.000002, 2.873782,-1.797451,-0.650561, 0.138827,-4.475675, 6.981637, 2.873782,-1.797451,-0.650561, 0.138827,-4.475675, 6.981637, 2.873782,-1.797451,-0.650561, 0.138828,-4.475675, 6.981637, 0.156924, 0.182073,14.699831,66.894186,150.123123, 0.183257, 0.133452,929630.000000,150.000000,69.549992,-0.000001,-0.000000,-0.000001,-0.000001,-0.000001, 0.000000, 0.000000, 0.000000, 1.015964,-0.002640, 0.001526, 0.018378,-0.018883,,,,,,250218,10:10:31.215,36631.215
