Type,Units,Time,X Position,Y Position,Y Encoder,Z Position,Z Encoder,Yaw,Pitch,WAFBC Drag,WAFBC Side,WAFBC Lift,WAFBC Roll,WAFBC Pitch,WAFBC Yaw,WAFMC Drag,WAFMC Side,WAFMC Lift,WAFMC Roll,WAFMC Pitch,WAFMC Yaw,BAFMC Axial,BAFMC Side,BAFMC Normal,BAFMC Roll,BAFMC Pitch,BAFMC Yaw,DPT250,DPT251,PT250,TE250,Velocity,Dynamic Pressure,Mach,Reynolds Number per ft,Velocity Setpoint,Temperature Setpoint,cDAQ AI0,cDAQ AI1,cDAQ AI2,cDAQ AI3,cDAQ AI4,cDAQ AI5,cDAQ AI6,cDAQ AI7,cRIO AI0,cRIO AI1,cRIO AI2,cRIO AI3,Drag (raw),Side (raw),Lift (raw),Roll (raw),Pitch (raw),Yaw (raw),Date,ClockTime,Seconds
Type,USC / SI,Time,Inches / Millimeters,Inches / Millimeters,Inches / Millimeters,Inches / Millimeters,Inches / Millimeters,Degrees / Degrees,Degrees / Degrees,lb / N,lb / N,lb / N,ft-lb / N-m,ft-lb / N-m,ft-lb / N-m,lb / N,lb / N,lb / N,ft-lb / N-m,ft-lb / N-m,ft-lb / N-m,lb / N,lb / N,lb / N,ft-lb / N-m,ft-lb / N-m,ft-lb / N-m,PSId / Pascals,PSId / Pascals,PSIa / Pascals,F / F,Ft/s / m/s,PSId / Pascals, / ,1/ft / 1/ft,ft/s / m/s,F / F, / , / , / , / , / , / , / , / , / , / , / , / , / , / , / , / , / , / ,Time,,
Mult,USC,250218 10:12:51.225, 0.000000, 0.000000, 0.000000, 0.000000, 0.000276, 0.000000,-0.000002, 0.739835,-0.254573, 0.786522,-0.055153, 0.593231, 0.550529, 0.739835,-0.254573, 0.786522,-0.055153, 0.593231, 0.550529, 0.739835,-0.254573, 0.786522,-0.055153, 0.593231, 0.550529, 0.020347, 0.020732,14.724441,66.329829,50.116821, 0.020480, 0.044575,311457.500000,50.000000,69.549992,-0.000000,-0.000000,-0.000001,-0.000001, 0.000001, 0.000000,-0.000001,-0.000001, 1.012613,-0.003461, 0.001846, 0.019641,-0.004883,,,,,,250218,10:12:51.225,36771.225
Mult,USC,250218 10:12:51.240, 0.000000, 0.000000, 0.000000, 0.000000, 0.000276, 0.000000,-0.000002, 0.671076,-0.116539,-1.023101,-0.174143, 0.203178, 0.507879, 0.671076,-0.116539,-1.023101,-0.174143, 0.203178, 0.507879, 0.671076,-0.116539,-1.023101,-0.174143, 0.203178, 0.507879, 0.020347, 0.020732,14.724441,66.329829,50.116821, 0.020480, 0.044575,311457.500000,50.000000,69.549992,-0.000001,-0.000000, 0.000000, 0.000000,-0.000001,-0.000001,-0.000001,-0.000001, 1.011691,-0.002896, 0.001877, 0.021655,-0.004473,,,,,,250218,10:12:51.240,36771.24
Mult,USC,250218 10:12:51.255, 0.000000, 0.000000, 0.000000, 0.000000, 0.000276, 0.000000,-0.000002, 0.615803, 0.036187,-1.576434,-0.179731,-0.577959, 0.585241, 0.615803, 0.036187,-1.576434,-0.179731,-0.577959, 0.585241, 0.615803, 0.036187,-1.576434,-0.179731,-0.577959, 0.585241, 0.020347, 0.020732,14.724441,66.329829,50.116821, 0.020480, 0.044575,311457.500000,50.000000,69.549992,-0.000001,-0.000001,-0.000001, 0.000000, 0.000001,-0.000001,-0.000001,-0.000001, 1.012042,-0.003522, 0.002237, 0.022421,-0.004163,,,,,,250218,10:12:51.255,36771.255
Mult,USC,250218 10:12:51.270, 0.000000, 0.000000, 0.000000, 0.000000, 0.000276, 0.000000,-0.000002, 0.497821,-0.165322, 0.052832,-0.441541,-1.156377, 0.624987, 0.497821,-0.165322, 0.052832,-0.441541,-1.156377, 0.624987, 0.497821,-0.165322, 0.052832,-0.441541,-1.156377, 0.624987, 0.020347, 0.020732,14.724441,66.329829,50.116821, 0.020480, 0.044575,311457.500000,50.000000,69.549992,-0.000000,-0.000001,-0.000001,-0.000001, 0.000000,-0.000001,-0.000001, 0.000000, 1.011758,-0.003049, 0.001456, 0.024936,-0.003287,,,,,,250218,10:12:51.270,36771.27
Mult,USC,250218 10:12:51.285, 0.000000, 0.000000, 0.000000, 0.000000, 0.000276, 0.000000,-0.000002, 0.094479,-0.052370,-0.212704,-0.471703,-1.618452, 0.745074, 0.094479,-0.052370,-0.212704,-0.471703,-1.618452, 0.745074, 0.094479,-0.052370,-0.212704,-0.471703,-1.618452, 0.745074, 0.020347, 0.020732,14.724441,66.329829,50.116821, 0.020480, 0.044575,311457.500000,50.000000,69.549992,-0.000001,-0.000001, 0.000000, 0.000000,-0.000001,-0.000001,-0.000001,-0.000001, 1.010455,-0.003174, 0.001877, 0.024750,-0.000630,,,,,,250218,10:12:51.285,36771.285
Mult,USC,250218 10:12:51.300, 0.000000, 0.000000, 0.000000, 0.000000, 0.000276, 0.000000,-0.000002, 0.337082,-0.019610,-0.528574,-0.223292,-1.550725, 0.912844, 0.337082,-0.019610,-0.528574,-0.223292,-1.550725, 0.912844, 0.337082,-0.019610,-0.528574,-0.223292,-1.550725, 0.912844, 0.020347, 0.020732,14.724441,66.329829,50.116821, 0.020480, 0.044575,311457.500000,50.000000,69.549992,-0.000001,-0.000001,-0.000001, 0.000000,-0.000001,-0.000001,-0.000001,-0.000001, 1.011728,-0.002991, 0.001755, 0.022879,-0.002271,,,,,,250218,10:12:51.300,36771.3
Mult,USC,250218 10:12:51.315, 0.000000, 0.000000, 0.000000, 0.000000, 0.000276, 0.000000,-0.000002, 0.502446,-0.172985, 1.092885,-0.466968,-1.093129, 1.174616, 0.502446,-0.172985, 1.092885,-0.466968,-1.093129, 1.174616, 0.502446,-0.172985, 1.092885,-0.466967,-1.093129, 1.174616, 0.020400, 0.020023,14.727090,66.329829,50.190884, 0.020544, 0.044641,311973.875000,50.000000,69.549992,-0.000000,-0.000000,-0.000001,-0.000001,-0.000001,-0.000001, 0.000000, 0.000000, 1.011890,-0.003299, 0.001724, 0.020480,-0.003333,,,,,,250218,10:12:51.315,36771.315
Mult,USC,250218 10:12:51.330, 0.000000, 0.000000, 0.000000, 0.000000, 0.000276, 0.000000,-0.000002, 0.608343,-0.246491, 1.044685, 0.051945,-1.755680, 1.445051, 0.608343,-0.246491, 1.044685, 0.051945,-1.755680, 1.445051, 0.608343,-0.246491, 1.044685, 0.051945,-1.755680, 1.445051, 0.020400, 0.020023,14.727090,66.329829,50.190884, 0.020544, 0.044641,311973.875000,50.000000,69.549992,-0.000001,-0.000000,-0.000001, 0.000000, 0.000000,-0.000001, 0.000000,-0.000001, 1.011594,-0.002960, 0.002261, 0.019772,-0.004041,,,,,,250218,10:12:51.330,36771.33
Mult,USC,250218 10:12:51.345, 0.000000, 0.000000, 0.000000, 0.000000, 0.000276, 0.000000,-0.000002, 0.609028,-0.488202, 0.358060, 0.331407, 0.995641, 1.493118, 0.609028,-0.488202, 0.358060, 0.331407, 0.995641, 1.493118, 0.609028,-0.488202, 0.358060, 0.331407, 0.995641, 1.493118, 0.020400, 0.020023,14.727090,66.329829,50.190884, 0.020544, 0.044641,311973.875000,50.000000,69.549992,-0.000000,-0.000001, 0.000000, 0.000000,-0.000001, 0.000001, 0.000000, 0.000000, 1.012036,-0.002979, 0.001590, 0.021750,-0.003970,,,,,,250218,10:12:51.345,36771.345
Mult,USC,250218 10:12:51.360, 0.000000, 0.000000, 0.000000, 0.000000, 0.000276, 0.000000,-0.000002, 0.633671,-0.593110,-0.007873, 0.466139,-0.319562, 1.454228, 0.633671,-0.593110,-0.007873, 0.466139,-0.319562, 1.454228, 0.633671,-0.593110,-0.007873, 0.466139,-0.319562, 1.454228, 0.020400, 0.020023,14.727090,66.329829,50.190884, 0.020544, 0.044641,311973.875000,50.000000,69.549992,-0.000000,-0.000001, 0.000000, 0.000000,-0.000001, 0.000000,-0.000001,-0.000001, 1.011185,-0.003177, 0.001398, 0.018457,-0.004126,,,,,,250218,10:12:51.360,36771.36
Mult,USC,250218 10:12:51.375, 0.000000, 0.000000, 0.000000, 0.000000, 0.000276, 0.000000,-0.000002, 0.533488,-0.578108,-0.000688, 0.922102, 1.424609, 1.155979, 0.533488,-0.578108,-0.000688, 0.922102, 1.424609, 1.155979, 0.533488,-0.578108,-0.000688, 0.922102, 1.424609, 1.155979, 0.020400, 0.020023,14.727090,66.329829,50.190884, 0.020544, 0.044641,311973.875000,50.000000,69.549992,-0.000001,-0.000000, 0.000000,-0.000001,-0.000001,-0.000001, 0.000000,-0.000001, 1.011749,-0.002960, 0.001743, 0.019327,-0.003449,,,,,,250218,10:12:51.375,36771.375
Mult,USC,250218 10:12:51.390, 0.000000, 0.000000, 0.000000, 0.000000, 0.000276, 0.000000,-0.000002, 0.463162,-0.390886,-0.742578, 0.048181,-0.047149, 1.013404, 0.463162,-0.390886,-0.742578, 0.048181,-0.047149, 1.013404, 0.463162,-0.390886,-0.742578, 0.048181,-0.047149, 1.013404, 0.020400, 0.020023,14.727090,66.329829,50.190884, 0.020544, 0.044641,311973.875000,50.000000,69.549992,-0.000001,-0.000001, 0.000000,-0.000001, 0.000000, 0.000000,-0.000001, 0.000000, 1.012851,-0.003021, 0.001678, 0.021436,-0.003030,,,,,,250218,10:12:51.390,36771.39
Mult,USC,250218 10:12:51.405, 0.000000, 0.000000, 0.000000, 0.000000, 0.000276, 0.000000,-0.000002, 0.811530,-0.038115,-1.052313, 0.289120,-1.507240, 0.684259, 0.811530,-0.038115,-1.052313, 0.289120,-1.507240, 0.684259, 0.811530,-0.038115,-1.052313, 0.289120,-1.507240, 0.684259, 0.020400, 0.020023,14.727090,66.329829,50.190884, 0.020544, 0.044641,311973.875000,50.000000,69.549992,-0.000001,-0.000001,-0.000001, 0.000000,-0.000001,-0.000001, 0.000000,-0.000001, 1.014841,-0.002795, 0.001678, 0.023264,-0.005453,,,,,,250218,10:12:51.405,36771.405
Mult,USC,250218 10:12:51.420, 0.000000, 0.000000, 0.000000, 0.000000, 0.000276, 0.000000, 0.000000, 0.466473,-0.002680,-0.634453,-0.558166,-2.084002, 0.559883, 0.466473,-0.002680,-0.634453,-0.558166,-2.084002, 0.559883, 0.466473,-0.002680,-0.634453,-0.558166,-2.084002, 0.559883, 0.020398, 0.020231,14.723106,66.320447,50.181431, 0.020531, 0.044633,311840.593750,50.000000,69.549992,-0.000000,-0.000001,-0.000001,-0.000001,-0.000001,-0.000001,-0.000001, 0.000000, 1.012067,-0.003522, 0.001782, 0.022186,-0.003131,,,,,,250218,10:12:51.420,36771.42
Mult,USC,250218 10:12:51.435, 0.000000, 0.000000, 0.000000, 0.000000, 0.000276, 0.000000, 0.000000, 0.146846, 0.186450, 0.322383,-0.586994,-0.270392, 0.489207, 0.146846, 0.186450, 0.322383,-0.586994,-0.270392, 0.489207, 0.146846, 0.186450, 0.322383,-0.586994,-0.270392, 0.489207, 0.020398, 0.020231,14.723106,66.320447,50.181431, 0.020531, 0.044633,311840.593750,50.000000,69.549992,-0.000001,-0.000000, 0.000000,-0.000001,-0.000001, 0.000001, 0.000000,-0.000001, 1.013898,-0.003204, 0.001678, 0.023322,-0.001032,,,,,,250218,10:12:51.435,36771.435
Mult,USC,250218 10:12:51.450, 0.000000, 0.000000, 0.000000, 0.000000, 0.000276, 0.000000, 0.000000, 0.246268, 0.057780, 0.807490,-0.495903,-2.381905, 0.501768, 0.246268, 0.057780, 0.807490,-0.495903,-2.381905, 0.501768, 0.246268, 0.057780, 0.807490,-0.495903,-2.381905, 0.501768, 0.020398, 0.020231,14.723106,66.320447,50.181431, 0.020531, 0.044633,311840.593750,50.000000,69.549992,-0.000001,-0.000001, 0.000000,-0.000001, 0.000000,-0.000001,-0.000001, 0.000000, 1.015176,-0.003113, 0.001974, 0.023111,-0.001676,,,,,,250218,10:12:51.450,36771.45
Mult,USC,250218 10:12:51.465, 0.000000, 0.000000, 0.000000, 0.000000, 0.000276, 0.000000, 0.000000, 0.681519,-0.099277, 1.593660,-0.310179, 0.747495, 0.531005, 0.681519,-0.099277, 1.593660,-0.310179, 0.747495, 0.531005, 0.681519,-0.099277, 1.593660,-0.310179, 0.747495, 0.531005, 0.020398, 0.020231,14.723106,66.320447,50.181431, 0.020531, 0.044633,311840.593750,50.000000,69.549992,-0.000001,-0.000001, 0.000000,-0.000001,-0.000001,-0.000001, 0.000000,-0.000001, 1.013678,-0.002856, 0.001590, 0.022723,-0.004531,,,,,,250218,10:12:51.465,36771.465
Mult,USC,250218 10:12:51.480, 0.000000, 0.000000, 0.000000, 0.000000, 0.000276, 0.000000, 0.000000, 0.767813,-0.333058,-0.039274, 0.233518,-0.752692, 0.489934, 0.767813,-0.333058,-0.039274, 0.233518,-0.752692, 0.489934, 0.767813,-0.333058,-0.039274, 0.233518,-0.752692, 0.489934, 0.020398, 0.020231,14.723106,66.320447,50.181431, 0.020531, 0.044633,311840.593750,50.000000,69.549992,-0.000000,-0.000001,-0.000001, 0.000000,-0.000001, 0.000000,-0.000001,-0.000001, 1.013931,-0.003204, 0.001712, 0.020804,-0.005062,,,,,,250218,10:12:51.480,36771.48
Mult,USC,250218 10:12:51.495, 0.000000, 0.000000, 0.000000, 0.000000, 0.000276, 0.000000, 0.000000, 0.833747,-0.299943, 0.129365, 0.019693, 0.913033, 0.525863, 0.833747,-0.299943, 0.129365, 0.019693, 0.913033, 0.525863, 0.833747,-0.299943, 0.129365, 0.019693, 0.913033, 0.525863, 0.020398, 0.020231,14.723106,66.320447,50.181431, 0.020531, 0.044633,311840.593750,50.000000,69.549992,-0.000001,-0.000001,-0.000001,-0.000001,-0.000001, 0.000000, 0.000000, 0.000000, 1.014532,-0.003296, 0.001691, 0.019632,-0.005491,,,,,,250218,10:12:51.495,36771.495
Mult,USC,250218 10:12:51.510, 0.000000, 0.000000, 0.000000, 0.000000, 0.000276, 0.000000, 0.000000, 0.104233,-0.070371, 0.086532,-0.020714,-0.059693, 0.148177, 0.104233,-0.070371, 0.086532,-0.020714,-0.059693, 0.148177, 0.104233,-0.070371, 0.086532,-0.020714,-0.059693, 0.148177, 0.020398, 0.020231,14.723106,66.320447,50.181431, 0.020531, 0.044633,311840.593750,50.000000,69.549992,-0.000001,-0.000001, 0.000000,-0.000001,-0.000001,-0.000001, 0.000001,-0.000001, 1.002203,-0.000623, 0.000339, 0.003903,-0.000682,,,,,,250218,10:12:51.510,36771.51
Mult,USC,250218 10:12:51.525, 0.000000, 0.000000, 0.000000, 0.000000, 0.000276, 0.000000,-0.000002, 0.216693,-0.286713,-1.449030, 0.211769, 1.156375, 0.809861, 0.216693,-0.286713,-1.449030, 0.211769, 1.156375, 0.809861, 0.216693,-0.286713,-1.449030, 0.211769, 1.156375, 0.809861, 0.020398, 0.020231,14.723106,66.320447,50.181431, 0.020531, 0.044633,311840.593750,50.000000,69.549992,-0.000000,-0.000001,-0.000001,-0.000001, 0.000000, 0.000000,-0.000001,-0.000001, 1.012137,-0.002823, 0.001910, 0.020840,-0.001417,,,,,,250218,10:12:51.525,36771.525
Mult,USC,250218 10:12:51.540, 0.000000, 0.000000, 0.000000, 0.000000, 0.000276, 0.000000,-0.000002, 0.149038,-0.214754,-1.385524,-0.471267,-1.462389, 1.095553, 0.149038,-0.214754,-1.385524,-0.471267,-1.462389, 1.095553, 0.149038,-0.214754,-1.385524,-0.471267,-1.462389, 1.095553, 0.020398, 0.020231,14.723106,66.320447,50.181431, 0.020531, 0.044633,311840.593750,50.000000,69.549992,-0.000001,-0.000000,-0.000001,-0.000001,-0.000001, 0.000001, 0.000000,-0.000001, 1.012363,-0.003021, 0.001910, 0.020428,-0.000988,,,,,,250218,10:12:51.540,36771.54
Mult,USC,250218 10:12:51.555, 0.000000, 0.000000, 0.000000, 0.000000, 0.000276, 0.000000,-0.000002, 0.562931,-0.121095, 1.101071, 0.040424,-0.264634, 1.089513, 0.562931,-0.121095, 1.101071, 0.040424,-0.264634, 1.089513, 0.562931,-0.121095, 1.101071, 0.040424,-0.264634, 1.089513, 0.020398, 0.020231,14.723106,66.320447,50.181431, 0.020531, 0.044633,311840.593750,50.000000,69.549992,-0.000001,-0.000001, 0.000000, 0.000000,-0.000001,-0.000001,-0.000001, 0.000000, 1.014145,-0.002991, 0.001425, 0.022064,-0.003755,,,,,,250218,10:12:51.555,36771.555
Mult,USC,250218 10:12:51.570, 0.000000, 0.000000, 0.000000, 0.000000, 0.000276, 0.000000,-0.000002, 0.591988,-0.245134, 0.132871, 0.351242,-2.560144, 1.104052, 0.591988,-0.245134, 0.132871, 0.351242,-2.560144, 1.104052, 0.591988,-0.245134, 0.132871, 0.351243,-2.560144, 1.104052, 0.020398, 0.020231,14.723106,66.320447,50.181431, 0.020531, 0.044633,311840.593750,50.000000,69.549992,-0.000001,-0.000001,-0.000001,-0.000001, 0.000000,-0.000001, 0.000000,-0.000001, 1.013062,-0.002930, 0.001917, 0.022818,-0.003931,,,,,,250218,10:12:51.570,36771.57
Mult,USC,250218 10:12:51.585, 0.000000, 0.000000, 0.000000, 0.000000, 0.000276, 0.000000,-0.000002, 0.530036,-0.424573, 0.464789, 0.074732, 0.387148, 0.996527, 0.530036,-0.424573, 0.464789, 0.074732, 0.387148, 0.996527, 0.530036,-0.424573, 0.464789, 0.074732, 0.387148, 0.996527, 0.020398, 0.020231,14.723106,66.320447,50.181431, 0.020531, 0.044633,311840.593750,50.000000,69.549992,-0.000001,-0.000001,-0.000001,-0.000001,-0.000001,-0.000001,-0.000001, 0.000000, 1.011108,-0.003357, 0.001813, 0.023737,-0.003452,,,,,,250218,10:12:51.585,36771.585
Mult,USC,250218 10:12:51.600, 0.000000, 0.000000, 0.000000, 0.000000, 0.000276, 0.000000,-0.000002, 0.476788,-0.339754, 1.432702, 0.403422,-0.445918, 0.735795, 0.476788,-0.339754, 1.432702, 0.403422,-0.445918, 0.735795, 0.476788,-0.339754, 1.432702, 0.403422,-0.445918, 0.735795, 0.020398, 0.020231,14.723106,66.320447,50.181431, 0.020531, 0.044633,311840.593750,50.000000,69.549992,-0.000001,-0.000001,-0.000001,-0.000001,-0.000001,-0.000001, 0.000000,-0.000001, 1.012625,-0.003336, 0.001846, 0.022699,-0.003140,,,,,,250218,10:12:51.600,36771.6
Mult,USC,250218 10:12:51.615, 0.000000, 0.000000, 0.000000, 0.000000, 0.000276, 0.000000, 0.000000, 0.524548,-0.224651, 1.150821, 0.126392, 1.170194, 0.567574, 0.524548,-0.224651, 1.150821, 0.126392, 1.170194, 0.567574, 0.524548,-0.224651, 1.150821, 0.126392, 1.170194, 0.567574, 0.020342, 0.020458,14.727146,66.320447,50.105576, 0.020475, 0.044566,311454.687500,50.000000,69.549992,-0.000000,-0.000000,-0.000001,-0.000001,-0.000001,-0.000001, 0.000000,-0.000001, 1.012433,-0.003357, 0.001590, 0.021304,-0.003457,,,,,,250218,10:12:51.615,36771.615
Mult,USC,250218 10:12:51.630, 0.000000, 0.000000, 0.000000, 0.000000, 0.000276, 0.000000, 0.000000, 0.600702,-0.290980,-0.984890,-0.554015, 0.048806, 0.543271, 0.600702,-0.290980,-0.984890,-0.554015, 0.048806, 0.543271, 0.600702,-0.290980,-0.984890,-0.554015, 0.048806, 0.543271, 0.020342, 0.020458,14.727146,66.320447,50.105576, 0.020475, 0.044566,311454.687500,50.000000,69.549992,-0.000000,-0.000001,-0.000001, 0.000000,-0.000001,-0.000001,-0.000001,-0.000001, 1.011279,-0.003326, 0.001691, 0.020297,-0.003955,,,,,,250218,10:12:51.630,36771.63
Mult,USC,250218 10:12:51.645, 0.000000, 0.000000, 0.000000, 0.000000, 0.000276, 0.000000, 0.000000, 0.719140, 0.055680,-0.661099,-0.166887, 0.910371, 0.695975, 0.719140, 0.055680,-0.661099,-0.166887, 0.910371, 0.695975, 0.719140, 0.055680,-0.661099,-0.166887, 0.910371, 0.695975, 0.020342, 0.020458,14.727146,66.320447,50.105576, 0.020475, 0.044566,311454.687500,50.000000,69.549992,-0.000000,-0.000000, 0.000000, 0.000000,-0.000001,-0.000001,-0.000001, 0.000000, 1.012933,-0.003113, 0.001877, 0.020114,-0.004825,,,,,,250218,10:12:51.645,36771.645
Mult,USC,250218 10:12:51.660, 0.000000, 0.000000, 0.000000, 0.000000, 0.000276, 0.000000, 0.000000, 0.630845,-0.053682,-0.143736,-0.464705,-0.493363, 0.761096, 0.630845,-0.053682,-0.143736,-0.464705,-0.493363, 0.761096, 0.630845,-0.053682,-0.143736,-0.464705,-0.493363, 0.761096, 0.020342, 0.020458,14.727146,66.320447,50.105576, 0.020475, 0.044566,311454.687500,50.000000,69.549992,-0.000001,-0.000000,-0.000001, 0.000000, 0.000000,-0.000001,-0.000001,-0.000001, 1.013702,-0.003418, 0.001495, 0.019028,-0.004200,,,,,,250218,10:12:51.660,36771.66
Mult,USC,250218 10:12:51.675, 0.000000, 0.000000, 0.000000, 0.000000, 0.000276, 0.000000, 0.000000, 0.452923, 0.102384,-1.518595,-0.376793,-0.772910, 1.026343, 0.452923, 0.102384,-1.518595,-0.376793,-0.772910, 1.026343, 0.452923, 0.102384,-1.518595,-0.376793,-0.772910, 1.026343, 0.020342, 0.020458,14.727146,66.320447,50.105576, 0.020475, 0.044566,311454.687500,50.000000,69.549992,-0.000000,-0.000000,-0.000001,-0.000001,-0.000001,-0.000001, 0.000000, 0.000000, 1.013858,-0.003564, 0.001682, 0.020642,-0.003096,,,,,,250218,10:12:51.675,36771.675
Mult,USC,250218 10:12:51.690, 0.000000, 0.000000, 0.000000, 0.000000, 0.000276, 0.000000, 0.000000, 0.195475,-0.190454,-1.104701, 0.019420,-0.580489, 1.093992, 0.195475,-0.190454,-1.104701, 0.019420,-0.580489, 1.093992, 0.195475,-0.190454,-1.104701, 0.019420,-0.580489, 1.093992, 0.020342, 0.020458,14.727146,66.320447,50.105576, 0.020475, 0.044566,311454.687500,50.000000,69.549992,-0.000000,-0.000001, 0.000000,-0.000001,-0.000001, 0.000000, 0.000000,-0.000001, 1.012772,-0.003308, 0.001755, 0.021567,-0.001304,,,,,,250218,10:12:51.690,36771.69
Mult,USC,250218 10:12:51.705, 0.000000, 0.000000, 0.000000, 0.000000, 0.000276, 0.000000, 0.000000, 0.434746,-0.311082, 1.210315, 0.138403, 0.032535, 1.165272, 0.434746,-0.311082, 1.210315, 0.138403, 0.032535, 1.165272, 0.434746,-0.311082, 1.210315, 0.138403, 0.032535, 1.165272, 0.020342, 0.020458,14.727146,66.320447,50.105576, 0.020475, 0.044566,311454.687500,50.000000,69.549992,-0.000000,-0.000000,-0.000001,-0.000001,-0.000001, 0.000001, 0.000000, 0.000001, 1.010669,-0.002927, 0.001999, 0.022821,-0.002859,,,,,,250218,10:12:51.705,36771.705
Mult,USC,250218 10:12:51.720, 0.000000, 0.000000, 0.000000, 0.000000, 0.000276, 0.000000, 0.000000, 0.539668,-0.464679, 0.763759, 0.068488,-0.737135, 1.147982, 0.539668,-0.464679, 0.763759, 0.068488,-0.737135, 1.147982, 0.539668,-0.464679, 0.763759, 0.068488,-0.737135, 1.147982, 0.020342, 0.020458,14.727146,66.320447,50.105576, 0.020475, 0.044566,311454.687500,50.000000,69.549992,-0.000001,-0.000001,-0.000001,-0.000001,-0.000001,-0.000001,-0.000001,-0.000001, 1.009839,-0.003146, 0.001846, 0.022733,-0.003520,,,,,,250218,10:12:51.720,36771.72
Mult,USC,250218 10:12:51.735, 0.000000, 0.000000, 0.000000, 0.000000, 0.000276, 0.000000, 0.000000, 0.800847,-0.402367,-0.129077, 0.375598, 0.967234, 1.229059, 0.800847,-0.402367,-0.129077, 0.375598, 0.967234, 1.229059, 0.800847,-0.402367,-0.129077, 0.375598, 0.967234, 1.229059, 0.020342, 0.020458,14.727146,66.320447,50.105576, 0.020475, 0.044566,311454.687500,50.000000,69.549992,-0.000001,-0.000001,-0.000001, 0.000000,-0.000001, 0.000000, 0.000000,-0.000001, 1.010547,-0.003265, 0.001648, 0.022513,-0.005269,,,,,,250218,10:12:51.735,36771.735
Mult,USC,250218 10:12:51.750, 0.000000, 0.000000, 0.000000, 0.000000, 0.000276, 0.000000, 0.000000, 0.625465,-0.486955, 0.879967, 0.318184, 0.064299, 1.164016, 0.625465,-0.486955, 0.879967, 0.318184, 0.064299, 1.164016, 0.625465,-0.486955, 0.879967, 0.318184, 0.064299, 1.164016, 0.020342, 0.020458,14.727146,66.320447,50.105576, 0.020475, 0.044566,311454.687500,50.000000,69.549992,-0.000000,-0.000001,-0.000001, 0.000000,-0.000001,-0.000001,-0.000001,-0.000001, 1.010669,-0.003140, 0.001904, 0.022244,-0.004091,,,,,,250218,10:12:51.750,36771.75
Mult,USC,250218 10:12:51.765, 0.000000, 0.000000, 0.000000, 0.000000, 0.000276, 0.000000, 0.000000, 0.659109,-0.419872, 0.542754, 0.380760, 0.291431, 1.102295, 0.659109,-0.419872, 0.542754, 0.380760, 0.291431, 1.102295, 0.659109,-0.419872, 0.542754, 0.380760, 0.291431, 1.102295, 0.020342, 0.020458,14.727146,66.320447,50.105576, 0.020475, 0.044566,311454.687500,50.000000,69.549992,-0.000000,-0.000001, 0.000000, 0.000000,-0.000001, 0.000000, 0.000000,-0.000001, 1.011057,-0.003052, 0.001614, 0.022388,-0.004326,,,,,,250218,10:12:51.765,36771.765
Mult,USC,250218 10:12:51.780, 0.000000, 0.000000, 0.000000, 0.000000, 0.000276, 0.000000, 0.000000, 0.310495,-0.458133,-1.481874,-0.058440, 0.470522, 0.978988, 0.310495,-0.458133,-1.481874,-0.058440, 0.470522, 0.978988, 0.310495,-0.458133,-1.481874,-0.058440, 0.470522, 0.978988, 0.020342, 0.020458,14.727146,66.320447,50.105576, 0.020475, 0.044566,311454.687500,50.000000,69.549992,-0.000001,-0.000000, 0.000000,-0.000001, 0.000000,-0.000001, 0.000000,-0.000001, 1.012805,-0.003174, 0.001746, 0.020520,-0.002006,,,,,,250218,10:12:51.780,36771.78
Mult,USC,250218 10:12:51.795, 0.000000, 0.000000, 0.000000, 0.000000, 0.000276, 0.000000, 0.000000, 0.419752,-0.141248,-0.920446, 0.365077,-0.871824, 0.668470, 0.419752,-0.141248,-0.920446, 0.365077,-0.871824, 0.668470, 0.419752,-0.141248,-0.920446, 0.365077,-0.871824, 0.668470, 0.020342, 0.020458,14.727146,66.320447,50.105576, 0.020475, 0.044566,311454.687500,50.000000,69.549992,-0.000001,-0.000001,-0.000001,-0.000001, 0.000000, 0.000000,-0.000001, 0.000000, 1.010608,-0.003143, 0.001782, 0.020905,-0.002812,,,,,,250218,10:12:51.795,36771.795
Mult,USC,250218 10:12:51.810, 0.000000, 0.000000, 0.000000, 0.000000, 0.000276, 0.000000, 0.000000, 0.078213,-0.051448,-0.035344,-0.049317,-0.301820, 0.081898, 0.078213,-0.051448,-0.035344,-0.049317,-0.301820, 0.081898, 0.078213,-0.051448,-0.035344,-0.049317,-0.301820, 0.081898, 0.020342, 0.020458,14.727146,66.320447,50.105576, 0.020475, 0.044566,311454.687500,50.000000,69.549992,-0.000000,-0.000000, 0.000000,-0.000001, 0.000000,-0.000001,-0.000001,-0.000001, 1.002460,-0.000653, 0.000403, 0.004248,-0.000512,,,,,,250218,10:12:51.810,36771.81
Mult,USC,250218 10:12:51.825, 0.000000, 0.000000, 0.000000, 0.000000, 0.000276, 0.000000,-0.000002, 0.337072, 0.102364,-0.309784,-0.243994,-1.318627, 0.292978, 0.337072, 0.102364,-0.309784,-0.243994,-1.318627, 0.292978, 0.337072, 0.102364,-0.309784,-0.243994,-1.318627, 0.292978, 0.020378, 0.019949,14.729640,66.320447,50.192123, 0.020542, 0.044643,311946.000000,50.000000,69.549992,-0.000000,-0.000001, 0.000000, 0.000000,-0.000001,-0.000001,-0.000001, 0.000000, 1.012204,-0.003430, 0.002225, 0.022128,-0.002291,,,,,,250218,10:12:51.825,36771.825
Mult,USC,250218 10:12:51.840, 0.000000, 0.000000, 0.000000, 0.000000, 0.000276, 0.000000,-0.000002, 0.455031, 0.009960, 0.244712,-0.477001,-1.128680, 0.280861, 0.455031, 0.009960, 0.244712,-0.477001,-1.128680, 0.280861, 0.455031, 0.009960, 0.244712,-0.477001,-1.128680, 0.280861, 0.020378, 0.019949,14.729640,66.320447,50.192123, 0.020542, 0.044643,311946.000000,50.000000,69.549992,-0.000000,-0.000001,-0.000001,-0.000001,-0.000001, 0.000000,-0.000001, 0.000000, 1.013870,-0.003116, 0.002429, 0.022037,-0.003042,,,,,,250218,10:12:51.840,36771.84
Mult,USC,250218 10:12:51.855, 0.000000, 0.000000, 0.000000, 0.000000, 0.000276, 0.000000,-0.000002, 0.679531, 0.091728, 1.293722,-0.465252,-0.189049, 0.317365, 0.679531, 0.091728, 1.293722,-0.465252,-0.189049, 0.317365, 0.679531, 0.091728, 1.293722,-0.465252,-0.189049, 0.317365, 0.020378, 0.019949,14.729640,66.320447,50.192123, 0.020542, 0.044643,311946.000000,50.000000,69.549992,-0.000001,-0.000001, 0.000000, 0.000000,-0.000001, 0.000000,-0.000001, 0.000001, 1.011209,-0.003491, 0.001590, 0.022446,-0.004568,,,,,,250218,10:12:51.855,36771.855
Mult,USC,250218 10:12:51.870, 0.000000, 0.000000, 0.000000, 0.000000, 0.000276, 0.000000,-0.000002, 0.736575,-0.145079, 0.918034,-0.607720,-0.117937, 0.646209, 0.736575,-0.145079, 0.918034,-0.607720,-0.117937, 0.646209, 0.736575,-0.145079, 0.918034,-0.607720,-0.117937, 0.646209, 0.020378, 0.019949,14.729640,66.320447,50.192123, 0.020542, 0.044643,311946.000000,50.000000,69.549992,-0.000000,-0.000001,-0.000001, 0.000000, 0.000000,-0.000001,-0.000001,-0.000001, 1.010544,-0.003024, 0.001556, 0.023990,-0.004883,,,,,,250218,10:12:51.870,36771.87
Mult,USC,250218 10:12:51.885, 0.000000, 0.000000, 0.000000, 0.000000, 0.000276, 0.000000,-0.000002, 0.707988,-0.216619,-0.273496,-0.084188, 0.764211, 0.954970, 0.707988,-0.216619,-0.273496,-0.084188, 0.764211, 0.954970, 0.707988,-0.216619,-0.273496,-0.084188, 0.764211, 0.954970, 0.020378, 0.019949,14.729640,66.320447,50.192123, 0.020542, 0.044643,311946.000000,50.000000,69.549992,-0.000000,-0.000001, 0.000000,-0.000001, 0.000000, 0.000000,-0.000001, 0.000000, 1.014047,-0.002734, 0.001782, 0.023480,-0.004680,,,,,,250218,10:12:51.885,36771.885
Mult,USC,250218 10:12:51.900, 0.000000, 0.000000, 0.000000, 0.000000, 0.000276, 0.000000,-0.000002, 0.714322,-0.455669,-0.199738, 0.007120, 0.742969, 1.207748, 0.714322,-0.455669,-0.199738, 0.007120, 0.742969, 1.207748, 0.714322,-0.455669,-0.199738, 0.007120, 0.742969, 1.207748, 0.020378, 0.019949,14.729640,66.320447,50.192123, 0.020542, 0.044643,311946.000000,50.000000,69.549992,-0.000001,-0.000000, 0.000000, 0.000000, 0.000000, 0.000000,-0.000001,-0.000001, 1.012582,-0.003021, 0.001788, 0.022864,-0.004671,,,,,,250218,10:12:51.900,36771.9
Mult,USC,250218 10:12:51.915, 0.000000, 0.000000, 0.000000, 0.000000, 0.000276, 0.000000, 0.000000, 0.328860,-0.409075,-0.497533, 0.438069,-0.184353, 1.217407, 0.328860,-0.409075,-0.497533, 0.438069,-0.184353, 1.217407, 0.328860,-0.409075,-0.497533, 0.438069,-0.184353, 1.217407, 0.020395, 0.020024,14.727789,66.320447,50.148167, 0.020510, 0.044604,311733.000000,50.000000,69.549992,-0.000001,-0.000001,-0.000001,-0.000001, 0.000000,-0.000001, 0.000000,-0.000001, 1.010806,-0.003357, 0.001373, 0.021967,-0.002139,,,,,,250218,10:12:51.915,36771.915
Mult,USC,250218 10:12:51.930, 0.000000, 0.000000, 0.000000, 0.000000, 0.000276, 0.000000, 0.000000, 0.316941,-0.322319,-1.043356, 0.610241,-0.935020, 1.351772, 0.316941,-0.322319,-1.043356, 0.610241,-0.935020, 1.351772, 0.316941,-0.322319,-1.043356, 0.610241,-0.935020, 1.351772, 0.020395, 0.020024,14.727789,66.320447,50.148167, 0.020510, 0.044604,311733.000000,50.000000,69.549992,-0.000000,-0.000000, 0.000000, 0.000000,-0.000001,-0.000001,-0.000001,-0.000001, 1.010928,-0.003357, 0.002103, 0.019608,-0.002103,,,,,,250218,10:12:51.930,36771.93
Mult,USC,250218 10:12:51.945, 0.000000, 0.000000, 0.000000, 0.000000, 0.000276, 0.000000, 0.000000, 0.411224,-0.406069,-0.449125, 0.113066,-2.116492, 1.251139, 0.411224,-0.406069,-0.449125, 0.113066,-2.116492, 1.251139, 0.411224,-0.406069,-0.449125, 0.113066,-2.116492, 1.251139, 0.020395, 0.020024,14.727789,66.320447,50.148167, 0.020510, 0.044604,311733.000000,50.000000,69.549992,-0.000000,-0.000000,-0.000001,-0.000001, 0.000000,-0.000001,-0.000001,-0.000001, 1.011530,-0.003326, 0.001877, 0.020142,-0.002690,,,,,,250218,10:12:51.945,36771.945
Mult,USC,250218 10:12:51.960, 0.000000, 0.000000, 0.000000, 0.000000, 0.000276, 0.000000, 0.000000, 0.451302,-0.186253, 0.170912, 0.267468,-2.795130, 1.198833, 0.451302,-0.186253, 0.170912, 0.267468,-2.795130, 1.198833, 0.451302,-0.186253, 0.170912, 0.267468,-2.795130, 1.198833, 0.020395, 0.020024,14.727789,66.320447,50.148167, 0.020510, 0.044604,311733.000000,50.000000,69.549992,-0.000001,-0.000001, 0.000000, 0.000000, 0.000000,-0.000001,-0.000001,-0.000001, 1.013318,-0.003299, 0.001846, 0.018753,-0.003010,,,,,,250218,10:12:51.960,36771.96
Mult,USC,250218 10:12:51.975, 0.000000, 0.000000, 0.000000, 0.000000, 0.000276, 0.000000, 0.000000, 0.348250,-0.096794, 0.678196, 0.009364,-1.627193, 1.038585, 0.348250,-0.096794, 0.678196, 0.009364,-1.627193, 1.038585, 0.348250,-0.096794, 0.678196, 0.009364,-1.627193, 1.038585, 0.020395, 0.020024,14.727789,66.320447,50.148167, 0.020510, 0.044604,311733.000000,50.000000,69.549992,-0.000001,-0.000000,-0.000001,-0.000001,-0.000001,-0.000001, 0.000000,-0.000001, 1.013351,-0.003247, 0.001712, 0.021906,-0.002330,,,,,,250218,10:12:51.975,36771.975
Mult,USC,250218 10:12:51.990, 0.000000, 0.000000, 0.000000, 0.000000, 0.000276, 0.000000, 0.000000, 0.454228,-0.123795, 1.291100,-0.060183,-0.075644, 0.900993, 0.454228,-0.123795, 1.291100,-0.060183,-0.075644, 0.900993, 0.454228,-0.123795, 1.291100,-0.060183,-0.075644, 0.900993, 0.020395, 0.020024,14.727789,66.320447,50.148167, 0.020510, 0.044604,311733.000000,50.000000,69.549992,-0.000000,-0.000000,-0.000001,-0.000001,-0.000001,-0.000001, 0.000000,-0.000001, 1.012299,-0.003421, 0.001712, 0.021689,-0.003025,,,,,,250218,10:12:51.990,36771.99
Mult,USC,250218 10:12:52.005, 0.000000, 0.000000, 0.000000, 0.000000, 0.000276, 0.000000, 0.000000, 0.584559,-0.242288, 0.951890, 0.062666, 0.116147, 0.800972, 0.584559,-0.242288, 0.951890, 0.062666, 0.116147, 0.800972, 0.584559,-0.242288, 0.951890, 0.062666, 0.116147, 0.800972, 0.020395, 0.020024,14.727789,66.320447,50.148167, 0.020510, 0.044604,311733.000000,50.000000,69.549992,-0.000000,-0.000001,-0.000001,-0.000001, 0.000000, 0.000000, 0.000000,-0.000001, 1.013599,-0.003403, 0.001712, 0.021817,-0.003864,,,,,,250218,10:12:52.005,36772.005
Mult,USC,250218 10:12:52.020, 0.000000, 0.000000, 0.000000, 0.000000, 0.000276, 0.000000,-0.000002, 0.691117,-0.142017, 0.406006, 0.001339, 1.365777, 0.687222, 0.691117,-0.142017, 0.406006, 0.001339, 1.365777, 0.687222, 0.691117,-0.142017, 0.406006, 0.001339, 1.365777, 0.687222, 0.020374, 0.019867,14.727226,66.320447,50.143959, 0.020506, 0.044600,311694.937500,50.000000,69.549992,-0.000001,-0.000000,-0.000001, 0.000000, 0.000000,-0.000001,-0.000001, 0.000000, 1.012613,-0.002899, 0.001880, 0.022574,-0.004575,,,,,,250218,10:12:52.020,36772.02
Mult,USC,250218 10:12:52.035, 0.000000, 0.000000, 0.000000, 0.000000, 0.000276, 0.000000,-0.000002, 0.676937,-0.258765,-0.658038,-0.081051, 0.783090, 0.668704, 0.676937,-0.258765,-0.658038,-0.081051, 0.783090, 0.668704, 0.676937,-0.258765,-0.658038,-0.081051, 0.783090, 0.668704, 0.020374, 0.019867,14.727226,66.320447,50.143959, 0.020506, 0.044600,311694.937500,50.000000,69.549992,-0.000001,-0.000001,-0.000001,-0.000001, 0.000000,-0.000001, 0.000000, 0.000000, 1.011685,-0.003452, 0.002136, 0.022852,-0.004469,,,,,,250218,10:12:52.035,36772.035
Mult,USC,250218 10:12:52.050, 0.000000, 0.000000, 0.000000, 0.000000, 0.000276, 0.000000,-0.000002, 0.805177,-0.125665,-0.161746, 0.018664, 1.133254, 0.613051, 0.805177,-0.125665,-0.161746, 0.018664, 1.133254, 0.613051, 0.805177,-0.125665,-0.161746, 0.018664, 1.133254, 0.613051, 0.020374, 0.019867,14.727226,66.320447,50.143959, 0.020506, 0.044600,311694.937500,50.000000,69.549992,-0.000000,-0.000000,-0.000001,-0.000001,-0.000001, 0.000000,-0.000001, 0.000000, 1.011371,-0.003265, 0.001755, 0.023676,-0.005341,,,,,,250218,10:12:52.050,36772.05
Mult,USC,250218 10:12:52.065, 0.000000, 0.000000, 0.000000, 0.000000, 0.000276, 0.000000,-0.000002, 0.672461,-0.087710,-1.315824,-0.438003,-1.292981, 0.683013, 0.672461,-0.087710,-1.315824,-0.438003,-1.292981, 0.683013, 0.672461,-0.087710,-1.315824,-0.438003,-1.292981, 0.683013, 0.020374, 0.019867,14.727226,66.320447,50.143959, 0.020506, 0.044600,311694.937500,50.000000,69.549992,-0.000001, 0.000001,-0.000001, 0.000000,-0.000001,-0.000001,-0.000001,-0.000001, 1.012589,-0.003265, 0.001813, 0.020859,-0.004501,,,,,,250218,10:12:52.065,36772.065
Mult,USC,250218 10:12:52.080, 0.000000, 0.000000, 0.000000, 0.000000, 0.000276, 0.000000,-0.000002, 0.335346, 0.035487,-0.408708,-0.074843,-1.336604, 0.831518, 0.335346, 0.035487,-0.408708,-0.074843,-1.336604, 0.831518, 0.335346, 0.035487,-0.408708,-0.074843,-1.336604, 0.831518, 0.020374, 0.019867,14.727226,66.320447,50.143959, 0.020506, 0.044600,311694.937500,50.000000,69.549992,-0.000000,-0.000001, 0.000000,-0.000001,-0.000001,-0.000001, 0.000000,-0.000001, 1.011664,-0.003400, 0.001712, 0.019696,-0.002273,,,,,,250218,10:12:52.080,36772.08
Mult,USC,250218 10:12:52.095, 0.000000, 0.000000, 0.000000, 0.000000, 0.000276, 0.000000,-0.000002, 0.200113,-0.176986, 0.409096,-0.402724,-2.401917, 0.963789, 0.200113,-0.176986, 0.409096,-0.402724,-2.401917, 0.963789, 0.200113,-0.176986, 0.409096,-0.402724,-2.401917, 0.963789, 0.020374, 0.019867,14.727226,66.320447,50.143959, 0.020506, 0.044600,311694.937500,50.000000,69.549992,-0.000001,-0.000000,-0.000001,-0.000001,-0.000001, 0.000000, 0.000000, 0.000001, 1.012326,-0.003040, 0.001556, 0.020068,-0.001316,,,,,,250218,10:12:52.095,36772.095
Mult,USC,250218 10:12:52.110, 0.000000, 0.000000, 0.000000, 0.000000, 0.000276, 0.000000,-0.000000, 0.053771,-0.046393, 0.213959, 0.014634,-0.300697, 0.198183, 0.053771,-0.046393, 0.213959, 0.014634,-0.300697, 0.198183, 0.053771,-0.046393, 0.213959, 0.014634,-0.300697, 0.198183, 0.020374, 0.019867,14.727226,66.320447,50.143959, 0.020506, 0.044600,311694.937500,50.000000,69.549992,-0.000001,-0.000000,-0.000001,-0.000001,-0.000001,-0.000001, 0.000000,-0.000001, 1.002332,-0.000653, 0.000433, 0.003998,-0.000355,,,,,,250218,10:12:52.110,36772.11
Mult,USC,250218 10:12:52.125, 0.000000, 0.000000, 0.000000, 0.000000, 0.000276, 0.000000, 0.000000, 0.477495,-0.327993, 0.215248, 0.080493,-1.845139, 1.061001, 0.477495,-0.327993, 0.215248, 0.080493,-1.845139, 1.061001, 0.477495,-0.327993, 0.215248, 0.080493,-1.845139, 1.061001, 0.020373, 0.020349,14.730797,66.320447,50.079655, 0.020452, 0.044543,311267.500000,50.000000,69.549992,-0.000001,-0.000001, 0.000000, 0.000000,-0.000001, 0.000000, 0.000000,-0.000001, 1.009683,-0.002979, 0.002167, 0.020267,-0.003137,,,,,,250218,10:12:52.125,36772.125
Mult,USC,250218 10:12:52.140, 0.000000, 0.000000, 0.000000, 0.000000, 0.000276, 0.000000, 0.000000, 0.649904,-0.635875, 1.342038,-0.018586, 0.276633, 0.902776, 0.649904,-0.635875, 1.342038,-0.018586, 0.276633, 0.902776, 0.649904,-0.635875, 1.342038,-0.018586, 0.276633, 0.902776, 0.020373, 0.020349,14.730797,66.320447,50.079655, 0.020452, 0.044543,311267.500000,50.000000,69.549992,-0.000001,-0.000000, 0.000000, 0.000000,-0.000001,-0.000001,-0.000001, 0.000000, 1.013010,-0.003082, 0.002133, 0.020239,-0.004210,,,,,,250218,10:12:52.140,36772.14
Mult,USC,250218 10:12:52.155, 0.000000, 0.000000, 0.000000, 0.000000, 0.000276, 0.000000, 0.000000, 0.606428,-0.423288, 0.325005, 0.579064,-0.276028, 0.921942, 0.606428,-0.423288, 0.325005, 0.579064,-0.276028, 0.921942, 0.606428,-0.423288, 0.325005, 0.579064,-0.276028, 0.921942, 0.020373, 0.020349,14.730797,66.320447,50.079655, 0.020452, 0.044543,311267.500000,50.000000,69.549992,-0.000001,-0.000000,-0.000001,-0.000001, 0.000000,-0.000001,-0.000001, 0.000000, 1.012491,-0.003296, 0.001807, 0.022916,-0.003979,,,,,,250218,10:12:52.155,36772.155
Mult,USC,250218 10:12:52.170, 0.000000, 0.000000, 0.000000, 0.000000, 0.000276, 0.000000, 0.000000, 0.579636,-0.343864,-1.057845, 0.396876, 1.031136, 0.854151, 0.579636,-0.343864,-1.057845, 0.396876, 1.031136, 0.854151, 0.579636,-0.343864,-1.057845, 0.396876, 1.031136, 0.854151, 0.020373, 0.020349,14.730797,66.320447,50.079655, 0.020452, 0.044543,311267.500000,50.000000,69.549992,-0.000001,-0.000000, 0.000000, 0.000000,-0.000001, 0.000000, 0.000000,-0.000001, 1.010388,-0.003177, 0.001648, 0.022037,-0.003822,,,,,,250218,10:12:52.170,36772.17
Mult,USC,250218 10:12:52.185, 0.000000, 0.000000, 0.000000, 0.000000, 0.000276, 0.000000, 0.000000, 0.410865,-0.194630,-1.643808,-0.304508,-0.820435, 0.780178, 0.410865,-0.194630,-1.643808,-0.304508,-0.820435, 0.780178, 0.410865,-0.194630,-1.643808,-0.304508,-0.820435, 0.780178, 0.020373, 0.020349,14.730797,66.320447,50.079655, 0.020452, 0.044543,311267.500000,50.000000,69.549992,-0.000001,-0.000000,-0.000001,-0.000001, 0.000000,-0.000001, 0.000001, 0.000000, 1.010989,-0.003369, 0.001620, 0.024210,-0.002741,,,,,,250218,10:12:52.185,36772.185
Mult,USC,250218 10:12:52.200, 0.000000, 0.000000, 0.000000, 0.000000, 0.000276, 0.000000, 0.000000, 0.445539,-0.089981,-0.496722,-0.059135, 0.293448, 0.672648, 0.445539,-0.089981,-0.496722,-0.059135, 0.293448, 0.672648, 0.445539,-0.089981,-0.496722,-0.059135, 0.293448, 0.672648, 0.020373, 0.020349,14.730797,66.320447,50.079655, 0.020452, 0.044543,311267.500000,50.000000,69.549992,-0.000001,-0.000001, 0.000000,-0.000001,-0.000001, 0.000000, 0.000000, 0.000000, 1.009747,-0.003278, 0.001846, 0.022571,-0.002966,,,,,,250218,10:12:52.200,36772.2
Mult,USC,250218 10:12:52.215, 0.000000, 0.000000, 0.000000, 0.000000, 0.000276, 0.000000, 0.000000, 0.685997, 0.134400,-0.863690,-0.195598,-1.371278, 0.701186, 0.685997, 0.134400,-0.863690,-0.195598,-1.371278, 0.701186, 0.685997, 0.134400,-0.863690,-0.195598,-1.371278, 0.701186, 0.020384, 0.020136,14.727728,66.320447,50.161381, 0.020530, 0.044615,311946.656250,50.000000,69.549992,-0.000001,-0.000001, 0.000000,-0.000001,-0.000001,-0.000001,-0.000001,-0.000001, 1.008572,-0.003586, 0.001682, 0.021371,-0.004648,,,,,,250218,10:12:52.215,36772.215
Mult,USC,250218 10:12:52.230, 0.000000, 0.000000, 0.000000, 0.000000, 0.000276, 0.000000, 0.000000, 0.686151, 0.112378,-0.599566,-0.364108,-0.803519, 0.644807, 0.686151, 0.112378,-0.599566,-0.364108,-0.803519, 0.644807, 0.686151, 0.112378,-0.599566,-0.364108,-0.803519, 0.644807, 0.020384, 0.020136,14.727728,66.320447,50.161381, 0.020530, 0.044615,311946.656250,50.000000,69.549992,-0.000001,-0.000001,-0.000001,-0.000001,-0.000001, 0.000000,-0.000001,-0.000001, 1.010962,-0.002963, 0.002328, 0.019913,-0.004628,,,,,,250218,10:12:52.230,36772.23
Mult,USC,250218 10:12:52.245, 0.000000, 0.000000, 0.000000, 0.000000, 0.000276, 0.000000, 0.000000, 0.469496,-0.108475, 0.558619,-0.182526,-1.209365, 0.664214, 0.469496,-0.108475, 0.558619,-0.182526,-1.209365, 0.664214, 0.469496,-0.108475, 0.558619,-0.182526,-1.209365, 0.664214, 0.020384, 0.020136,14.727728,66.320447,50.161381, 0.020530, 0.044615,311946.656250,50.000000,69.549992,-0.000001,-0.000000, 0.000000, 0.000000,-0.000001,-0.000001, 0.000000, 0.000001, 1.009180,-0.003143, 0.001846, 0.018646,-0.003123,,,,,,250218,10:12:52.245,36772.245
Mult,USC,250218 10:12:52.260, 0.000000, 0.000000, 0.000000, 0.000000, 0.000276, 0.000000, 0.000000, 0.434870,-0.121084, 2.058031,-0.722712, 0.601705, 0.771088, 0.434870,-0.121084, 2.058031,-0.722712, 0.601705, 0.771088, 0.434870,-0.121084, 2.058031,-0.722712, 0.601705, 0.771088, 0.020384, 0.020136,14.727728,66.320447,50.161381, 0.020530, 0.044615,311946.656250,50.000000,69.549992,-0.000001,-0.000001, 0.000000,-0.000001,-0.000001, 0.000000, 0.000000, 0.000000, 1.012881,-0.002991, 0.001590, 0.019263,-0.002881,,,,,,250218,10:12:52.260,36772.26
Mult,USC,250218 10:12:52.275, 0.000000, 0.000000, 0.000000, 0.000000, 0.000276, 0.000000, 0.000000, 0.536257,-0.282875,-0.509755, 0.182267,-0.433131, 0.999255, 0.536257,-0.282875,-0.509755, 0.182267,-0.433131, 0.999255, 0.536257,-0.282875,-0.509755, 0.182267,-0.433131, 0.999255, 0.020384, 0.020136,14.727728,66.320447,50.161381, 0.020530, 0.044615,311946.656250,50.000000,69.549992,-0.000001,-0.000000,-0.000001, 0.000000, 0.000000,-0.000001,-0.000001, 0.000000, 1.011536,-0.003174, 0.001782, 0.018240,-0.003543,,,,,,250218,10:12:52.275,36772.275
Mult,USC,250218 10:12:52.290, 0.000000, 0.000000, 0.000000, 0.000000, 0.000276, 0.000000, 0.000000, 0.532178,-0.426446,-0.216051,-0.267232, 1.381547, 1.212218, 0.532178,-0.426446,-0.216051,-0.267232, 1.381547, 1.212218, 0.532178,-0.426446,-0.216051,-0.267232, 1.381547, 1.212218, 0.020384, 0.020136,14.727728,66.320447,50.161381, 0.020530, 0.044615,311946.656250,50.000000,69.549992,-0.000001,-0.000001, 0.000000,-0.000001, 0.000000, 0.000000, 0.000000, 0.000000, 1.012045,-0.003204, 0.001691, 0.021213,-0.003450,,,,,,250218,10:12:52.290,36772.29
Mult,USC,250218 10:12:52.305, 0.000000, 0.000000, 0.000000, 0.000000, 0.000276, 0.000000, 0.000000, 0.631668,-0.313798, 0.383365, 0.387361,-1.452133, 1.151846, 0.631668,-0.313798, 0.383365, 0.387361,-1.452133, 1.151846, 0.631668,-0.313798, 0.383365, 0.387361,-1.452133, 1.151846, 0.020384, 0.020136,14.727728,66.320447,50.161381, 0.020530, 0.044615,311946.656250,50.000000,69.549992,-0.000001,-0.000000, 0.000001, 0.000000,-0.000001, 0.000000,-0.000001,-0.000001, 1.010742,-0.003491, 0.001556, 0.021591,-0.004178,,,,,,250218,10:12:52.305,36772.305
Mult,USC,250218 10:12:52.320, 0.000000, 0.000000, 0.000000, 0.000000, 0.000276, 0.000000, 0.000000, 0.547785,-0.323063,-0.568818, 0.184116,-0.079915, 1.193199, 0.547785,-0.323063,-0.568818, 0.184116,-0.079915, 1.193199, 0.547785,-0.323063,-0.568818, 0.184116,-0.079915, 1.193199, 0.020470, 0.020332,14.717229,66.320447,50.174248, 0.020517, 0.044627,311671.500000,50.000000,69.549992,-0.000001,-0.000000, 0.000000, 0.000000,-0.000001, 0.000000,-0.000001, 0.000000, 1.013452,-0.003055, 0.001968, 0.023389,-0.003612,,,,,,250218,10:12:52.320,36772.32
Mult,USC,250218 10:12:52.335, 0.000000, 0.000000, 0.000000, 0.000000, 0.000276, 0.000000, 0.000000, 0.166869,-0.339294,-2.100977, 0.064134,-1.307537, 1.089034, 0.166869,-0.339294,-2.100977, 0.064134,-1.307537, 1.089034, 0.166869,-0.339294,-2.100977, 0.064134,-1.307537, 1.089034, 0.020470, 0.020332,14.717229,66.320447,50.174248, 0.020517, 0.044627,311671.500000,50.000000,69.549992,-0.000001, 0.000001,-0.000001, 0.000001,-0.000001, 0.000000,-0.000001,-0.000001, 1.010602,-0.003049, 0.002167, 0.023422,-0.001107,,,,,,250218,10:12:52.335,36772.335
Mult,USC,250218 10:12:52.350, 0.000000, 0.000000, 0.000000, 0.000000, 0.000276, 0.000000, 0.000000, 0.426563,-0.306550, 0.330864, 0.037519,-1.018476, 0.867455, 0.426563,-0.306550, 0.330864, 0.037519,-1.018476, 0.867455, 0.426563,-0.306550, 0.330864, 0.037519,-1.018476, 0.867455, 0.020470, 0.020332,14.717229,66.320447,50.174248, 0.020517, 0.044627,311671.500000,50.000000,69.549992,-0.000001,-0.000001,-0.000001,-0.000001,-0.000001,-0.000001,-0.000001,-0.000001, 1.009787,-0.003143, 0.001743, 0.024554,-0.002797,,,,,,250218,10:12:52.350,36772.35
Mult,USC,250218 10:12:52.365, 0.000000, 0.000000, 0.000000, 0.000000, 0.000276, 0.000000, 0.000000, 0.468006,-0.239880, 1.418242,-0.143525,-1.424956, 0.767382, 0.468006,-0.239880, 1.418242,-0.143525,-1.424956, 0.767382, 0.468006,-0.239880, 1.418242,-0.143525,-1.424956, 0.767382, 0.020470, 0.020332,14.717229,66.320447,50.174248, 0.020517, 0.044627,311671.500000,50.000000,69.549992,-0.000001,-0.000001,-0.000001, 0.000000, 0.000000, 0.000000,-0.000001,-0.000001, 1.011603,-0.002960, 0.001813, 0.021466,-0.003095,,,,,,250218,10:12:52.365,36772.365
Mult,USC,250218 10:12:52.380, 0.000000, 0.000000, 0.000000, 0.000000, 0.000276, 0.000000, 0.000000, 0.566614,-0.201078,-0.047563,-0.188704, 0.635427, 0.719075, 0.566614,-0.201078,-0.047563,-0.188704, 0.635427, 0.719075, 0.566614,-0.201078,-0.047563,-0.188704, 0.635427, 0.719075, 0.020470, 0.020332,14.717229,66.320447,50.174248, 0.020517, 0.044627,311671.500000,50.000000,69.549992,-0.000001,-0.000001, 0.000000,-0.000001,-0.000002,-0.000001, 0.000000, 0.000001, 1.014777,-0.003387, 0.001620, 0.020340,-0.003732,,,,,,250218,10:12:52.380,36772.38
Mult,USC,250218 10:12:52.395, 0.000000, 0.000000, 0.000000, 0.000000, 0.000276, 0.000000, 0.000000, 0.681739,-0.229701, 0.204906,-0.266586,-0.305066, 0.721372, 0.681739,-0.229701, 0.204906,-0.266586,-0.305066, 0.721372, 0.681739,-0.229701, 0.204906,-0.266586,-0.305066, 0.721372, 0.020470, 0.020332,14.717229,66.320447,50.174248, 0.020517, 0.044627,311671.500000,50.000000,69.549992,-0.000001,-0.000001,-0.000001,-0.000001, 0.000000, 0.000000,-0.000001, 0.000000, 1.012515,-0.003052, 0.001590, 0.019223,-0.004500,,,,,,250218,10:12:52.395,36772.395
Mult,USC,250218 10:12:52.410, 0.000000, 0.000000, 0.000000, 0.000000, 0.000276, 0.000000, 0.000000, 0.172097,-0.046493, 0.443779,-0.036307, 0.177846, 0.108261, 0.172097,-0.046493, 0.443779,-0.036307, 0.177846, 0.108261, 0.172097,-0.046493, 0.443779,-0.036307, 0.177846, 0.108261, 0.020470, 0.020332,14.717229,66.320447,50.174248, 0.020517, 0.044627,311671.500000,50.000000,69.549992,-0.000001,-0.000001,-0.000001,-0.000001,-0.000001,-0.000001,-0.000001, 0.000000, 1.002173,-0.000562, 0.000369, 0.004153,-0.001140,,,,,,250218,10:12:52.410,36772.41
Mult,USC,250218 10:12:52.425, 0.000000, 0.000000, 0.000000, 0.000000, 0.000276, 0.000000, 0.000000, 0.551113,-0.108911,-0.451580, 0.059832,-0.708145, 1.059655, 0.551113,-0.108911,-0.451580, 0.059832,-0.708145, 1.059655, 0.551113,-0.108911,-0.451580, 0.059832,-0.708145, 1.059655, 0.020357, 0.020019,14.731902,66.309132,50.114559, 0.020489, 0.044574,311623.000000,50.000000,69.549992,-0.000000,-0.000001, 0.000000,-0.000001,-0.000001,-0.000001,-0.000001, 0.000000, 1.010541,-0.002896, 0.001968, 0.018616,-0.003680,,,,,,250218,10:12:52.425,36772.425
Mult,USC,250218 10:12:52.440, 0.000000, 0.000000, 0.000000, 0.000000, 0.000276, 0.000000, 0.000000, 0.440986,-0.262224,-0.885019,-0.076424,-1.596706, 1.123495, 0.440986,-0.262224,-0.885019,-0.076424,-1.596706, 1.123495, 0.440986,-0.262224,-0.885019,-0.076424,-1.596706, 1.123495, 0.020357, 0.020019,14.731902,66.309132,50.114559, 0.020489, 0.044574,311623.000000,50.000000,69.549992,-0.000001,-0.000000, 0.000000, 0.000000,-0.000001, 0.000000,-0.000001,-0.000001, 1.011176,-0.002869, 0.002225, 0.020139,-0.002923,,,,,,250218,10:12:52.440,36772.44
Mult,USC,250218 10:12:52.455, 0.000000, 0.000000, 0.000000, 0.000000, 0.000276, 0.000000, 0.000000, 0.526401,-0.319079, 1.726730, 0.151448,-0.012485, 0.981486, 0.526401,-0.319079, 1.726730, 0.151448,-0.012485, 0.981486, 0.526401,-0.319079, 1.726730, 0.151448,-0.012485, 0.981486, 0.020357, 0.020019,14.731902,66.309132,50.114559, 0.020489, 0.044574,311623.000000,50.000000,69.549992,-0.000000,-0.000000,-0.000001,-0.000001,-0.000001,-0.000001,-0.000001, 0.000000, 1.011566,-0.003235, 0.002069, 0.020270,-0.003472,,,,,,250218,10:12:52.455,36772.455
Mult,USC,250218 10:12:52.470, 0.000000, 0.000000, 0.000000, 0.000000, 0.000276, 0.000000, 0.000000, 0.468009,-0.331992, 0.925404, 0.470290,-0.824397, 0.990474, 0.468009,-0.331992, 0.925404, 0.470290,-0.824397, 0.990474, 0.468009,-0.331992, 0.925404, 0.470290,-0.824397, 0.990474, 0.020357, 0.020019,14.731902,66.309132,50.114559, 0.020489, 0.044574,311623.000000,50.000000,69.549992,-0.000000,-0.000001,-0.000001,-0.000001,-0.000001,-0.000001,-0.000001,-0.000001, 1.010440,-0.003308, 0.001358, 0.022754,-0.003085,,,,,,250218,10:12:52.470,36772.47
Mult,USC,250218 10:12:52.485, 0.000000, 0.000000, 0.000000, 0.000000, 0.000276, 0.000000, 0.000000, 0.610454,-0.302085,-0.577968,-0.333622, 0.537168, 0.992804, 0.610454,-0.302085,-0.577968,-0.333622, 0.537168, 0.992804, 0.610454,-0.302085,-0.577968,-0.333622, 0.537168, 0.992804, 0.020357, 0.020019,14.731902,66.309132,50.114559, 0.020489, 0.044574,311623.000000,50.000000,69.549992,-0.000001,-0.000001, 0.000000,-0.000001,-0.000001, 0.000000,-0.000001, 0.000000, 1.011047,-0.002734, 0.001846, 0.021466,-0.004015,,,,,,250218,10:12:52.485,36772.485
Mult,USC,250218 10:12:52.500, 0.000000, 0.000000, 0.000000, 0.000000, 0.000276, 0.000000, 0.000000, 0.783064,-0.229471,-0.055423,-0.140494,-1.393265, 0.989187, 0.783064,-0.229471,-0.055423,-0.140494,-1.393265, 0.989187, 0.783064,-0.229471,-0.055423,-0.140494,-1.393265, 0.989187, 0.020357, 0.020019,14.731902,66.309132,50.114559, 0.020489, 0.044574,311623.000000,50.000000,69.549992,-0.000001,-0.000000, 0.000000,-0.000001, 0.000000,-0.000001,-0.000001,-0.000001, 1.011819,-0.003021, 0.002069, 0.020679,-0.005189,,,,,,250218,10:12:52.500,36772.5
Mult,USC,250218 10:12:52.515, 0.000000, 0.000000, 0.000000, 0.000000, 0.000276, 0.000000, 0.000000, 0.710497,-0.254225, 1.698339,-0.016477,-1.199769, 1.002847, 0.710497,-0.254225, 1.698339,-0.016477,-1.199769, 1.002847, 0.710497,-0.254225, 1.698339,-0.016477,-1.199769, 1.002847, 0.020333, 0.019676,14.717887,66.309132,50.099667, 0.020457, 0.044561,311234.000000,50.000000,69.549992,-0.000000,-0.000001,-0.000001, 0.000001, 0.000000,-0.000001, 0.000000, 0.000000, 1.009268,-0.002887, 0.001816, 0.021283,-0.004717,,,,,,250218,10:12:52.515,36772.515
Mult,USC,250218 10:12:52.530, 0.000000, 0.000000, 0.000000, 0.000000, 0.000276, 0.000000, 0.000000, 0.800482,-0.292467, 0.235115, 0.010902, 1.489475, 1.055832, 0.800482,-0.292467, 0.235115, 0.010902, 1.489475, 1.055832, 0.800482,-0.292467, 0.235115, 0.010902, 1.489475, 1.055832, 0.020333, 0.019676,14.717887,66.309132,50.099667, 0.020457, 0.044561,311234.000000,50.000000,69.549992,-0.000001,-0.000001, 0.000000,-0.000001,-0.000001,-0.000001, 0.000000, 0.000000, 1.011914,-0.002612, 0.001819, 0.020834,-0.005271,,,,,,250218,10:12:52.530,36772.53
Mult,USC,250218 10:12:52.545, 0.000000, 0.000000, 0.000000, 0.000000, 0.000276, 0.000000, 0.000000, 0.669439,-0.451321,-0.512783, 0.391128, 0.959497, 1.035907, 0.669439,-0.451321,-0.512783, 0.391128, 0.959497, 1.035907, 0.669439,-0.451321,-0.512783, 0.391128, 0.959497, 1.035907, 0.020333, 0.019676,14.717887,66.309132,50.099667, 0.020457, 0.044561,311234.000000,50.000000,69.549992,-0.000001,-0.000000,-0.000001,-0.000001, 0.000000, 0.000000,-0.000001, 0.000000, 1.012491,-0.003113, 0.001935, 0.019424,-0.004386,,,,,,250218,10:12:52.545,36772.545
Mult,USC,250218 10:12:52.560, 0.000000, 0.000000, 0.000000, 0.000000, 0.000276, 0.000000, 0.000000, 0.539041,-0.346070, 1.208189, 0.232283, 2.302014, 1.012781, 0.539041,-0.346070, 1.208189, 0.232283, 2.302014, 1.012781, 0.539041,-0.346070, 1.208189, 0.232283, 2.302014, 1.012781, 0.020333, 0.019676,14.717887,66.309132,50.099667, 0.020457, 0.044561,311234.000000,50.000000,69.549992,-0.000001,-0.000001, 0.000000, 0.000000,-0.000001, 0.000000,-0.000001, 0.000000, 1.010574,-0.002948, 0.001678, 0.019693,-0.003523,,,,,,250218,10:12:52.560,36772.56
Mult,USC,250218 10:12:52.575, 0.000000, 0.000000, 0.000000, 0.000000, 0.000276, 0.000000, 0.000000, 0.360416,-0.284756,-1.489314, 0.176491,-0.307507, 0.948288, 0.360416,-0.284756,-1.489314, 0.176491,-0.307507, 0.948288, 0.360416,-0.284756,-1.489314, 0.176491,-0.307507, 0.948288, 0.020333, 0.019676,14.717887,66.309132,50.099667, 0.020457, 0.044561,311234.000000,50.000000,69.549992,-0.000000,-0.000001,-0.000001,-0.000001, 0.000000, 0.000000,-0.000001, 0.000000, 1.011377,-0.002762, 0.002103, 0.020102,-0.002392,,,,,,250218,10:12:52.575,36772.575
Mult,USC,250218 10:12:52.590, 0.000000, 0.000000, 0.000000, 0.000000, 0.000276, 0.000000, 0.000000, 0.467831,-0.157636,-1.821782,-0.193945,-0.293777, 1.009464, 0.467831,-0.157636,-1.821782,-0.193945,-0.293777, 1.009464, 0.467831,-0.157636,-1.821782,-0.193945,-0.293777, 1.009464, 0.020333, 0.019676,14.717887,66.309132,50.099667, 0.020457, 0.044561,311234.000000,50.000000,69.549992,-0.000001,-0.000000,-0.000001,-0.000001, 0.000000, 0.000000, 0.000000, 0.000000, 1.010889,-0.003204, 0.001743, 0.020923,-0.003136,,,,,,250218,10:12:52.590,36772.59
Mult,USC,250218 10:12:52.605, 0.000000, 0.000000, 0.000000, 0.000000, 0.000276, 0.000000, 0.000000, 0.621243, 0.006884,-0.043267,-0.500176,-3.145952, 0.982459, 0.621243, 0.006884,-0.043267,-0.500176,-3.145952, 0.982459, 0.621243, 0.006884,-0.043267,-0.500176,-3.145952, 0.982459, 0.020333, 0.019676,14.717887,66.309132,50.099667, 0.020457, 0.044561,311234.000000,50.000000,69.549992,-0.000000, 0.000001, 0.000000, 0.000000,-0.000001,-0.000001, 0.000000,-0.000001, 1.011594,-0.003326, 0.001776, 0.021912,-0.004166,,,,,,250218,10:12:52.605,36772.605
Mult,USC,250218 10:12:52.620, 0.000000, 0.000000, 0.000000, 0.000000, 0.000276, 0.000000, 0.000000, 0.307384,-0.149406, 0.620609,-0.180041,-2.041869, 1.027936, 0.307384,-0.149406, 0.620609,-0.180041,-2.041869, 1.027936, 0.307384,-0.149406, 0.620609,-0.180041,-2.041869, 1.027936, 0.020394, 0.019874,14.730071,66.309132,50.163914, 0.020527, 0.044618,311891.125000,50.000000,69.549992,-0.000000,-0.000001,-0.000001,-0.000001, 0.000000, 0.000000,-0.000001, 0.000000, 1.011694,-0.002933, 0.002133, 0.023141,-0.002042,,,,,,250218,10:12:52.620,36772.62
Mult,USC,250218 10:12:52.635, 0.000000, 0.000000, 0.000000, 0.000000, 0.000276, 0.000000, 0.000000, 0.168415,-0.185104,-0.142032,-0.186857,-3.249554, 0.983288, 0.168415,-0.185104,-0.142032,-0.186857,-3.249554, 0.983288, 0.168415,-0.185104,-0.142032,-0.186857,-3.249554, 0.983288, 0.020394, 0.019874,14.730071,66.309132,50.163914, 0.020527, 0.044618,311891.125000,50.000000,69.549992,-0.000001,-0.000001,-0.000001,-0.000001, 0.000000,-0.000001,-0.000001, 0.000000, 1.011716,-0.003207, 0.001782, 0.021536,-0.001109,,,,,,250218,10:12:52.635,36772.635
Mult,USC,250218 10:12:52.650, 0.000000, 0.000000, 0.000000, 0.000000, 0.000276, 0.000000, 0.000000, 0.603676,-0.232155, 1.567606, 0.056478,-1.145092, 0.864581, 0.603676,-0.232155, 1.567606, 0.056478,-1.145092, 0.864581, 0.603676,-0.232155, 1.567606, 0.056478,-1.145092, 0.864581, 0.020394, 0.019874,14.730071,66.309132,50.163914, 0.020527, 0.044618,311891.125000,50.000000,69.549992,-0.000001,-0.000001,-0.000001,-0.000001,-0.000001, 0.000000,-0.000001, 0.000000, 1.010333,-0.003296, 0.001782, 0.021744,-0.004008,,,,,,250218,10:12:52.650,36772.65
Mult,USC,250218 10:12:52.665, 0.000000, 0.000000, 0.000000, 0.000000, 0.000276, 0.000000, 0.000000, 0.730646,-0.231057, 1.189543, 0.277559,-0.892890, 0.743335, 0.730646,-0.231057, 1.189543, 0.277559,-0.892890, 0.743335, 0.730646,-0.231057, 1.189543, 0.277559,-0.892890, 0.743335, 0.020394, 0.019874,14.730071,66.309132,50.163914, 0.020527, 0.044618,311891.125000,50.000000,69.549992,-0.000001,-0.000000, 0.000001,-0.000001,-0.000001, 0.000000,-0.000001,-0.000001, 1.013388,-0.002869, 0.001846, 0.021411,-0.004854,,,,,,250218,10:12:52.665,36772.665
Mult,USC,250218 10:12:52.680, 0.000000, 0.000000, 0.000000, 0.000000, 0.000276, 0.000000, 0.000000, 0.587104,-0.273848,-0.489602,-0.201601, 1.090193, 0.704911, 0.587104,-0.273848,-0.489602,-0.201601, 1.090193, 0.704911, 0.587104,-0.273848,-0.489602,-0.201601, 1.090193, 0.704911, 0.020394, 0.019874,14.730071,66.309132,50.163914, 0.020527, 0.044618,311891.125000,50.000000,69.549992,-0.000000,-0.000001, 0.000000,-0.000001,-0.000001,-0.000001, 0.000000,-0.000001, 1.009781,-0.002979, 0.001999, 0.020078,-0.003856,,,,,,250218,10:12:52.680,36772.68
Mult,USC,250218 10:12:52.695, 0.000000, 0.000000, 0.000000, 0.000000, 0.000276, 0.000000, 0.000000, 0.706535,-0.316552,-0.878118, 0.090108, 1.098395, 0.739861, 0.706535,-0.316552,-0.878118, 0.090108, 1.098395, 0.739861, 0.706535,-0.316552,-0.878118, 0.090108, 1.098395, 0.739861, 0.020394, 0.019874,14.730071,66.309132,50.163914, 0.020527, 0.044618,311891.125000,50.000000,69.549992,-0.000001,-0.000001,-0.000001,-0.000001, 0.000000, 0.000000,-0.000001,-0.000001, 1.011215,-0.002765, 0.001746, 0.020355,-0.004660,,,,,,250218,10:12:52.695,36772.695
Mult,USC,250218 10:12:52.710, 0.000000, 0.000000, 0.000000, 0.000000, 0.000276, 0.000000, 0.000000, 0.157933,-0.017891,-0.074572,-0.009193, 0.214805, 0.148025, 0.157933,-0.017891,-0.074572,-0.009193, 0.214805, 0.148025, 0.157933,-0.017891,-0.074572,-0.009193, 0.214805, 0.148025, 0.020394, 0.019874,14.730071,66.309132,50.163914, 0.020527, 0.044618,311891.125000,50.000000,69.549992,-0.000001,-0.000001, 0.000000, 0.000000, 0.000001,-0.000001,-0.000001, 0.000000, 1.002682,-0.000623, 0.000336, 0.004059,-0.001050,,,,,,250218,10:12:52.710,36772.71
Mult,USC,250218 10:12:52.725, 0.000000, 0.000000, 0.000000, 0.000000, 0.000276, 0.000000, 0.000000, 0.162644,-0.207332,-1.590304,-0.450907,-0.524631, 0.812142, 0.162644,-0.207332,-1.590304,-0.450907,-0.524631, 0.812142, 0.162644,-0.207332,-1.590304,-0.450907,-0.524631, 0.812142, 0.020394, 0.019874,14.730071,66.309132,50.163914, 0.020527, 0.044618,311891.125000,50.000000,69.549992,-0.000001,-0.000001,-0.000001, 0.000000,-0.000001,-0.000001,-0.000001,-0.000001, 1.012070,-0.003113, 0.001999, 0.019919,-0.001077,,,,,,250218,10:12:52.725,36772.725
Mult,USC,250218 10:12:52.740, 0.000000, 0.000000, 0.000000, 0.000000, 0.000276, 0.000000, 0.000000, 0.298068,-0.175874,-0.875068,-0.042229,-0.285221, 0.867371, 0.298068,-0.175874,-0.875068,-0.042229,-0.285221, 0.867371, 0.298068,-0.175874,-0.875068,-0.042229,-0.285221, 0.867371, 0.020394, 0.019874,14.730071,66.309132,50.163914, 0.020527, 0.044618,311891.125000,50.000000,69.549992,-0.000000,-0.000001,-0.000001,-0.000001, 0.000000, 0.000000, 0.000000, 0.000001, 1.010355,-0.002945, 0.001950, 0.020798,-0.001979,,,,,,250218,10:12:52.740,36772.74
Mult,USC,250218 10:12:52.755, 0.000000, 0.000000, 0.000000, 0.000000, 0.000276, 0.000000, 0.000000, 0.585178,-0.154191, 0.118739, 0.165390,-2.323305, 0.858542, 0.585178,-0.154191, 0.118739, 0.165390,-2.323305, 0.858542, 0.585178,-0.154191, 0.118739, 0.165390,-2.323305, 0.858542, 0.020394, 0.019874,14.730071,66.309132,50.163914, 0.020527, 0.044618,311891.125000,50.000000,69.549992,-0.000000,-0.000000,-0.000001,-0.000001, 0.000000,-0.000001,-0.000001, 0.000000, 1.010764,-0.003235, 0.002032, 0.022598,-0.003897,,,,,,250218,10:12:52.755,36772.755
Mult,USC,250218 10:12:52.770, 0.000000, 0.000000, 0.000000, 0.000000, 0.000276, 0.000000, 0.000000, 0.818476,-0.214343, 0.723092, 0.058589,-2.492832, 0.822137, 0.818476,-0.214343, 0.723092, 0.058589,-2.492832, 0.822137, 0.818476,-0.214343, 0.723092, 0.058589,-2.492832, 0.822137, 0.020394, 0.019874,14.730071,66.309132,50.163914, 0.020527, 0.044618,311891.125000,50.000000,69.549992,-0.000001,-0.000001, 0.000000,-0.000001, 0.000000,-0.000001,-0.000001,-0.000001, 1.010095,-0.003143, 0.001813, 0.024142,-0.005443,,,,,,250218,10:12:52.770,36772.77
Mult,USC,250218 10:12:52.785, 0.000000, 0.000000, 0.000000, 0.000000, 0.000276, 0.000000, 0.000000, 0.528544,-0.382616, 0.637941,-0.106658,-1.207034, 0.799175, 0.528544,-0.382616, 0.637941,-0.106658,-1.207034, 0.799175, 0.528544,-0.382616, 0.637941,-0.106658,-1.207034, 0.799175, 0.020394, 0.019874,14.730071,66.309132,50.163914, 0.020527, 0.044618,311891.125000,50.000000,69.549992,-0.000001,-0.000001,-0.000001,-0.000001, 0.000000, 0.000000,-0.000001,-0.000001, 1.009592,-0.003235, 0.001712, 0.022321,-0.003457,,,,,,250218,10:12:52.785,36772.785
Mult,USC,250218 10:12:52.800, 0.000000, 0.000000, 0.000000, 0.000000, 0.000276, 0.000000, 0.000000, 0.327698,-0.315733, 1.326392, 0.051521,-0.190325, 0.761979, 0.327698,-0.315733, 1.326392, 0.051521,-0.190325, 0.761979, 0.327698,-0.315733, 1.326392, 0.051521,-0.190325, 0.761979, 0.020394, 0.019874,14.730071,66.309132,50.163914, 0.020527, 0.044618,311891.125000,50.000000,69.549992,-0.000001,-0.000000,-0.000001,-0.000001,-0.000001,-0.000001,-0.000001, 0.000000, 1.011716,-0.003082, 0.001556, 0.021875,-0.002139,,,,,,250218,10:12:52.800,36772.8
Mult,USC,250218 10:12:52.815, 0.000000, 0.000000, 0.000000, 0.000000, 0.000276, 0.000000, 0.000000, 0.085602,-0.291812,-0.050028, 0.468277, 0.703911, 0.604984, 0.085602,-0.291812,-0.050028, 0.468277, 0.703911, 0.604984, 0.085602,-0.291812,-0.050028, 0.468277, 0.703911, 0.604984, 0.020408, 0.019736,14.721741,66.309132,50.198330, 0.020539, 0.044649,311861.031250,50.000000,69.549992,-0.000000,-0.000001,-0.000001, 0.000000,-0.000001, 0.000000, 0.000000,-0.000001, 1.013318,-0.003177, 0.002014, 0.021188,-0.000521,,,,,,250218,10:12:52.815,36772.815
