# Time (s),Altitude (ft),Vertical velocity (ft/s),Vertical acceleration (ft/s²),Total velocity (ft/s),Total acceleration (ft/s²),Position East of launch (ft),Position North of launch (ft),Lateral distance (ft),Lateral direction (°),Lateral velocity (ft/s),Lateral acceleration (ft/s²),Latitude (°),Longitude (°),Gravitational acceleration (ft/s²),Angle of attack (°),Roll rate (r/s),Pitch rate (r/s),Yaw rate (r/s),Mass (lb),Motor mass (lb),Longitudinal moment of inertia (lb·ft²),Rotational moment of inertia (lb·ft²),CP location (in),CG location (in),Stability margin calibers (​),Mach number (​),Reynolds number (​),Thrust (N),Drag force (N),Drag coefficient (​),Axial drag coefficient (​),Friction drag coefficient (​),Pressure drag coefficient (​),Base drag coefficient (​),Normal force coefficient (​),Pitch moment coefficient (​),Yaw moment coefficient (​),Side force coefficient (​),Roll moment coefficient (​),Roll forcing coefficient (​),Roll damping coefficient (​),Pitch damping coefficient (​),Coriolis acceleration (ft/s²),,Reference area (in²),Vertical orientation (zenith) (°),Lateral orientation (azimuth) (°),Wind velocity (ft/s),Air temperature (°F),Air pressure (mbar),Speed of sound (ft/s),Simulation time step (s),Computation time (s)
2.309,928.76,725.333,-73.229,729.121,73.355,91.029,0.01,91.029,0.006,74.223,4.289,42,-88,32.159,7.81E-04,0,-3.52E-04,3.74E-04,34.953,4.48,200.756,1.563,84.485,67.752,3.249,0.657,3.91E+07,30.633,230.104,0.594,0.594,0.322,0.087,0.176,1.62E-04,2.56E-04,-2.26E-04,0,0,0,0,-4.43E-07,0.079,5.15,20.831,84.158,0.018,0,53.192,955.025,1110.346,0.048,0.086
2.359,964.927,721.373,-78.893,725.155,79.062,94.734,0.011,94.734,0.007,73.969,5.169,42,-88,32.159,0.019,0,-1.73E-04,-5.27E-06,34.953,4.48,200.756,1.563,85.235,67.752,3.395,0.653,3.89E+07,0,227.132,0.593,0.593,0.323,0.087,0.175,0.004,0.013,1.51E-04,0,0,0,0,-1.08E-07,0.079,5.15,20.831,84.166,0.017,0,53.063,953.774,1110.203,0.05,0.087
2.409,1000.898,717.444,-78.279,721.22,78.454,98.426,0.012,98.426,0.007,73.707,5.227,42,-88,32.159,0.027,0,6.42E-04,2.87E-05,34.953,4.48,200.756,1.563,85.214,67.752,3.391,0.65,3.86E+07,0,224.212,0.593,0.593,0.323,0.087,0.175,0.006,0.019,-4.90E-04,0,0,0,0,1.51E-06,0.078,5.15,20.831,84.162,0.014,0,52.934,952.549,1110.062,0.05,0.087
2.459,1036.672,713.544,-77.699,717.315,77.863,102.105,0.012,102.105,0.007,73.449,5.055,42,-88,32.158,0.019,5.13E-09,0.001,5.70E-05,34.953,4.48,200.756,1.563,85.208,67.752,3.39,0.646,3.84E+07,0,221.339,0.592,0.592,0.323,0.087,0.174,0.004,0.013,1.32E-04,0,0,0,0,7.45E-06,0.078,5.15,20.831,84.142,0.008,0,52.807,951.331,1109.921,0.05,0.088
2.509,1072.253,709.674,-77.142,713.439,77.288,105.771,0.013,105.771,0.007,73.204,4.747,42,-88,32.158,0.002,-5.59E-09,0.002,6.29E-04,34.953,4.48,200.756,1.563,85.022,67.752,3.353,0.643,3.82E+07,0,218.51,0.591,0.591,0.323,0.087,0.174,4.52E-04,0.002,6.40E-06,0,0,0,0,9.89E-06,0.078,5.15,20.831,84.112,0.005,0,52.68,950.119,1109.781,0.05,0.089
2.559,1107.64,705.83,-76.594,709.592,76.723,109.426,0.014,109.426,0.007,72.975,4.448,42,-88,32.158,0.015,0,-0.002,9.11E-05,34.953,4.48,200.756,1.563,85.184,67.752,3.385,0.639,3.79E+07,0,215.727,0.591,0.591,0.323,0.086,0.173,0.003,0.011,9.00E-06,0,0,0,0,-8.88E-06,0.077,5.15,20.831,84.081,0.007,0,52.554,948.914,1109.641,0.05,0.09
2.609,1142.836,702.014,-76.041,705.774,76.161,113.069,0.015,113.069,0.008,72.758,4.283,42,-88,32.158,0.023,0,-9.41E-04,2.92E-05,34.953,4.48,200.756,1.563,85.164,67.752,3.381,0.636,3.77E+07,0,212.987,0.59,0.59,0.323,0.086,0.173,0.005,0.016,2.91E-04,0,0,0,0,-3.38E-06,0.077,5.15,20.831,84.059,0.012,0,52.428,947.715,1109.503,0.05,0.091
2.659,1177.842,698.226,-75.478,701.985,75.6,116.701,0.016,116.701,0.008,72.544,4.297,42,-88,32.158,0.019,0,-2.40E-04,3.45E-06,34.953,4.48,200.756,1.563,85.155,67.752,3.379,0.633,3.75E+07,0,210.289,0.59,0.59,0.324,0.086,0.172,0.004,0.013,2.60E-04,0,0,0,0,-2.23E-07,0.076,5.15,20.831,84.049,0.016,0,52.303,946.523,1109.365,0.05,0.092
2.709,1212.659,694.466,-74.91,698.223,75.042,120.323,0.016,120.323,0.008,72.326,4.443,42,-88,32.158,0.006,0,1.31E-04,6.55E-06,34.953,4.48,200.756,1.563,85.145,67.752,3.377,0.629,3.72E+07,0,207.633,0.589,0.589,0.324,0.086,0.172,0.001,0.005,-2.19E-04,0,0,0,0,6.64E-08,0.076,5.15,20.831,84.049,0.017,0,52.179,945.338,1109.228,0.05,0.093
2.759,1247.289,690.735,-74.348,694.488,74.491,123.934,0.017,123.934,0.008,72.099,4.616,42,-88,32.158,0.01,0,-6.69E-05,4.59E-06,34.953,4.48,200.756,1.563,85.139,67.752,3.376,0.626,3.70E+07,0,205.018,0.589,0.589,0.324,0.086,0.171,0.002,0.007,4.78E-04,0,0,0,0,-1.77E-08,0.076,5.15,20.831,84.052,0.017,0,52.056,944.158,1109.091,0.05,0.093
2.809,1281.733,687.031,-73.802,690.78,73.952,127.533,0.018,127.533,0.008,71.865,4.707,42,-88,32.158,0.02,0,4.02E-04,1.69E-05,34.953,4.48,200.756,1.563,85.117,67.752,3.372,0.623,3.68E+07,0,202.443,0.588,0.588,0.324,0.086,0.17,0.004,0.013,2.59E-04,0,0,0,0,6.44E-07,0.075,5.15,20.831,84.049,0.016,0,51.933,942.985,1108.955,0.05,0.094
2.859,1315.993,683.355,-73.279,687.098,73.427,131.12,0.019,131.12,0.008,71.63,4.658,42,-88,32.158,0.02,0,1.00E-03,1.89E-05,34.953,4.48,200.756,1.563,85.105,67.752,3.37,0.62,3.65E+07,0,199.907,0.587,0.587,0.324,0.085,0.17,0.004,0.014,4.54E-04,0,0,0,0,4.03E-06,0.075,5.15,20.831,84.036,0.014,0,51.811,941.819,1108.82,0.05,0.095
2.909,1350.069,679.703,-72.778,683.443,72.916,134.696,0.02,134.696,0.009,71.401,4.481,42,-88,32.157,0.01,0,0.001,1.90E-05,34.953,4.48,200.756,1.563,85.104,67.752,3.369,0.616,3.63E+07,0,197.409,0.587,0.587,0.324,0.085,0.169,0.002,0.007,1.89E-04,0,0,0,0,8.38E-06,0.074,5.15,20.831,84.014,0.013,0,51.689,940.658,1108.686,0.05,0.096
2.959,1383.963,676.077,-72.29,679.814,72.415,138.261,0.021,138.261,0.009,71.183,4.255,42,-87.999,32.157,0.003,0,-0.002,7.09E-05,34.953,4.48,200.756,1.563,85.096,67.752,3.368,0.613,3.61E+07,0,194.949,0.586,0.586,0.324,0.085,0.169,6.53E-04,0.002,-1.35E-04,0,0,0,0,-9.78E-06,0.074,5.15,20.831,83.986,0.013,0,51.568,939.504,1108.553,0.05,0.096
3.009,1417.677,672.474,-71.805,676.209,71.92,141.815,0.022,141.815,0.009,70.976,4.063,42,-87.999,32.157,0.015,0,-0.001,9.03E-06,34.953,4.48,200.756,1.563,85.076,67.752,3.364,0.61,3.59E+07,0,192.525,0.586,0.586,0.324,0.085,0.168,0.003,0.01,-1.05E-04,0,0,0,0,-6.57E-06,0.074,5.15,20.831,83.96,0.014,0,51.448,938.356,1108.42,0.05,0.097
3.059,1451.211,668.896,-71.318,672.63,71.429,145.358,0.023,145.358,0.009,70.775,3.975,42,-87.999,32.157,0.018,0,-7.84E-04,-7.29E-06,34.953,4.48,200.756,1.563,85.061,67.752,3.361,0.607,3.57E+07,0,190.138,0.585,0.585,0.325,0.085,0.168,0.004,0.013,5.04E-05,0,0,0,0,-2.59E-06,0.073,5.15,20.831,83.941,0.014,0,51.328,937.214,1108.288,0.05,0.098
3.109,1484.567,665.342,-70.825,669.075,70.938,148.892,0.024,148.892,0.009,70.577,4.002,42,-87.999,32.157,0.013,0,-3.33E-04,-1.17E-06,34.953,4.48,200.756,1.563,85.055,67.752,3.36,0.604,3.54E+07,0,187.786,0.585,0.585,0.325,0.085,0.167,0.003,0.009,6.98E-05,0,0,0,0,-4.72E-07,0.073,5.15,20.831,83.932,0.015,0,51.209,936.078,1108.156,0.05,0.099
3.159,1517.746,661.813,-70.333,665.545,70.452,152.416,0.025,152.416,0.009,70.374,4.1,42,-87.999,32.157,0.002,0,-1.24E-04,1.55E-05,34.953,4.48,200.756,1.563,85.049,67.752,3.359,0.601,3.52E+07,0,185.468,0.584,0.584,0.325,0.085,0.167,4.79E-04,0.002,3.91E-04,0,0,0,0,-6.63E-08,0.072,5.15,20.831,83.928,0.018,0,51.091,934.948,1108.026,0.05,0.1
3.209,1550.749,658.309,-69.846,662.038,69.972,155.929,0.026,155.929,0.009,70.166,4.206,42,-87.999,32.157,0.009,0,2.31E-04,-3.19E-05,34.953,4.48,200.756,1.563,85.035,67.752,3.356,0.598,3.50E+07,0,183.184,0.584,0.584,0.325,0.084,0.166,0.002,0.006,1.44E-04,0,0,0,0,2.32E-07,0.072,5.15,20.831,83.926,0.021,0,50.973,933.824,1107.896,0.05,0.102
3.259,1583.577,654.829,-69.373,658.555,69.503,159.432,0.027,159.433,0.01,69.954,4.247,42,-87.999,32.157,0.016,0,5.44E-04,-3.39E-05,34.953,4.48,200.756,1.563,85.018,67.752,3.353,0.594,3.48E+07,0,180.934,0.583,0.583,0.325,0.084,0.166,0.003,0.011,-2.13E-04,0,0,0,0,1.30E-06,0.072,5.15,20.831,83.919,0.023,0,50.856,932.706,1107.766,0.05,0.103
3.309,1616.232,651.372,-68.916,655.095,69.044,162.925,0.028,162.925,0.01,69.742,4.203,42,-87.999,32.157,0.016,0,9.86E-04,-4.48E-05,34.953,4.48,200.756,1.563,85.007,67.752,3.351,0.591,3.46E+07,0,178.716,0.583,0.583,0.325,0.084,0.165,0.003,0.011,-9.89E-07,0,0,0,0,4.31E-06,0.071,5.15,20.831,83.905,0.023,0,50.74,931.594,1107.638,0.05,0.104
3.359,1648.715,647.937,-68.474,651.657,68.596,166.407,0.029,166.407,0.01,69.535,4.075,42,-87.999,32.157,0.009,0,0.001,-5.00E-05,34.953,4.48,200.756,1.563,85.005,67.752,3.35,0.588,3.44E+07,0,176.53,0.582,0.582,0.325,0.084,0.165,0.002,0.006,-2.69E-04,0,0,0,0,7.90E-06,0.071,5.15,20.831,83.883,0.021,0,50.624,930.488,1107.51,0.05,0.105
3.409,1681.026,644.524,-68.043,648.243,68.156,169.879,0.03,169.879,0.01,69.335,3.911,42,-87.999,32.156,0.002,0,-0.001,1.12E-04,34.953,4.48,200.756,1.563,84.99,67.752,3.347,0.585,3.42E+07,0,174.376,0.582,0.582,0.325,0.084,0.165,3.21E-04,0.001,-4.77E-04,0,0,0,0,-8.87E-06,0.071,5.15,20.831,83.858,0.017,0,50.509,929.388,1107.383,0.05,0.105
3.459,1713.168,641.132,-67.617,644.85,67.722,173.34,0.031,173.34,0.01,69.144,3.764,42,-87.999,32.156,0.011,0,-0.001,2.24E-05,34.953,4.48,200.756,1.563,84.983,67.752,3.346,0.582,3.40E+07,0,172.252,0.581,0.581,0.326,0.084,0.164,0.002,0.007,4.79E-04,0,0,0,0,-7.44E-06,0.07,5.15,20.831,83.833,0.013,0,50.394,928.293,1107.256,0.05,0.106
3.509,1745.14,637.762,-67.19,641.479,67.291,176.793,0.032,176.793,0.01,68.958,3.68,42,-87.999,32.156,0.015,-5.94E-09,-9.37E-04,6.22E-05,34.953,4.48,200.756,1.563,84.965,67.752,3.342,0.579,3.38E+07,0,170.158,0.581,0.581,0.326,0.084,0.164,0.003,0.01,-4.76E-04,0,0,0,0,-4.06E-06,0.07,5.15,20.831,83.813,0.009,0,50.28,927.205,1107.13,0.05,0.107
3.559,1776.944,634.413,-66.761,638.13,66.862,180.236,0.033,180.236,0.011,68.775,3.672,42,-87.999,32.156,0.013,0,-5.77E-04,4.29E-05,34.953,4.48,200.756,1.563,84.957,67.752,3.341,0.576,3.36E+07,0,168.094,0.581,0.581,0.326,0.084,0.163,0.003,0.009,-1.80E-04,0,0,0,0,-1.56E-06,0.069,5.15,20.831,83.8,0.01,0,50.167,926.121,1107.005,0.05,0.108
3.609,1808.582,631.086,-66.332,634.803,66.436,183.67,0.034,183.67,0.011,68.59,3.723,42,-87.999,32.156,0.005,0,-3.50E-04,7.08E-05,34.953,4.48,200.756,1.563,84.946,67.752,3.339,0.574,3.34E+07,0,166.059,0.58,0.58,0.326,0.083,0.163,0.001,0.003,4.80E-04,0,0,0,0,-5.77E-07,0.069,5.15,20.831,83.792,0.013,0,50.054,925.044,1106.88,0.05,0.109
3.659,1840.053,627.78,-65.907,631.496,66.016,187.095,0.035,187.095,0.011,68.402,3.791,42,-87.999,32.156,0.004,0,3.59E-04,-2.68E-05,34.953,4.48,200.756,1.563,84.956,67.752,3.341,0.571,3.32E+07,0,164.052,0.58,0.58,0.326,0.083,0.162,8.23E-04,0.003,-5.88E-05,0,0,0,0,6.16E-07,0.069,5.15,20.831,83.786,0.018,0,49.942,923.972,1106.756,0.05,0.109
3.709,1871.36,624.495,-65.49,628.209,65.602,190.511,0.037,190.511,0.011,68.211,3.837,42,-87.999,32.156,0.012,0,5.23E-04,-3.00E-05,34.953,4.48,200.756,1.563,84.938,67.752,3.337,0.568,3.30E+07,0,162.073,0.579,0.579,0.326,0.083,0.162,0.002,0.008,-3.54E-04,0,0,0,0,1.32E-06,0.068,5.15,20.831,83.778,0.022,0,49.83,922.906,1106.633,0.05,0.11
3.759,1902.503,621.231,-65.084,624.944,65.197,193.916,0.038,193.916,0.011,68.019,3.828,42,-87.999,32.156,0.014,0,8.52E-04,-2.54E-05,34.953,4.48,200.756,1.563,84.926,67.752,3.335,0.565,3.28E+07,0,160.122,0.579,0.579,0.326,0.083,0.161,0.003,0.01,-1.05E-04,0,0,0,0,3.53E-06,0.068,5.15,20.831,83.766,0.023,0,49.719,921.846,1106.51,0.05,0.111
3.809,1933.483,617.987,-64.691,621.698,64.8,197.313,0.039,197.313,0.011,67.829,3.761,42,-87.999,32.156,0.011,0,0.001,-2.54E-05,34.953,4.48,200.756,1.563,84.92,67.752,3.334,0.562,3.26E+07,0,158.197,0.578,0.578,0.326,0.083,0.161,0.002,0.008,5.33E-06,0,0,0,0,6.65E-06,0.068,5.15,20.831,83.748,0.022,0,49.609,920.791,1106.388,0.05,0.112
3.859,1964.302,614.762,-64.308,618.472,64.411,200.699,0.04,200.699,0.011,67.644,3.649,42,-87.999,32.156,0.004,-8.17E-09,0.001,3.12E-05,34.953,4.48,200.756,1.563,84.92,67.752,3.334,0.559,3.24E+07,0,156.299,0.578,0.578,0.326,0.083,0.161,8.50E-04,0.003,1.59E-04,0,0,0,0,8.63E-06,0.067,5.15,20.831,83.725,0.02,0,49.499,919.741,1106.267,0.05,0.112
3.909,1994.96,611.556,-63.931,615.266,64.028,204.077,0.041,204.077,0.012,67.464,3.532,42,-87.999,32.155,0.004,-6.80E-09,-0.001,1.10E-04,34.953,4.48,200.756,1.563,84.904,67.752,3.33,0.556,3.22E+07,0,154.427,0.577,0.577,0.327,0.083,0.16,7.35E-04,0.002,-4.38E-04,0,0,0,0,-8.80E-06,0.067,5.15,20.831,83.701,0.018,0,49.389,918.697,1106.146,0.05,0.113
3.959,2025.458,608.369,-63.557,612.079,63.65,207.446,0.042,207.446,0.012,67.291,3.436,42,-87.999,32.155,0.01,0,-0.001,3.87E-05,34.953,4.48,200.756,1.563,84.897,67.752,3.329,0.553,3.20E+07,0,152.58,0.577,0.577,0.327,0.083,0.16,0.002,0.007,-2.03E-04,0,0,0,0,-7.11E-06,0.067,5.15,20.831,83.678,0.017,0,49.281,917.659,1106.026,0.05,0.114
4.009,2055.797,605.2,-63.183,608.911,63.274,210.806,0.044,210.806,0.012,67.12,3.384,42,-87.999,32.155,0.012,0,-9.38E-04,3.74E-05,34.953,4.48,200.756,1.563,84.887,67.752,3.327,0.551,3.18E+07,0,150.759,0.577,0.577,0.327,0.082,0.159,0.002,0.008,4.95E-04,0,0,0,0,-4.52E-06,0.066,5.15,20.831,83.659,0.017,0,49.172,916.625,1105.906,0.05,0.115
4.059,2085.978,602.05,-62.81,605.762,62.9,214.158,0.045,214.158,0.012,66.952,3.378,42,-87.999,32.155,0.009,0,-6.76E-04,1.92E-05,34.953,4.48,200.756,1.563,84.882,67.752,3.326,0.548,3.16E+07,0,148.961,0.576,0.576,0.327,0.082,0.159,0.002,0.006,-2.86E-04,0,0,0,0,-2.37E-06,0.066,5.15,20.831,83.645,0.018,0,49.065,915.598,1105.788,0.05,0.116
4.109,2116.002,598.919,-62.437,602.631,62.53,217.501,0.046,217.501,0.012,66.782,3.408,42,-87.999,32.155,0.003,0,-5.56E-04,2.87E-05,34.953,4.48,200.756,1.563,84.877,67.752,3.325,0.545,3.14E+07,0,147.188,0.576,0.576,0.327,0.082,0.159,6.47E-04,0.002,-3.57E-04,0,0,0,0,-1.62E-06,0.066,5.15,20.831,83.634,0.019,0,48.958,914.575,1105.669,0.05,0.116
4.159,2145.87,595.807,-62.068,599.518,62.164,220.836,0.047,220.836,0.012,66.611,3.446,42,-87.999,32.155,0.004,0,5.51E-04,-2.14E-05,34.953,4.48,200.756,1.563,84.874,67.752,3.325,0.542,3.13E+07,0,145.439,0.575,0.575,0.327,0.082,0.158,7.62E-04,0.002,-4.85E-04,0,0,0,0,1.61E-06,0.065,5.15,20.831,83.625,0.021,0,48.851,913.558,1105.552,0.05,0.117
4.209,2175.583,592.712,-61.706,596.424,61.803,224.162,0.048,224.162,0.012,66.438,3.468,42,-87.999,32.155,0.009,0,6.94E-04,-2.11E-05,34.953,4.48,200.756,1.563,84.86,67.752,3.322,0.54,3.11E+07,0,143.712,0.575,0.575,0.327,0.082,0.158,0.002,0.006,-1.45E-04,0,0,0,0,2.58E-06,0.065,5.15,20.831,83.614,0.022,0,48.745,912.546,1105.435,0.05,0.118
4.259,2205.142,589.636,-61.352,593.348,61.45,227.48,0.05,227.48,0.013,66.264,3.458,42,-87.999,32.155,0.012,-5.53E-09,9.16E-04,-2.35E-05,34.953,4.48,200.756,1.563,84.851,67.752,3.32,0.537,3.09E+07,0,142.009,0.575,0.575,0.327,0.082,0.157,0.002,0.008,4.54E-04,0,0,0,0,4.53E-06,0.065,5.15,20.831,83.6,0.024,0,48.64,911.54,1105.318,0.05,0.118
4.309,2234.547,586.577,-61.008,590.289,61.103,230.789,0.051,230.789,0.013,66.092,3.408,42,-87.999,32.155,0.01,0,0.001,-4.36E-05,34.953,4.48,200.756,1.563,84.843,67.752,3.319,0.534,3.07E+07,0,140.328,0.574,0.574,0.327,0.082,0.157,0.002,0.006,-3.27E-04,0,0,0,0,6.76E-06,0.064,5.15,20.831,83.581,0.025,0,48.535,910.538,1105.202,0.05,0.119
4.359,2263.8,583.535,-60.671,587.247,60.762,234.089,0.052,234.089,0.013,65.924,3.332,42,-87.999,32.155,0.005,0,0.001,-9.43E-05,34.953,4.48,200.756,1.563,84.837,67.752,3.318,0.531,3.05E+07,0,138.669,0.574,0.574,0.327,0.082,0.157,0.001,0.004,-1.35E-05,0,0,0,0,8.99E-06,0.064,5.15,20.831,83.559,0.025,0,48.431,909.542,1105.087,0.05,0.12
4.409,2292.901,580.51,-60.339,584.222,60.427,237.381,0.053,237.381,0.013,65.759,3.245,42,-87.999,32.155,0.001,0,-0.001,-3.18E-04,34.953,4.48,200.756,1.563,84.755,67.752,3.302,0.529,3.03E+07,0,137.032,0.573,0.573,0.328,0.082,0.156,2.25E-04,6.09E-04,-1.31E-04,0,0,0,0,-8.87E-06,0.064,5.15,20.831,83.536,0.026,0,48.327,908.551,1104.972,0.05,0.121
4.459,2321.851,577.501,-60.012,581.215,60.095,240.665,0.055,240.665,0.013,65.599,3.166,42,-87.999,32.154,0.006,0,-0.001,-2.77E-05,34.953,4.48,200.756,1.563,84.828,67.752,3.316,0.526,3.02E+07,0,135.416,0.573,0.573,0.328,0.081,0.156,0.001,0.004,4.18E-04,0,0,0,0,-8.49E-06,0.063,5.15,20.831,83.513,0.025,0,48.224,907.565,1104.858,0.05,0.121
4.509,2350.651,574.508,-59.685,578.224,59.767,243.941,0.056,243.941,0.013,65.443,3.113,42,-87.999,32.154,0.009,0,-0.001,-2.89E-05,34.953,4.48,200.756,1.563,84.819,67.752,3.314,0.523,3.00E+07,0,133.821,0.573,0.573,0.328,0.081,0.156,0.002,0.006,3.33E-04,0,0,0,0,-6.52E-06,0.063,5.15,20.831,83.492,0.023,0,48.121,906.584,1104.745,0.05,0.122
4.559,2379.302,571.532,-59.36,575.249,59.44,247.21,0.057,247.21,0.013,65.288,3.089,42,-87.999,32.154,0.009,0,-9.08E-04,3.03E-05,34.953,4.48,200.756,1.563,84.811,67.752,3.312,0.521,2.98E+07,0,132.246,0.572,0.572,0.328,0.081,0.155,0.002,0.006,1.46E-04,0,0,0,0,-4.74E-06,0.063,5.15,20.831,83.474,0.021,0,48.019,905.609,1104.632,0.05,0.123
4.609,2407.805,568.572,-59.036,572.291,59.117,250.47,0.059,250.47,0.013,65.133,3.093,42,-87.999,32.154,0.005,0,-7.66E-04,6.44E-05,34.953,4.48,200.756,1.563,84.802,67.752,3.311,0.518,2.96E+07,0,130.692,0.572,0.572,0.328,0.081,0.155,0.001,0.004,-1.98E-04,0,0,0,0,-3.41E-06,0.062,5.15,20.831,83.46,0.02,0,47.917,904.638,1104.52,0.05,0.123
4.659,2436.16,565.629,-58.714,569.349,58.796,253.723,0.06,253.723,0.014,64.978,3.109,42,-87.999,32.154,3.91E-04,0,-4.59E-04,5.28E-04,34.953,4.48,200.756,1.563,84.006,67.752,3.156,0.516,2.95E+07,0,129.158,0.572,0.572,0.328,0.081,0.155,7.93E-05,5.07E-04,7.71E-06,0,0,0,0,-1.24E-06,0.062,5.15,20.831,83.447,0.021,0,47.816,903.673,1104.408,0.05,0.124
4.709,2464.368,562.701,-58.396,566.422,58.48,256.968,0.062,256.968,0.014,64.822,3.126,42,-87.999,32.154,0.005,0,7.56E-04,4.27E-06,34.953,4.48,200.756,1.563,84.797,67.752,3.31,0.513,2.93E+07,0,127.643,0.571,0.571,0.328,0.081,0.154,9.77E-04,0.003,-6.03E-05,0,0,0,0,3.39E-06,0.062,5.15,20.831,83.434,0.024,0,47.715,902.712,1104.297,0.05,0.125
4.759,2492.43,559.789,-58.084,563.512,58.169,260.205,0.063,260.205,0.014,64.666,3.129,42,-87.999,32.154,0.008,0,8.83E-04,-2.74E-05,34.953,4.48,200.756,1.563,84.788,67.752,3.308,0.51,2.91E+07,0,126.147,0.571,0.571,0.328,0.081,0.154,0.002,0.006,2.19E-04,0,0,0,0,4.67E-06,0.061,5.15,20.831,83.419,0.026,0,47.615,901.756,1104.187,0.05,0.126
4.809,2520.347,556.892,-57.779,560.616,57.863,263.434,0.064,263.434,0.014,64.51,3.107,42,-87.999,32.154,0.009,0,0.001,-2.32E-05,34.953,4.48,200.756,1.563,84.781,67.752,3.307,0.508,2.90E+07,0,124.671,0.571,0.571,0.328,0.081,0.154,0.002,0.006,2.65E-04,0,0,0,0,6.40E-06,0.061,5.15,20.831,83.402,0.027,0,47.516,900.806,1104.077,0.05,0.127
4.859,2548.12,554.011,-57.48,557.736,57.562,266.656,0.066,266.656,0.014,64.355,3.065,42,-87.999,32.154,0.008,0,0.001,-1.92E-05,34.953,4.48,200.756,1.563,84.777,67.752,3.306,0.505,2.88E+07,0,123.213,0.57,0.57,0.328,0.081,0.153,0.002,0.005,4.13E-04,0,0,0,0,8.75E-06,0.061,5.15,20.831,83.382,0.027,0,47.417,899.86,1103.967,0.05,0.127
4.909,2575.748,551.144,-57.187,554.871,57.266,269.87,0.067,269.87,0.014,64.203,3.006,42,-87.999,32.154,0.004,0,0.001,3.38E-06,34.953,4.48,200.756,1.563,84.777,67.752,3.306,0.503,2.86E+07,0,121.773,0.57,0.57,0.328,0.081,0.153,7.38E-04,0.003,4.25E-04,0,0,0,0,1.01E-05,0.06,5.15,20.831,83.359,0.025,0,47.318,898.919,1103.858,0.05,0.128
4.959,2603.234,548.292,-56.899,552.021,56.975,273.076,0.069,273.076,0.014,64.055,2.944,42,-87.999,32.154,7.39E-04,0,-0.001,3.73E-04,34.953,4.48,200.756,1.563,84.654,67.752,3.282,0.5,2.85E+07,0,120.356,0.57,0.57,0.329,0.08,0.153,1.48E-04,2.93E-04,2.75E-04,0,0,0,0,-9.67E-06,0.06,5.15,20.831,83.336,0.024,0,47.22,898.02,1103.75,0.05,0.129
5.009,2630.578,545.454,-56.614,549.186,56.688,276.275,0.07,276.275,0.015,63.909,2.886,42,-87.999,32.154,0.005,0,-0.001,5.38E-05,34.953,4.48,200.756,1.563,84.762,67.752,3.303,0.498,2.83E+07,0,118.958,0.569,0.569,0.329,0.08,0.152,9.18E-04,0.003,3.22E-04,0,0,0,0,-1.01E-05,0.06,5.15,20.831,83.313,0.024,0,47.123,897.133,1103.642,0.05,0.129
5.059,2657.78,542.631,-56.331,546.365,56.403,279.467,0.071,279.467,0.015,63.766,2.843,42,-87.999,32.153,0.007,0,-0.001,3.29E-05,34.953,4.48,200.756,1.563,84.756,67.752,3.302,0.495,2.81E+07,0,117.576,0.569,0.569,0.329,0.08,0.152,0.001,0.005,2.79E-04,0,0,0,0,-8.59E-06,0.06,5.15,20.831,83.291,0.024,0,47.026,896.251,1103.535,0.05,0.13
5.109,2684.841,539.821,-56.05,543.558,56.121,282.652,0.073,282.652,0.015,63.624,2.819,42,-87.999,32.153,0.007,0,-0.001,1.73E-05,34.953,4.48,200.756,1.563,84.752,67.752,3.301,0.493,2.80E+07,0,116.212,0.569,0.569,0.329,0.08,0.152,0.001,0.005,-4.23E-04,0,0,0,0,-6.77E-06,0.059,5.15,20.831,83.271,0.024,0,46.929,895.374,1103.429,0.05,0.131
5.159,2711.762,537.026,-55.77,540.765,55.841,285.83,0.074,285.83,0.015,63.484,2.812,42,-87.999,32.153,0.005,0,-9.40E-04,3.11E-05,34.953,4.48,200.756,1.563,84.749,67.752,3.3,0.49,2.78E+07,0,114.865,0.568,0.568,0.329,0.08,0.151,9.16E-04,0.003,1.97E-05,0,0,0,0,-5.74E-06,0.059,5.15,20.831,83.254,0.026,0,46.833,894.501,1103.323,0.05,0.132
5.209,2738.544,534.244,-55.492,537.986,55.563,289,0.076,289,0.015,63.343,2.816,42,-87.999,32.153,0.001,0,-8.83E-04,-4.74E-05,34.953,4.48,200.756,1.563,84.741,67.752,3.299,0.488,2.76E+07,0,113.534,0.568,0.568,0.329,0.08,0.151,2.06E-04,6.54E-04,-1.46E-04,0,0,0,0,-5.12E-06,0.059,5.15,20.831,83.237,0.028,0,46.738,893.633,1103.217,0.05,0.132
5.259,2765.187,531.477,-55.217,535.221,55.289,292.164,0.077,292.164,0.015,63.202,2.821,42,-87.999,32.153,0.003,0,9.02E-04,-7.54E-05,34.953,4.48,200.756,1.563,84.736,67.752,3.298,0.485,2.75E+07,0,112.219,0.568,0.568,0.329,0.08,0.151,5.58E-04,0.002,-3.63E-04,0,0,0,0,5.40E-06,0.058,5.15,20.831,83.221,0.03,0,46.643,892.769,1103.112,0.05,0.133
5.309,2791.692,528.722,-54.946,532.47,55.019,295.321,0.079,295.321,0.015,63.061,2.82,42,-87.999,32.153,0.006,0,9.61E-04,-8.50E-05,34.953,4.48,200.756,1.563,84.723,67.752,3.295,0.483,2.73E+07,0,110.92,0.567,0.567,0.329,0.08,0.15,0.001,0.004,-4.78E-04,0,0,0,0,6.19E-06,0.058,5.15,20.831,83.204,0.031,0,46.548,891.909,1103.008,0.05,0.134
5.359,2818.059,525.982,-54.68,529.732,54.752,298.47,0.08,298.47,0.015,62.92,2.808,42,-87.999,32.153,0.007,0,0.001,-5.70E-05,34.953,4.48,200.756,1.563,84.722,67.752,3.295,0.48,2.72E+07,0,109.636,0.567,0.567,0.329,0.08,0.15,0.001,0.005,-1.51E-04,0,0,0,0,7.98E-06,0.058,5.15,20.831,83.186,0.031,0,46.454,891.055,1102.904,0.05,0.134
5.409,2844.29,523.254,-54.419,527.007,54.49,301.613,0.082,301.613,0.016,62.78,2.78,42,-87.999,32.153,0.007,0,0.001,-2.40E-05,34.953,4.48,200.756,1.563,84.72,67.752,3.295,0.478,2.70E+07,0,108.368,0.567,0.567,0.329,0.08,0.15,0.001,0.004,1.68E-04,0,0,0,0,9.70E-06,0.057,5.15,20.831,83.165,0.031,0,46.36,890.204,1102.801,0.05,0.135
5.459,2870.385,520.54,-54.162,524.296,54.232,304.748,0.084,304.748,0.016,62.642,2.741,42,-87.999,32.153,0.005,0,0.001,3.16E-05,34.953,4.48,200.756,1.563,84.719,67.752,3.295,0.475,2.69E+07,0,107.116,0.566,0.566,0.329,0.08,0.149,9.90E-04,0.004,7.08E-05,0,0,0,0,1.17E-05,0.057,5.15,20.831,83.143,0.028,0,46.267,889.358,1102.698,0.05,0.136
5.509,2896.344,517.838,-53.91,521.597,53.977,307.877,0.085,307.877,0.016,62.506,2.694,42,-87.999,32.153,0.002,0,0.001,2.89E-04,34.953,4.48,200.756,1.563,84.656,67.752,3.282,0.473,2.67E+07,0,105.878,0.566,0.566,0.329,0.079,0.149,3.42E-04,0.001,4.60E-04,0,0,0,0,1.20E-05,0.057,5.15,20.831,83.119,0.026,0,46.175,888.516,1102.595,0.05,0.161
5.559,2922.169,515.149,-53.661,518.911,53.726,310.999,0.087,310.999,0.016,62.373,2.647,42,-87.999,32.153,0.002,0,-0.001,5.05E-04,34.953,4.48,200.756,1.563,84.497,67.752,3.251,0.471,2.65E+07,0,104.655,0.566,0.566,0.33,0.079,0.149,3.54E-04,0.001,1.41E-04,0,0,0,0,-1.09E-05,0.057,5.15,20.831,83.095,0.023,0,46.083,887.679,1102.494,0.05,0.162
5.609,2947.86,512.472,-53.413,516.238,53.477,314.114,0.088,314.114,0.016,62.242,2.606,42,-87.999,32.153,0.004,0,-0.001,2.74E-04,34.953,4.48,200.756,1.563,84.641,67.752,3.279,0.468,2.64E+07,0,103.446,0.565,0.565,0.33,0.079,0.149,8.66E-04,0.003,-1.45E-04,0,0,0,0,-1.16E-05,0.056,5.15,20.831,83.071,0.022,0,45.991,886.846,1102.393,0.05,0.162
5.659,2973.416,509.807,-53.168,513.577,53.23,317.223,0.09,317.223,0.016,62.112,2.575,42,-87.999,32.152,0.006,0,-0.001,1.86E-04,34.953,4.48,200.756,1.563,84.668,67.752,3.285,0.466,2.62E+07,0,102.251,0.565,0.565,0.33,0.079,0.148,0.001,0.004,1.41E-04,0,0,0,0,-1.06E-05,0.056,5.15,20.831,83.048,0.022,0,45.9,886.018,1102.292,0.05,0.163
5.709,2998.841,507.155,-52.924,510.929,52.986,320.325,0.091,320.325,0.016,61.984,2.557,42,-87.999,32.152,0.005,0,-0.001,1.40E-04,34.953,4.48,200.756,1.563,84.677,67.752,3.286,0.464,2.61E+07,0,101.071,0.565,0.565,0.33,0.079,0.148,0.001,0.003,-3.47E-04,0,0,0,0,-9.46E-06,0.056,5.15,20.831,83.027,0.024,0,45.809,885.193,1102.192,0.05,0.163
5.759,3024.132,504.515,-52.682,508.293,52.744,323.421,0.093,323.421,0.016,61.856,2.547,42,-87.999,32.152,0.003,0,-0.001,7.21E-05,34.953,4.48,200.756,1.563,84.689,67.752,3.289,0.461,2.59E+07,0,99.905,0.565,0.565,0.33,0.079,0.148,6.69E-04,0.002,-1.91E-04,0,0,0,0,-8.71E-06,0.055,5.15,20.831,83.007,0.027,0,45.719,884.373,1102.092,0.05,0.164
5.809,3049.292,501.887,-52.442,505.669,52.504,326.511,0.095,326.511,0.017,61.729,2.544,42,-87.999,32.152,7.93E-04,0,-0.001,-2.59E-04,34.953,4.48,200.756,1.563,84.592,67.752,3.27,0.459,2.58E+07,0,98.752,0.564,0.564,0.33,0.079,0.147,1.58E-04,4.50E-04,-9.64E-05,0,0,0,0,-7.75E-06,0.055,5.15,20.831,82.988,0.031,0,45.629,883.558,1101.993,0.05,0.165
5.859,3074.321,499.271,-52.204,503.057,52.266,329.594,0.096,329.594,0.017,61.602,2.543,42,-87.999,32.152,0.002,0,0.001,-2.51E-04,34.953,4.48,200.756,1.563,84.62,67.752,3.275,0.457,2.56E+07,0,97.612,0.564,0.564,0.33,0.079,0.147,4.61E-04,0.002,6.01E-05,0,0,0,0,8.06E-06,0.055,5.15,20.831,82.969,0.034,0,45.54,882.746,1101.894,0.05,0.165
5.909,3099.219,496.666,-51.97,500.456,52.032,332.671,0.098,332.671,0.017,61.475,2.537,42,-87.999,32.152,0.005,0,0.001,-1.70E-04,34.953,4.48,200.756,1.563,84.645,67.752,3.28,0.454,2.55E+07,0,96.486,0.564,0.564,0.33,0.079,0.147,9.33E-04,0.003,-3.44E-04,0,0,0,0,9.13E-06,0.055,5.15,20.831,82.949,0.036,0,45.451,881.939,1101.796,0.05,0.166
5.959,3123.988,494.074,-51.739,497.868,51.801,335.742,0.099,335.742,0.017,61.348,2.526,42,-87.999,32.152,0.006,0,0.001,-1.49E-04,34.953,4.48,200.756,1.563,84.65,67.752,3.281,0.452,2.53E+07,0,95.373,0.563,0.563,0.33,0.079,0.147,0.001,0.004,9.51E-05,0,0,0,0,1.09E-05,0.054,5.15,20.831,82.928,0.037,0,45.363,881.136,1101.699,0.05,0.167
6.009,3148.627,491.492,-51.512,495.291,51.573,338.806,0.101,338.806,0.017,61.222,2.505,42,-87.999,32.152,0.006,0,0.001,-1.02E-04,34.953,4.48,200.756,1.563,84.655,67.752,3.282,0.45,2.52E+07,0,94.272,0.563,0.563,0.33,0.079,0.146,0.001,0.004,5.86E-05,0,0,0,0,1.25E-05,0.054,5.15,20.831,82.906,0.036,0,45.275,880.337,1101.602,0.05,0.167
6.059,3173.137,488.922,-51.289,492.725,51.348,341.864,0.103,341.864,0.017,61.098,2.477,42,-87.999,32.152,0.005,-5.29E-09,0.001,-3.77E-05,34.953,4.48,200.756,1.563,84.663,67.752,3.284,0.447,2.51E+07,0,93.185,0.563,0.563,0.33,0.079,0.146,0.001,0.004,-3.87E-04,0,0,0,0,1.42E-05,0.054,5.15,20.831,82.882,0.034,0,45.188,879.542,1101.505,0.05,0.168
6.109,3197.519,486.364,-51.069,490.171,51.127,344.916,0.105,344.916,0.017,60.975,2.443,42,-87.999,32.152,0.003,0,0.001,1.36E-04,34.953,4.48,200.756,1.563,84.652,67.752,3.282,0.445,2.49E+07,0,92.109,0.563,0.563,0.33,0.078,0.146,6.02E-04,0.002,-1.94E-04,0,0,0,0,1.57E-05,0.053,5.15,20.831,82.857,0.031,0,45.101,878.752,1101.409,0.05,0.168
6.159,3221.774,483.816,-50.851,487.628,50.908,347.962,0.106,347.962,0.017,60.853,2.406,42,-87.999,32.152,7.41E-04,0,8.48E-04,0.001,34.953,4.48,200.756,1.563,83.743,67.752,3.105,0.443,2.48E+07,0,91.046,0.562,0.562,0.33,0.078,0.145,1.49E-04,6.98E-04,-3.80E-04,0,0,0,0,5.75E-06,0.053,5.15,20.831,82.832,0.028,0,45.014,877.965,1101.314,0.05,0.169
6.209,3245.901,481.278,-50.637,485.095,50.692,351.001,0.108,351.001,0.018,60.734,2.371,42,-87.999,32.152,0.002,0,-0.001,5.31E-04,34.953,4.48,200.756,1.563,84.457,67.752,3.244,0.441,2.46E+07,0,89.995,0.562,0.562,0.33,0.078,0.145,4.34E-04,0.001,4.32E-04,0,0,0,0,-1.42E-05,0.053,5.15,20.831,82.806,0.026,0,44.928,877.183,1101.219,0.05,0.17
6.259,3269.902,478.752,-50.423,482.574,50.478,354.035,0.11,354.035,0.018,60.616,2.342,42,-87.999,32.152,0.004,0,-0.001,2.82E-04,34.953,4.48,200.756,1.563,84.59,67.752,3.27,0.438,2.45E+07,0,88.957,0.562,0.562,0.331,0.078,0.145,7.37E-04,0.002,3.32E-04,0,0,0,0,-1.52E-05,0.053,5.15,20.831,82.78,0.026,0,44.843,876.405,1101.124,0.05,0.172
6.309,3293.777,476.236,-50.212,480.063,50.266,357.063,0.111,357.063,0.018,60.5,2.318,42,-87.999,32.151,0.004,0,-0.001,2.13E-04,34.953,4.48,200.756,1.563,84.614,67.752,3.274,0.436,2.43E+07,0,87.929,0.561,0.561,0.331,0.078,0.145,8.87E-04,0.003,-4.58E-05,0,0,0,0,-1.43E-05,0.052,5.15,20.831,82.756,0.027,0,44.758,875.631,1101.03,0.05,0.173
6.359,3317.526,473.731,-50.002,477.564,50.055,360.085,0.113,360.085,0.018,60.384,2.302,42,-87.999,32.151,0.004,0,-0.001,1.11E-04,34.953,4.48,200.756,1.563,84.633,67.752,3.278,0.434,2.42E+07,0,86.914,0.561,0.561,0.331,0.078,0.144,7.64E-04,0.003,-3.19E-04,0,0,0,0,-1.38E-05,0.052,5.15,20.831,82.732,0.03,0,44.673,874.861,1100.936,0.05,0.174
6.409,3341.15,471.236,-49.794,475.074,49.846,363.101,0.115,363.101,0.018,60.269,2.293,42,-87.999,32.151,0.002,0,-0.001,-1.50E-05,34.953,4.48,200.756,1.563,84.638,67.752,3.279,0.432,2.41E+07,0,85.91,0.561,0.561,0.331,0.078,0.144,4.45E-04,0.001,3.62E-04,0,0,0,0,-1.33E-05,0.052,5.15,20.831,82.709,0.033,0,44.589,874.095,1100.843,0.05,0.175
6.459,3364.649,468.751,-49.587,472.595,49.64,366.112,0.117,366.112,0.018,60.155,2.286,42,-87.999,32.151,5.02E-04,0,-4.99E-04,-0.001,34.953,4.48,200.756,1.563,83.423,67.752,3.043,0.429,2.39E+07,0,84.917,0.561,0.561,0.331,0.078,0.144,1.01E-04,6.62E-04,-8.34E-05,0,0,0,0,-2.12E-06,0.052,5.15,20.831,82.687,0.036,0,44.505,873.333,1100.751,0.05,0.176
6.509,3388.025,466.277,-49.383,470.127,49.436,369.117,0.118,369.117,0.018,60.041,2.281,42,-87.999,32.151,0.002,0,0.001,-3.51E-04,34.953,4.48,200.756,1.563,84.519,67.752,3.256,0.427,2.38E+07,0,83.935,0.56,0.56,0.331,0.078,0.144,4.34E-04,0.002,4.56E-04,0,0,0,0,1.22E-05,0.051,5.15,20.831,82.665,0.039,0,44.421,872.575,1100.659,0.05,0.177
6.559,3411.277,463.813,-49.181,467.668,49.234,372.116,0.12,372.116,0.018,59.927,2.273,42,-87.999,32.151,0.004,0,0.001,-2.25E-04,34.953,4.48,200.756,1.563,84.579,67.752,3.267,0.425,2.36E+07,0,82.964,0.56,0.56,0.331,0.078,0.143,8.12E-04,0.003,-1.99E-04,0,0,0,0,1.40E-05,0.051,5.15,20.831,82.642,0.039,0,44.339,871.821,1100.567,0.05,0.178
6.609,3434.407,461.359,-48.982,465.22,49.035,375.11,0.122,375.11,0.019,59.813,2.262,42,-87.999,32.151,0.005,0,0.001,-1.29E-04,34.953,4.48,200.756,1.563,84.605,67.752,3.272,0.423,2.35E+07,0,82.004,0.56,0.56,0.331,0.078,0.143,0.001,0.003,-4.73E-04,0,0,0,0,1.56E-05,0.051,5.15,20.831,82.618,0.039,0,44.256,871.071,1100.476,0.05,0.179
6.659,3457.413,458.915,-48.786,462.782,48.838,378.097,0.124,378.097,0.019,59.701,2.245,42,-87.999,32.151,0.006,0,0.001,-6.27E-05,34.953,4.48,200.756,1.563,84.611,67.752,3.274,0.421,2.34E+07,0,81.055,0.56,0.56,0.331,0.078,0.143,0.001,0.003,-9.07E-05,0,0,0,0,1.73E-05,0.05,5.15,20.831,82.594,0.037,0,44.174,870.325,1100.385,0.05,0.18
6.709,3480.298,456.48,-48.593,460.353,48.644,381.08,0.125,381.08,0.019,59.589,2.223,42,-87.999,32.151,0.005,0,0.001,9.44E-06,34.953,4.48,200.756,1.563,84.613,67.752,3.274,0.418,2.32E+07,0,80.116,0.559,0.559,0.331,0.078,0.143,9.96E-04,0.003,4.00E-04,0,0,0,0,1.92E-05,0.05,5.15,20.831,82.568,0.035,0,44.092,869.583,1100.295,0.05,0.18
6.759,3503.062,454.055,-48.403,457.934,48.452,384.056,0.127,384.056,0.019,59.479,2.198,42,-87.999,32.151,0.004,0,0.002,9.39E-05,34.953,4.48,200.756,1.563,84.607,67.752,3.273,0.416,2.31E+07,0,79.188,0.559,0.559,0.331,0.078,0.143,7.27E-04,0.002,-4.78E-04,0,0,0,0,2.08E-05,0.05,5.15,20.831,82.541,0.034,0,44.011,868.845,1100.206,0.05,0.181
6.809,3525.704,451.64,-48.214,455.525,48.263,387.028,0.129,387.028,0.019,59.369,2.17,42,-87.999,32.151,0.002,0,0.002,4.03E-04,34.953,4.48,200.756,1.563,84.514,67.752,3.255,0.414,2.30E+07,0,78.27,0.559,0.559,0.331,0.077,0.142,3.92E-04,0.001,3.02E-04,0,0,0,0,2.07E-05,0.05,5.15,20.831,82.513,0.032,0,43.93,868.111,1100.116,0.05,0.182
6.859,3548.226,449.234,-48.029,453.126,48.076,389.993,0.131,389.993,0.019,59.262,2.142,42,-87.999,32.151,7.05E-04,0,-1.31E-04,0.002,34.953,4.48,200.756,1.563,83.193,67.752,2.998,0.412,2.28E+07,0,77.362,0.559,0.559,0.331,0.077,0.142,1.43E-04,4.82E-04,-3.83E-04,0,0,0,0,-1.60E-07,0.049,5.15,20.831,82.485,0.031,0,43.85,867.381,1100.028,0.05,0.183
6.909,3570.627,446.837,-47.844,450.736,47.891,392.954,0.133,392.954,0.019,59.155,2.116,42,-87.999,32.151,0.002,0,-0.001,5.73E-04,34.953,4.48,200.756,1.563,84.4,67.752,3.233,0.41,2.27E+07,0,76.464,0.559,0.559,0.331,0.077,0.142,3.63E-04,0.001,9.88E-05,0,0,0,0,-1.93E-05,0.049,5.15,20.831,82.457,0.031,0,43.77,866.655,1099.939,0.05,0.183
6.959,3592.91,444.449,-47.662,448.355,47.708,395.909,0.135,395.909,0.019,59.05,2.094,42,-87.999,32.151,0.003,0,-0.001,3.93E-04,34.953,4.48,200.756,1.563,84.501,67.752,3.252,0.408,2.26E+07,0,75.575,0.558,0.558,0.331,0.077,0.142,5.52E-04,0.002,4.58E-04,0,0,0,0,-2.07E-05,0.049,5.15,20.831,82.429,0.031,0,43.691,865.932,1099.852,0.05,0.184
7.009,3615.072,442.071,-47.481,445.983,47.526,398.859,0.137,398.859,0.02,58.946,2.076,42,-87.999,32.15,0.003,0,-0.001,2.88E-04,34.953,4.48,200.756,1.563,84.542,67.752,3.26,0.406,2.24E+07,0,74.697,0.558,0.558,0.331,0.077,0.141,5.92E-04,0.002,3.68E-04,0,0,0,0,-2.05E-05,0.049,5.15,20.831,82.402,0.032,0,43.612,865.214,1099.764,0.05,0.185
7.059,3637.117,439.701,-47.301,443.621,47.346,401.803,0.138,401.803,0.02,58.842,2.062,42,-87.999,32.15,0.002,0,-0.001,2.45E-04,34.953,4.48,200.756,1.563,84.551,67.752,3.262,0.403,2.23E+07,0,73.828,0.558,0.558,0.332,0.077,0.141,4.67E-04,0.002,2.84E-04,0,0,0,0,-2.00E-05,0.048,5.15,20.831,82.375,0.033,0,43.533,864.499,1099.678,0.05,0.186
7.109,3659.043,437.341,-47.123,441.268,47.167,404.743,0.14,404.743,0.02,58.739,2.052,42,-87.999,32.15,0.001,0,-0.001,1.95E-04,34.953,4.48,200.756,1.563,84.564,67.752,3.265,0.401,2.22E+07,0,72.968,0.558,0.558,0.332,0.077,0.141,2.22E-04,8.49E-04,-1.77E-04,0,0,0,0,-1.99E-05,0.048,5.15,20.831,82.349,0.035,0,43.455,863.788,1099.591,0.05,0.187
7.159,3680.851,434.989,-46.946,438.923,46.991,407.677,0.142,407.677,0.02,58.637,2.044,42,-87.998,32.15,5.58E-04,0,0.001,-2.87E-04,34.953,4.48,200.756,1.563,84.533,67.752,3.259,0.399,2.20E+07,0,72.118,0.557,0.557,0.332,0.077,0.141,1.10E-04,5.38E-04,-4.10E-04,0,0,0,0,1.95E-05,0.048,5.15,20.831,82.323,0.037,0,43.377,863.081,1099.505,0.05,0.187
7.209,3702.542,432.646,-46.771,436.588,46.816,410.607,0.144,410.607,0.02,58.535,2.036,42,-87.998,32.15,0.002,0,0.001,-1.75E-04,34.953,4.48,200.756,1.563,84.561,67.752,3.264,0.397,2.19E+07,0,71.277,0.557,0.557,0.332,0.077,0.141,4.75E-04,0.002,-4.20E-04,0,0,0,0,2.06E-05,0.048,5.15,20.831,82.297,0.039,0,43.3,862.378,1099.42,0.05,0.188
7.259,3724.116,430.312,-46.599,434.261,46.643,413.531,0.146,413.531,0.02,58.433,2.027,42,-87.998,32.15,0.004,0,0.001,-1.58E-04,34.953,4.48,200.756,1.563,84.56,67.752,3.264,0.395,2.18E+07,0,70.444,0.557,0.557,0.332,0.077,0.14,7.88E-04,0.002,-4.85E-04,0,0,0,0,2.20E-05,0.047,5.15,20.831,82.271,0.041,0,43.223,861.678,1099.335,0.05,0.189
7.309,3745.573,427.986,-46.428,431.943,46.472,416.45,0.148,416.45,0.02,58.332,2.016,42,-87.998,32.15,0.005,0,0.002,-1.51E-04,34.953,4.48,200.756,1.563,84.557,67.752,3.263,0.393,2.17E+07,0,69.621,0.557,0.557,0.332,0.077,0.14,0.001,0.003,-2.17E-04,0,0,0,0,2.36E-05,0.047,5.15,20.831,82.244,0.041,0,43.146,860.983,1099.25,0.05,0.19
7.359,3766.914,425.669,-46.26,429.634,46.303,419.364,0.15,419.364,0.02,58.232,2.002,42,-87.998,32.15,0.006,0,0.002,-1.08E-04,34.953,4.48,200.756,1.563,84.559,67.752,3.264,0.391,2.15E+07,0,68.807,0.556,0.556,0.332,0.077,0.14,0.001,0.004,-1.84E-04,0,0,0,0,2.58E-05,0.047,5.15,20.831,82.216,0.041,0,43.07,860.291,1099.166,0.05,0.191
7.409,3788.14,423.36,-46.094,427.333,46.137,422.273,0.152,422.273,0.021,58.132,1.985,42,-87.998,32.15,0.005,0,0.002,-8.26E-05,34.953,4.48,200.756,1.563,84.558,67.752,3.263,0.389,2.14E+07,0,68.001,0.556,0.556,0.332,0.077,0.14,0.001,0.004,6.66E-05,0,0,0,0,2.75E-05,0.047,5.15,20.831,82.187,0.04,0,42.995,859.603,1099.083,0.05,0.192
7.459,3809.251,421.059,-45.93,425.04,45.972,425.177,0.154,425.177,0.021,58.033,1.966,42,-87.998,32.15,0.005,0,0.002,2.72E-06,34.953,4.48,200.756,1.563,84.561,67.752,3.264,0.387,2.13E+07,0,67.205,0.556,0.556,0.332,0.077,0.139,8.95E-04,0.003,-5.14E-05,0,0,0,0,2.98E-05,0.046,5.15,20.831,82.157,0.039,0,42.919,858.918,1099,0.05,0.193
7.509,3830.246,418.767,-45.768,422.756,45.809,428.077,0.156,428.077,0.021,57.936,1.944,42,-87.998,32.15,0.003,0,0.002,9.66E-05,34.953,4.48,200.756,1.563,84.555,67.752,3.263,0.385,2.12E+07,0,66.416,0.556,0.556,0.332,0.077,0.139,6.46E-04,0.002,3.70E-04,0,0,0,0,3.12E-05,0.046,5.15,20.831,82.126,0.038,0,42.844,858.237,1098.917,0.05,0.194
7.559,3851.127,416.483,-45.608,420.48,45.649,430.971,0.158,430.971,0.021,57.839,1.921,42,-87.998,32.15,0.002,0,0.002,3.93E-04,34.953,4.48,200.756,1.563,84.487,67.752,3.25,0.383,2.10E+07,0,65.636,0.556,0.556,0.332,0.077,0.139,3.46E-04,7.07E-04,-2.56E-04,0,0,0,0,3.11E-05,0.046,5.15,20.831,82.095,0.037,0,42.77,857.56,1098.835,0.05,0.194
7.609,3871.895,414.206,-45.45,418.212,45.49,433.86,0.16,433.861,0.021,57.743,1.899,42,-87.998,32.15,6.56E-04,0,5.11E-04,0.002,34.953,4.48,200.756,1.563,83.253,67.752,3.01,0.381,2.09E+07,0,64.864,0.555,0.555,0.332,0.076,0.139,1.32E-04,5.94E-04,-4.00E-04,0,0,0,0,2.84E-06,0.046,5.15,20.831,82.064,0.035,0,42.696,856.887,1098.753,0.05,0.195
7.659,3892.548,411.938,-45.293,415.952,45.332,436.745,0.162,436.745,0.021,57.649,1.878,42,-87.998,32.15,0.001,0,-0.001,0.001,34.953,4.48,200.756,1.563,84.036,67.752,3.162,0.379,2.08E+07,0,64.101,0.555,0.555,0.332,0.076,0.139,2.73E-04,0.001,1.79E-04,0,0,0,0,-2.19E-05,0.045,5.15,20.831,82.032,0.034,0,42.622,856.217,1098.671,0.05,0.196
7.709,3913.089,409.677,-45.138,413.7,45.176,439.625,0.164,439.625,0.021,57.556,1.86,42,-87.998,32.15,0.002,0,-0.002,7.01E-04,34.953,4.48,200.756,1.563,84.311,67.752,3.215,0.377,2.07E+07,0,63.345,0.555,0.555,0.332,0.076,0.138,4.19E-04,0.001,-3.62E-04,0,0,0,0,-2.81E-05,0.045,5.15,20.831,82.001,0.034,0,42.549,855.552,1098.591,0.05,0.196
7.759,3933.516,407.424,-44.984,411.456,45.021,442.501,0.166,442.501,0.021,57.463,1.844,42,-87.998,32.149,0.002,0,-0.002,6.43E-04,34.953,4.48,200.756,1.563,84.348,67.752,3.223,0.375,2.05E+07,0,62.597,0.555,0.555,0.332,0.076,0.138,4.49E-04,0.002,-2.54E-04,0,0,0,0,-2.88E-05,0.045,5.15,20.831,81.97,0.034,0,42.476,854.889,1098.51,0.05,0.197
7.809,3953.831,405.178,-44.831,409.22,44.868,445.372,0.168,445.372,0.022,57.371,1.831,42,-87.998,32.149,0.002,-5.12E-09,-0.002,6.15E-04,34.953,4.48,200.756,1.563,84.363,67.752,3.225,0.373,2.04E+07,0,61.858,0.555,0.555,0.332,0.076,0.138,3.75E-04,0.001,1.99E-04,0,0,0,0,-2.85E-05,0.045,5.15,20.831,81.939,0.036,0,42.404,854.231,1098.43,0.05,0.198
7.859,3974.034,402.941,-44.679,406.992,44.716,448.238,0.17,448.238,0.022,57.28,1.821,42,-87.998,32.149,8.38E-04,0,-0.002,7.17E-04,34.953,4.48,200.756,1.563,84.287,67.752,3.211,0.371,2.03E+07,0,61.126,0.554,0.554,0.332,0.076,0.138,1.65E-04,0.001,-7.22E-05,0,0,0,0,-2.68E-05,0.044,5.15,20.831,81.909,0.038,0,42.332,853.576,1098.35,0.05,0.198
7.909,3994.125,400.711,-44.529,404.771,44.566,451.1,0.172,451.1,0.022,57.189,1.812,42,-87.998,32.149,5.87E-04,0,0.002,1.89E-04,34.953,4.48,200.756,1.563,84.516,67.752,3.255,0.369,2.02E+07,0,60.402,0.554,0.554,0.332,0.076,0.138,1.15E-04,1.21E-04,3.78E-05,0,0,0,0,3.26E-05,0.044,5.15,20.831,81.878,0.04,0,42.26,852.924,1098.271,0.05,0.199
7.959,4014.105,398.488,-44.38,402.558,44.417,453.957,0.174,453.957,0.022,57.099,1.804,42,-87.998,32.149,0.002,0,0.002,-1.39E-04,34.953,4.48,200.756,1.563,84.524,67.752,3.257,0.367,2.00E+07,0,59.685,0.554,0.554,0.332,0.076,0.137,4.17E-04,0.002,2.54E-04,0,0,0,0,3.35E-05,0.044,5.15,20.831,81.848,0.042,0,42.189,852.276,1098.193,0.05,0.2
8.009,4033.974,396.272,-44.233,400.352,44.269,456.81,0.176,456.81,0.022,57.009,1.795,42,-87.998,32.149,0.004,0,0.002,-2.09E-04,34.953,4.48,200.756,1.563,84.51,67.752,3.254,0.365,1.99E+07,0,58.976,0.554,0.554,0.333,0.076,0.137,7.04E-04,0.002,-3.96E-06,0,0,0,0,3.49E-05,0.044,5.15,20.831,81.817,0.044,0,42.118,851.632,1098.114,0.05,0.2
8.059,4053.733,394.064,-44.088,398.154,44.124,459.658,0.178,459.658,0.022,56.919,1.785,42,-87.998,32.149,0.005,0,0.002,-2.65E-04,34.953,4.48,200.756,1.563,84.493,67.752,3.251,0.363,1.98E+07,0,58.274,0.554,0.554,0.333,0.076,0.137,9.29E-04,0.003,4.71E-04,0,0,0,0,3.63E-05,0.044,5.15,20.831,81.786,0.046,0,42.047,850.992,1098.037,0.05,0.201
8.109,4073.381,391.864,-43.944,395.963,43.98,462.502,0.18,462.502,0.022,56.83,1.774,42,-87.998,32.149,0.005,0,0.002,-2.59E-04,34.953,4.48,200.756,1.563,84.492,67.752,3.251,0.361,1.97E+07,0,57.579,0.553,0.553,0.333,0.076,0.137,0.001,0.003,4.07E-04,0,0,0,0,3.87E-05,0.043,5.15,20.831,81.754,0.047,0,41.977,850.355,1097.959,0.05,0.201
8.159,4092.919,389.67,-43.802,393.78,43.837,465.341,0.182,465.341,0.022,56.742,1.761,42,-87.998,32.149,0.006,0,0.002,-2.61E-04,34.953,4.48,200.756,1.563,84.487,67.752,3.25,0.359,1.96E+07,0,56.892,0.553,0.553,0.333,0.076,0.137,0.001,0.003,3.04E-04,0,0,0,0,4.13E-05,0.043,5.15,20.831,81.721,0.048,0,41.908,849.721,1097.882,0.05,0.202
8.209,4112.348,387.483,-43.662,391.603,43.697,468.176,0.184,468.176,0.023,56.654,1.746,42,-87.998,32.149,0.005,0,0.002,-2.53E-04,34.953,4.48,200.756,1.563,84.486,67.752,3.249,0.357,1.95E+07,0,56.212,0.553,0.553,0.333,0.076,0.137,0.001,0.004,3.41E-04,0,0,0,0,4.33E-05,0.043,5.15,20.831,81.687,0.048,0,41.838,849.091,1097.806,0.05,0.203
8.259,4131.667,385.304,-43.523,389.434,43.558,471.006,0.186,471.006,0.023,56.567,1.729,42,-87.998,32.149,0.005,0,0.002,-1.90E-04,34.953,4.48,200.756,1.563,84.496,67.752,3.251,0.355,1.93E+07,0,55.539,0.553,0.553,0.333,0.076,0.136,9.39E-04,0.003,3.09E-04,0,0,0,0,4.63E-05,0.043,5.15,20.831,81.653,0.047,0,41.77,848.465,1097.73,0.05,0.203
8.309,4150.878,383.131,-43.387,387.272,43.42,473.832,0.188,473.833,0.023,56.481,1.712,42,-87.998,32.149,0.004,0,0.002,-1.18E-04,34.953,4.48,200.756,1.563,84.504,67.752,3.253,0.353,1.92E+07,0,54.873,0.553,0.553,0.333,0.076,0.136,7.41E-04,0.003,2.01E-04,0,0,0,0,4.87E-05,0.042,5.15,20.831,81.618,0.045,0,41.701,847.842,1097.654,0.05,0.204
8.359,4169.981,380.965,-43.251,385.117,43.284,476.654,0.19,476.654,0.023,56.396,1.694,42,-87.998,32.149,0.003,0,0.002,4.40E-05,34.953,4.48,200.756,1.563,84.508,67.752,3.254,0.351,1.91E+07,0,54.214,0.553,0.553,0.333,0.076,0.136,5.38E-04,0.001,3.38E-04,0,0,0,0,5.08E-05,0.042,5.15,20.831,81.582,0.044,0,41.633,847.223,1097.579,0.05,0.204
8.409,4188.975,378.806,-43.117,382.969,43.15,479.472,0.193,479.472,0.023,56.312,1.677,42,-87.998,32.149,0.002,0,0.002,3.25E-04,34.953,4.48,200.756,1.563,84.47,67.752,3.246,0.349,1.90E+07,0,53.561,0.552,0.552,0.333,0.076,0.136,3.25E-04,9.45E-04,1.65E-04,0,0,0,0,5.05E-05,0.042,5.15,20.831,81.546,0.042,0,41.565,846.607,1097.504,0.05,0.205
8.459,4207.861,376.653,-42.984,380.827,43.016,482.286,0.195,482.286,0.023,56.228,1.66,42,-87.998,32.149,8.65E-04,0,0.002,0.001,34.953,4.48,200.756,1.563,84.139,67.752,3.182,0.347,1.89E+07,0,52.916,0.552,0.552,0.333,0.076,0.136,1.71E-04,7.11E-04,8.71E-05,0,0,0,0,3.96E-05,0.042,5.15,20.831,81.51,0.041,0,41.498,845.994,1097.429,0.05,0.206
8.509,4226.64,374.507,-42.853,378.693,42.885,485.095,0.197,485.095,0.023,56.146,1.645,42,-87.998,32.149,6.01E-04,0,3.06E-04,0.002,34.953,4.48,200.756,1.563,83.111,67.752,2.982,0.345,1.88E+07,0,52.277,0.552,0.552,0.333,0.076,0.135,1.21E-04,2.68E-04,-2.07E-05,0,0,0,0,1.24E-06,0.041,5.15,20.831,81.474,0.04,0,41.431,845.394,1097.355,0.05,0.206
8.559,4245.312,372.368,-42.723,376.565,42.754,487.9,0.199,487.9,0.023,56.064,1.631,42,-87.998,32.149,6.83E-04,0,-4.25E-04,0.002,34.953,4.48,200.756,1.563,83.138,67.752,2.988,0.343,1.86E+07,0,51.646,0.552,0.552,0.333,0.075,0.135,1.37E-04,4.09E-04,2.52E-04,0,0,0,0,-2.43E-06,0.041,5.15,20.831,81.438,0.04,0,41.364,844.818,1097.282,0.05,0.207
8.609,4263.877,370.235,-42.594,374.444,42.625,490.701,0.201,490.701,0.024,55.983,1.618,42,-87.998,32.148,5.81E-04,0,-3.05E-04,0.002,34.953,4.48,200.756,1.563,83.106,67.752,2.981,0.341,1.85E+07,0,51.022,0.552,0.552,0.333,0.075,0.135,1.17E-04,7.44E-04,-4.08E-04,0,0,0,0,-1.27E-06,0.041,5.15,20.831,81.401,0.041,0,41.298,844.245,1097.209,0.05,0.209
8.659,4282.336,368.109,-42.466,372.329,42.497,493.498,0.204,493.498,0.024,55.902,1.607,42,-87.998,32.148,6.34E-04,0,0.001,0.002,34.953,4.48,200.756,1.563,83.596,67.752,3.077,0.339,1.84E+07,0,50.404,0.551,0.551,0.333,0.075,0.135,1.26E-04,3.34E-04,-2.26E-04,0,0,0,0,2.15E-05,0.041,5.15,20.831,81.365,0.042,0,41.232,843.676,1097.136,0.05,0.209
8.709,4300.688,365.988,-42.34,370.221,42.37,496.292,0.206,496.292,0.024,55.822,1.597,42,-87.998,32.148,0.001,-5.31E-09,0.002,5.83E-04,34.953,4.48,200.756,1.563,84.361,67.752,3.225,0.337,1.83E+07,0,49.793,0.551,0.551,0.333,0.075,0.135,2.10E-04,0.001,1.44E-04,0,0,0,0,5.19E-05,0.04,5.15,20.831,81.329,0.043,0,41.167,843.11,1097.064,0.05,0.21
8.759,4318.935,363.875,-42.215,368.119,42.244,499.081,0.208,499.081,0.024,55.742,1.587,42,-87.998,32.148,0.002,0,0.002,1.39E-05,34.953,4.48,200.756,1.563,84.488,67.752,3.25,0.336,1.82E+07,0,49.187,0.551,0.551,0.333,0.075,0.135,3.86E-04,0.001,-3.10E-04,0,0,0,0,5.78E-05,0.04,5.15,20.831,81.292,0.045,0,41.102,842.547,1096.992,0.05,0.211
8.809,4337.076,361.767,-42.09,366.024,42.12,501.866,0.21,501.866,0.024,55.663,1.578,42,-87.998,32.148,0.003,0,0.002,-1.95E-04,34.953,4.48,200.756,1.563,84.473,67.752,3.247,0.334,1.81E+07,0,48.588,0.551,0.551,0.333,0.075,0.134,5.88E-04,0.002,-2.03E-04,0,0,0,0,5.89E-05,0.04,5.15,20.831,81.256,0.047,0,41.037,841.987,1096.92,0.05,0.211
8.859,4355.112,359.666,-41.967,363.935,41.997,504.647,0.212,504.647,0.024,55.584,1.569,42,-87.998,32.148,0.004,0,0.002,-2.31E-04,34.953,4.48,200.756,1.563,84.465,67.752,3.245,0.332,1.80E+07,0,47.995,0.551,0.551,0.333,0.075,0.134,7.91E-04,0.003,7.88E-05,0,0,0,0,6.09E-05,0.04,5.15,20.831,81.219,0.049,0,40.973,841.431,1096.849,0.05,0.212
8.909,4373.043,357.57,-41.846,361.853,41.875,507.424,0.215,507.424,0.024,55.506,1.56,42,-87.998,32.148,0.005,0,0.002,-2.80E-04,34.953,4.48,200.756,1.563,84.454,67.752,3.243,0.33,1.79E+07,0,47.408,0.551,0.551,0.333,0.075,0.134,9.68E-04,0.003,-7.98E-05,0,0,0,0,6.28E-05,0.04,5.15,20.831,81.181,0.051,0,40.909,840.877,1096.779,0.05,0.212
8.959,4390.869,355.481,-41.726,359.776,41.754,510.198,0.217,510.198,0.024,55.429,1.549,42,-87.998,32.148,0.006,0,0.002,-3.09E-04,34.953,4.48,200.756,1.563,84.445,67.752,3.241,0.328,1.78E+07,0,46.826,0.55,0.55,0.333,0.075,0.134,0.001,0.003,-4.02E-04,0,0,0,0,6.54E-05,0.039,5.15,20.831,81.143,0.052,0,40.845,840.327,1096.709,0.05,0.213
9.009,4408.591,353.398,-41.607,357.706,41.635,512.967,0.219,512.967,0.024,55.351,1.539,42,-87.998,32.148,0.006,0,0.002,-2.89E-04,34.953,4.48,200.756,1.563,84.446,67.752,3.242,0.326,1.76E+07,0,46.251,0.55,0.55,0.333,0.075,0.134,0.001,0.004,1.16E-04,0,0,0,0,6.88E-05,0.039,5.15,20.831,81.104,0.053,0,40.782,839.781,1096.639,0.05,0.214
9.059,4426.209,351.32,-41.489,355.642,41.517,515.733,0.221,515.733,0.025,55.275,1.527,42,-87.998,32.148,0.006,0,0.002,-2.52E-04,34.953,4.48,200.756,1.563,84.449,67.752,3.242,0.324,1.75E+07,0,45.682,0.55,0.55,0.333,0.075,0.134,0.001,0.004,1.29E-04,0,0,0,0,7.23E-05,0.039,5.15,20.831,81.065,0.052,0,40.719,839.237,1096.569,0.05,0.214
9.109,4443.723,349.249,-41.373,353.584,41.401,518.495,0.224,518.495,0.025,55.199,1.514,42,-87.998,32.148,0.006,0,0.002,-1.97E-04,34.953,4.48,200.756,1.563,84.454,67.752,3.243,0.322,1.74E+07,0,45.118,0.55,0.55,0.333,0.075,0.134,0.001,0.004,-4.05E-04,0,0,0,0,7.65E-05,0.039,5.15,20.831,81.025,0.052,0,40.657,838.697,1096.5,0.05,0.215
9.159,4461.134,347.183,-41.258,351.532,41.285,521.253,0.226,521.253,0.025,55.123,1.501,42,-87.998,32.148,0.006,0,0.002,-1.15E-04,34.953,4.48,200.756,1.563,84.46,67.752,3.244,0.321,1.73E+07,0,44.56,0.55,0.55,0.334,0.075,0.133,0.001,0.003,1.45E-05,0,0,0,0,8.01E-05,0.038,5.15,20.831,80.984,0.05,0,40.595,838.16,1096.432,0.05,0.215
9.209,4478.441,345.123,-41.144,349.486,41.171,524.007,0.228,524.007,0.025,55.049,1.487,42,-87.998,32.148,0.005,0,0.002,2.34E-06,34.953,4.48,200.756,1.563,84.462,67.752,3.245,0.319,1.72E+07,0,44.007,0.55,0.55,0.334,0.075,0.133,9.88E-04,0.003,4.07E-04,0,0,0,0,8.37E-05,0.038,5.15,20.831,80.942,0.049,0,40.533,837.626,1096.364,0.05,0.216
9.259,4495.646,343.069,-41.032,347.445,41.058,526.757,0.231,526.758,0.025,54.975,1.473,42,-87.998,32.148,0.004,0,0.002,1.72E-04,34.953,4.48,200.756,1.563,84.454,67.752,3.243,0.317,1.71E+07,0,43.46,0.549,0.549,0.334,0.075,0.133,8.50E-04,0.003,3.91E-04,0,0,0,0,8.67E-05,0.038,5.15,20.831,80.9,0.047,0,40.471,837.095,1096.296,0.05,0.217
9.309,4512.748,341.02,-40.92,345.411,40.946,529.504,0.233,529.504,0.025,54.901,1.459,42,-87.998,32.148,0.004,0,0.002,3.39E-04,34.953,4.48,200.756,1.563,84.431,67.752,3.239,0.315,1.70E+07,0,42.919,0.549,0.549,0.334,0.075,0.133,7.01E-04,0.002,2.29E-06,0,0,0,0,8.81E-05,0.038,5.15,20.831,80.858,0.046,0,40.411,836.567,1096.228,0.05,0.217
9.359,4529.748,338.976,-40.81,343.382,40.836,532.248,0.235,532.248,0.025,54.829,1.446,42,-87.998,32.148,0.003,0,0.002,5.93E-04,34.953,4.48,200.756,1.563,84.369,67.752,3.227,0.313,1.69E+07,0,42.383,0.549,0.549,0.334,0.075,0.133,5.79E-04,0.002,1.24E-04,0,0,0,0,8.70E-05,0.038,5.15,20.831,80.815,0.045,0,40.35,836.043,1096.162,0.05,0.218
9.409,4546.646,336.939,-40.701,341.359,40.726,534.987,0.238,534.987,0.025,54.757,1.433,42,-87.998,32.148,0.003,0,0.002,7.58E-04,34.953,4.48,200.756,1.563,84.312,67.752,3.216,0.311,1.68E+07,0,41.852,0.549,0.549,0.334,0.075,0.133,4.92E-04,0.001,-3.39E-04,0,0,0,0,8.55E-05,0.037,5.15,20.831,80.772,0.045,0,40.29,835.522,1096.095,0.05,0.218
9.459,4563.442,334.906,-40.593,339.342,40.618,537.723,0.24,537.723,0.026,54.685,1.42,42,-87.998,32.148,0.002,0,0.002,8.73E-04,34.953,4.48,200.756,1.563,84.261,67.752,3.206,0.31,1.67E+07,0,41.327,0.549,0.549,0.334,0.075,0.132,4.34E-04,0.002,-1.60E-04,0,0,0,0,8.37E-05,0.037,5.15,20.831,80.728,0.045,0,40.23,835.003,1096.029,0.05,0.219
9.509,4580.137,332.879,-40.485,337.33,40.51,540.456,0.243,540.456,0.026,54.615,1.409,42,-87.998,32.147,0.002,0,0.002,7.81E-04,34.953,4.48,200.756,1.563,84.296,67.752,3.212,0.308,1.66E+07,0,40.807,0.549,0.549,0.334,0.075,0.132,4.22E-04,8.12E-04,2.56E-04,0,0,0,0,8.82E-05,0.037,5.15,20.831,80.685,0.046,0,40.17,834.488,1095.963,0.05,0.22
9.559,4596.73,330.858,-40.379,335.324,40.403,543.185,0.245,543.185,0.026,54.544,1.399,42,-87.998,32.147,0.002,0,0.002,5.63E-04,34.953,4.48,200.756,1.563,84.369,67.752,3.227,0.306,1.65E+07,0,40.292,0.549,0.549,0.334,0.075,0.132,4.75E-04,0.001,-4.47E-04,0,0,0,0,9.55E-05,0.037,5.15,20.831,80.641,0.047,0,40.111,833.977,1095.898,0.05,0.221
9.609,4613.223,328.841,-40.274,333.323,40.298,545.91,0.247,545.91,0.026,54.475,1.389,42,-87.998,32.147,0.003,0,0.002,3.36E-04,34.953,4.48,200.756,1.563,84.417,67.752,3.236,0.304,1.64E+07,0,39.782,0.548,0.548,0.334,0.075,0.132,5.61E-04,0.002,-1.36E-04,0,0,0,0,1.01E-04,0.037,5.15,20.831,80.597,0.048,0,40.052,833.468,1095.833,0.05,0.221
9.659,4629.614,326.83,-40.169,331.328,40.193,548.632,0.25,548.632,0.026,54.406,1.38,42,-87.998,32.147,0.004,0,0.002,1.33E-04,34.953,4.48,200.756,1.563,84.438,67.752,3.24,0.302,1.63E+07,0,39.278,0.548,0.548,0.334,0.074,0.132,6.94E-04,0.003,3.90E-04,0,0,0,0,1.06E-04,0.036,5.15,20.831,80.553,0.049,0,39.994,832.962,1095.768,0.05,0.222
9.709,4645.906,324.825,-40.066,329.338,40.089,551.351,0.252,551.351,0.026,54.337,1.371,42,-87.998,32.147,0.004,0,0.002,-5.26E-05,34.953,4.48,200.756,1.563,84.44,67.752,3.24,0.301,1.62E+07,0,38.778,0.548,0.548,0.334,0.074,0.132,8.52E-04,0.003,-2.63E-04,0,0,0,0,1.09E-04,0.036,5.15,20.831,80.508,0.051,0,39.936,832.459,1095.704,0.05,0.223
9.759,4662.097,322.824,-39.963,327.353,39.987,554.066,0.255,554.066,0.026,54.268,1.362,42,-87.998,32.147,0.005,0,0.003,-1.74E-04,34.953,4.48,200.756,1.563,84.432,67.752,3.239,0.299,1.60E+07,0,38.284,0.548,0.548,0.334,0.074,0.132,0.001,0.003,-8.35E-05,0,0,0,0,1.12E-04,0.036,5.15,20.831,80.463,0.053,0,39.878,831.96,1095.64,0.05,0.224
9.809,4678.188,320.828,-39.862,325.374,39.885,556.778,0.257,556.778,0.026,54.201,1.354,42,-87.998,32.147,0.006,0,0.003,-2.33E-04,34.953,4.48,200.756,1.563,84.423,67.752,3.237,0.297,1.59E+07,0,37.794,0.548,0.548,0.334,0.074,0.131,0.001,0.004,1.03E-04,0,0,0,0,1.16E-04,0.036,5.15,20.831,80.417,0.055,0,39.821,831.464,1095.577,0.05,0.224
9.859,4694.18,318.838,-39.762,323.4,39.784,559.486,0.259,559.486,0.027,54.133,1.345,42,-87.998,32.147,0.007,0,0.003,-2.50E-04,34.953,4.48,200.756,1.563,84.418,67.752,3.236,0.295,1.58E+07,0,37.309,0.548,0.548,0.334,0.074,0.131,0.001,0.005,-4.42E-04,0,0,0,0,1.20E-04,0.035,5.15,20.831,80.371,0.056,0,39.763,830.97,1095.514,0.05,0.225
9.909,4710.072,316.852,-39.662,321.432,39.685,562.191,0.262,562.191,0.027,54.066,1.336,42,-87.998,32.147,0.008,0,0.003,-2.41E-04,34.953,4.48,200.756,1.563,84.417,67.752,3.236,0.293,1.57E+07,0,36.83,0.548,0.548,0.334,0.074,0.131,0.002,0.005,3.30E-04,0,0,0,0,1.26E-04,0.035,5.15,20.831,80.324,0.056,0,39.707,830.48,1095.451,0.05,0.226
9.959,4725.865,314.871,-39.564,319.468,39.586,564.893,0.264,564.893,0.027,53.999,1.326,42,-87.998,32.147,0.008,0,0.003,-2.17E-04,34.953,4.48,200.756,1.563,84.416,67.752,3.236,0.292,1.56E+07,0,36.354,0.547,0.547,0.334,0.074,0.131,0.002,0.005,-3.81E-04,0,0,0,0,1.31E-04,0.035,5.15,20.831,80.277,0.057,0,39.65,829.993,1095.389,0.05,0.226
10.009,4741.559,312.896,-39.467,317.51,39.489,567.591,0.267,567.591,0.027,53.933,1.316,42,-87.998,32.147,0.008,0,0.003,-1.81E-04,34.953,4.48,200.756,1.563,84.416,67.752,3.236,0.29,1.55E+07,0,35.884,0.547,0.547,0.334,0.074,0.131,0.002,0.005,-7.11E-05,0,0,0,0,1.37E-04,0.035,5.15,20.831,80.229,0.056,0,39.595,829.508,1095.327,0.05,0.227
10.059,4757.155,310.925,-39.371,315.556,39.393,570.286,0.269,570.286,0.027,53.868,1.306,42,-87.998,32.147,0.009,0,0.003,-1.14E-04,34.953,4.48,200.756,1.563,84.418,67.752,3.236,0.288,1.54E+07,0,35.419,0.547,0.547,0.334,0.074,0.131,0.002,0.005,3.96E-04,0,0,0,0,1.44E-04,0.035,5.15,20.831,80.18,0.056,0,39.539,829.027,1095.266,0.05,0.228
10.109,4772.652,308.958,-39.276,313.608,39.297,572.978,0.272,572.978,0.027,53.803,1.295,42,-87.998,32.147,0.008,0,0.003,-7.85E-05,34.953,4.48,200.756,1.563,84.418,67.752,3.236,0.286,1.53E+07,0,34.958,0.547,0.547,0.334,0.074,0.131,0.002,0.005,-9.36E-05,0,0,0,0,1.50E-04,0.034,5.15,20.831,80.13,0.055,0,39.484,828.549,1095.205,0.05,0.228
10.159,4788.051,306.997,-39.182,311.665,39.203,575.666,0.274,575.666,0.027,53.738,1.284,42,-87.998,32.147,0.008,0,0.003,-1.51E-05,34.953,4.48,200.756,1.563,84.417,67.752,3.236,0.285,1.52E+07,0,34.501,0.547,0.547,0.334,0.074,0.131,0.002,0.005,-1.02E-04,0,0,0,0,1.56E-04,0.034,5.15,20.831,80.079,0.054,0,39.429,828.074,1095.144,0.05,0.229
10.209,4803.351,305.04,-39.089,309.727,39.11,578.352,0.277,578.352,0.027,53.674,1.272,42,-87.998,32.147,0.008,0,0.003,4.79E-05,34.953,4.48,200.756,1.563,84.415,67.752,3.236,0.283,1.51E+07,0,34.049,0.547,0.547,0.334,0.074,0.13,0.002,0.005,-3.32E-05,0,0,0,0,1.63E-04,0.034,5.15,20.831,80.028,0.054,0,39.374,827.602,1095.084,0.05,0.23
10.259,4818.555,303.088,-38.997,307.793,39.017,581.034,0.279,581.034,0.028,53.611,1.261,42,-87.998,32.147,0.007,0,0.003,1.11E-04,34.953,4.48,200.756,1.563,84.412,67.752,3.235,0.281,1.50E+07,0,33.602,0.547,0.547,0.334,0.074,0.13,0.001,0.004,-3.45E-04,0,0,0,0,1.68E-04,0.034,5.15,20.831,79.976,0.053,0,39.32,827.133,1095.024,0.05,0.23
10.309,4833.66,301.141,-38.906,305.864,38.926,583.713,0.282,583.713,0.028,53.548,1.25,42,-87.998,32.147,0.007,0,0.003,1.62E-04,34.953,4.48,200.756,1.563,84.409,67.752,3.234,0.279,1.49E+07,0,33.159,0.546,0.546,0.334,0.074,0.13,0.001,0.004,5.98E-05,0,0,0,0,1.74E-04,0.034,5.15,20.831,79.924,0.052,0,39.266,826.667,1094.964,0.05,0.231
10.359,4848.669,299.198,-38.815,303.941,38.835,586.389,0.285,586.389,0.028,53.486,1.238,42,-87.998,32.147,0.006,0,0.003,2.40E-04,34.953,4.48,200.756,1.563,84.402,67.752,3.233,0.278,1.48E+07,0,32.721,0.546,0.546,0.334,0.074,0.13,0.001,0.004,1.28E-04,0,0,0,0,1.79E-04,0.033,5.15,20.831,79.871,0.052,0,39.213,826.204,1094.905,0.05,0.231
10.409,4863.58,297.259,-38.726,302.022,38.745,589.061,0.287,589.061,0.028,53.425,1.228,42,-87.998,32.147,0.006,0,0.003,2.70E-04,34.953,4.48,200.756,1.563,84.398,67.752,3.232,0.276,1.47E+07,0,32.287,0.546,0.546,0.334,0.074,0.13,0.001,0.004,-2.24E-04,0,0,0,0,1.84E-04,0.033,5.15,20.831,79.817,0.052,0,39.159,825.744,1094.847,0.05,0.232
10.459,4878.395,295.325,-38.637,300.107,38.656,591.731,0.29,591.731,0.028,53.363,1.217,42,-87.998,32.147,0.006,0,0.003,3.11E-04,34.953,4.48,200.756,1.563,84.392,67.752,3.231,0.274,1.46E+07,0,31.857,0.546,0.546,0.334,0.074,0.13,0.001,0.003,2.15E-04,0,0,0,0,1.90E-04,0.033,5.15,20.831,79.763,0.052,0,39.107,825.287,1094.788,0.05,0.233
10.509,4893.113,293.395,-38.55,298.198,38.568,594.398,0.292,594.398,0.028,53.303,1.207,42,-87.998,32.147,0.006,0,0.003,3.03E-04,34.953,4.48,200.756,1.563,84.391,67.752,3.231,0.272,1.45E+07,0,31.432,0.546,0.546,0.334,0.074,0.13,0.001,0.003,9.30E-05,0,0,0,0,1.96E-04,0.033,5.15,20.831,79.709,0.052,0,39.054,824.833,1094.73,0.05,0.233
10.559,4907.734,291.47,-38.463,296.293,38.481,597.061,0.295,597.061,0.028,53.243,1.198,42,-87.998,32.146,0.006,0,0.003,2.80E-04,34.953,4.48,200.756,1.563,84.391,67.752,3.231,0.271,1.44E+07,0,31.011,0.546,0.546,0.335,0.074,0.13,0.001,0.004,3.60E-04,0,0,0,0,2.02E-04,0.033,5.15,20.831,79.654,0.053,0,39.002,824.382,1094.673,0.05,0.234
10.609,4922.26,289.549,-38.376,294.393,38.395,599.722,0.297,599.722,0.028,53.183,1.189,42,-87.998,32.146,0.007,0,0.003,2.32E-04,34.953,4.48,200.756,1.563,84.393,67.752,3.231,0.269,1.43E+07,0,30.594,0.546,0.546,0.335,0.074,0.129,0.001,0.004,-3.78E-05,0,0,0,0,2.08E-04,0.032,5.15,20.831,79.599,0.053,0,38.95,823.934,1094.615,0.05,0.234
10.659,4936.689,287.632,-38.291,292.497,38.309,602.38,0.3,602.38,0.029,53.124,1.18,42,-87.998,32.146,0.007,0,0.003,1.57E-04,34.953,4.48,200.756,1.563,84.395,67.752,3.232,0.267,1.42E+07,0,30.181,0.546,0.546,0.335,0.074,0.129,0.001,0.004,-2.47E-04,0,0,0,0,2.15E-04,0.032,5.15,20.831,79.543,0.054,0,38.899,823.489,1094.559,0.05,0.235
10.709,4951.023,285.72,-38.206,290.606,38.224,605.034,0.303,605.034,0.029,53.065,1.172,42,-87.998,32.146,0.008,0,0.003,9.91E-05,34.953,4.48,200.756,1.563,84.395,67.752,3.232,0.266,1.41E+07,0,29.772,0.545,0.545,0.335,0.074,0.129,0.002,0.005,2.52E-04,0,0,0,0,2.22E-04,0.032,5.15,20.831,79.487,0.055,0,38.848,823.046,1094.502,0.05,0.236
10.759,4965.261,283.812,-38.123,288.719,38.14,607.686,0.305,607.686,0.029,53.007,1.164,42,-87.998,32.146,0.009,0,0.003,4.54E-05,34.953,4.48,200.756,1.563,84.393,67.752,3.231,0.264,1.41E+07,0,29.368,0.545,0.545,0.335,0.074,0.129,0.002,0.005,1.29E-04,0,0,0,0,2.30E-04,0.032,5.15,20.831,79.43,0.056,0,38.797,822.607,1094.446,0.05,0.236
10.809,4979.404,281.908,-38.04,286.837,38.057,610.335,0.308,610.335,0.029,52.949,1.156,42,-87.998,32.146,0.01,0,0.003,1.76E-06,34.953,4.48,200.756,1.563,84.391,67.752,3.231,0.262,1.40E+07,0,28.967,0.545,0.545,0.335,0.074,0.129,0.002,0.006,-4.67E-04,0,0,0,0,2.39E-04,0.032,5.15,20.831,79.372,0.057,0,38.746,822.171,1094.39,0.05,0.237
10.859,4993.452,280.008,-37.958,284.959,37.975,612.981,0.31,612.981,0.029,52.891,1.149,42,-87.998,32.146,0.011,0,0.003,-4.43E-05,34.953,4.48,200.756,1.563,84.388,67.752,3.23,0.26,1.39E+07,0,28.571,0.545,0.545,0.335,0.074,0.129,0.002,0.006,-3.32E-04,0,0,0,0,2.48E-04,0.031,5.15,20.831,79.314,0.058,0,38.696,821.737,1094.335,0.05,0.238
10.909,5007.405,278.112,-37.876,283.086,37.893,615.624,0.313,615.624,0.029,52.834,1.141,42,-87.998,32.146,0.011,0,0.003,-6.50E-05,34.953,4.48,200.756,1.563,84.385,67.752,3.23,0.259,1.38E+07,0,28.178,0.545,0.545,0.335,0.074,0.129,0.002,0.007,2.13E-04,0,0,0,0,2.57E-04,0.031,5.15,20.831,79.255,0.059,0,38.646,821.307,1094.28,0.05,0.238
10.959,5021.264,276.22,-37.796,281.217,37.813,618.264,0.316,618.264,0.029,52.777,1.133,42,-87.998,32.146,0.012,0,0.003,-8.95E-05,34.953,4.48,200.756,1.563,84.382,67.752,3.229,0.257,1.37E+07,0,27.79,0.545,0.545,0.335,0.074,0.129,0.002,0.007,4.92E-04,0,0,0,0,2.68E-04,0.031,5.15,20.831,79.195,0.059,0,38.597,820.879,1094.225,0.05,0.239
