Type,Units,Time,X Position,Y Position,Y Encoder,Z Position,Z Encoder,Yaw,Pitch,WAFBC Drag,WAFBC Side,WAFBC Lift,WAFBC Roll,WAFBC Pitch,WAFBC Yaw,WAFMC Drag,WAFMC Side,WAFMC Lift,WAFMC Roll,WAFMC Pitch,WAFMC Yaw,BAFMC Axial,BAFMC Side,BAFMC Normal,BAFMC Roll,BAFMC Pitch,BAFMC Yaw,DPT250,DPT251,PT250,TE250,Velocity,Dynamic Pressure,Mach,Reynolds Number per ft,Velocity Setpoint,Temperature Setpoint,cDAQ AI0,cDAQ AI1,cDAQ AI2,cDAQ AI3,cDAQ AI4,cDAQ AI5,cDAQ AI6,cDAQ AI7,cRIO AI0,cRIO AI1,cRIO AI2,cRIO AI3,Drag (raw),Side (raw),Lift (raw),Roll (raw),Pitch (raw),Yaw (raw),Velocity (fps),Actuation State,Is Image,Key,Load Cell Drag,Base Model Drag,Image Drag,Top Mount Drag,Bottom Mount Drag,ADS Drag,Total Vehicle Drag,Reynolds Number,Cd,Cp from Tip,Real Actuation State
Sing,USC,250217 11:43:25.255,0.0,0.0,0.0,0.0,0.000906,-1.0,0.0,4.990905,-4.042521,0.436861,2.541679,-7.344598,17.239907,4.990905,-4.042521,0.436861,2.541679,-7.344598,17.239907,4.919594,-4.129008,0.436861,2.413111,-7.387838,17.239907,0.156921,0.32275,14.70429,67.661706,199.996725,0.324879,0.177658,1235682.655833,200.0,68.256863,-0.0,-0.0,-0.0,-0.0,-0.0,-0.0,-0.0,-0.0,1.014031,-0.003006,0.002373,0.020491,-0.032719,,,,,,200,20,False,"(200, 20, -1.0, False)",4.990905,2.8948160000000005,6.548904,1.827044,1.827044,0.2690449999999993,3.163861,530313.8064616626,0.4675243387012732,7.722975867039404,7.21
Sing,USC,250217 11:43:49.357,0.0,0.0,0.0,0.0,0.000906,0.0,0.0,4.945498,-2.258734,0.367725,1.287382,-6.087563,10.304927,4.945498,-2.258734,0.367725,1.287382,-6.087563,10.304927,4.945498,-2.258734,0.367725,1.287382,-6.087563,10.304927,0.156897,0.322746,14.705834,67.651054,199.980931,0.324854,0.177645,1235703.056667,200.0,68.256863,-0.0,-0.0,-0.0,-0.0,-0.0,-0.0,-0.0,-0.0,1.013108,-0.003004,0.002309,0.021142,-0.032708,,,,,,200,20,False,"(200, 20, 0.0, False)",4.945498,2.927441000000001,6.463677,1.7681179999999994,1.7681179999999994,0.24993899999999947,3.1773800000000003,530322.5618195875,0.46955817720211324,8.020591217617184,7.21
Sing,USC,250217 11:44:13.457,0.0,0.0,0.0,0.0,0.000906,1.0,0.0,4.968529,-0.647089,0.425469,0.18849,-5.557816,4.214118,4.968529,-0.647089,0.425469,0.18849,-5.557816,4.214118,4.979066,-0.560278,0.42547,0.285459,-5.553679,4.214118,0.156921,0.322805,14.7056,67.624418,199.997501,0.32493,0.177665,1235941.141667,200.0,68.256863,-0.0,-0.0,-0.0,-0.0,-0.0,-0.0,-0.0,-0.0,1.014602,-0.00304,0.00227,0.020488,-0.03312,,,,,,200,20,False,"(200, 20, 1.0, False)",4.968529,2.9400130000000004,6.486373,1.77318,1.77318,0.2553359999999998,3.195349,530424.7399654209,0.47210321493869634,9.970757435736557,7.21
Sing,USC,250217 11:44:37.557,0.0,0.0,0.0,0.0,0.000906,2.0,0.0,5.016273,0.967203,0.498784,-1.031091,-5.265104,-1.754044,5.016273,0.967203,0.498784,-1.031091,-5.265104,-1.754044,4.979463,1.141679,0.498784,-0.846713,-5.297881,-1.754044,0.156902,0.322766,14.703553,67.664543,200.008929,0.324894,0.177668,1235659.343333,200.0,68.256863,-0.0,-0.0,-0.0,-0.0,-0.0,-0.0,-0.0,-0.0,1.014783,-0.003041,0.002281,0.021124,-0.033852,,,,,,200,20,False,"(200, 20, 2.0, False)",5.016273,2.9818230000000003,6.506691,1.7624339999999998,1.7624339999999998,0.2720159999999998,3.253839,530303.8015137459,0.4807982058375094,5.271855417115125,7.21
Sing,USC,250217 11:45:01.655,0.0,0.0,0.0,0.0,0.000906,3.0,0.0,5.087971,2.633244,0.601617,-2.374036,-5.24902,-7.844214,5.087971,2.633244,0.601617,-2.374036,-5.24902,-7.844214,4.943184,2.895919,0.601617,-2.09607,-5.366074,-7.844214,0.15692,0.322789,14.702919,67.778775,200.032613,0.324886,0.17767,1235275.015833,200.0,68.256863,-0.0,-0.0,-0.0,-0.0,-0.0,-0.0,-0.0,-0.0,1.015765,-0.003048,0.002246,0.02074,-0.03497,,,,,,200,20,False,"(200, 20, 3.0, False)",5.087971,2.9482349999999995,6.640389,1.8460770000000002,1.8460770000000002,0.2936589999999999,3.2418939999999994,530138.8609616625,0.47904496814381,6.437249833285484,7.21
Sing,USC,250217 11:45:25.756,0.0,0.0,0.0,0.0,0.000906,4.0,0.0,5.218078,4.375717,0.766231,-3.734483,-5.386251,-14.354305,5.218078,4.375717,0.766231,-3.734483,-5.386251,-14.354305,4.900132,4.729053,0.766231,-3.34966,-5.633634,-14.354305,0.156919,0.322762,14.701208,67.903498,200.044969,0.324828,0.17766,1234754.15,200.0,68.256863,-0.0,-0.0,-0.0,-0.0,-0.0,-0.0,-0.0,-0.0,1.01296,-0.003072,0.002113,0.021097,-0.036522,,,,,,200,20,False,"(200, 20, 4.0, False)",5.218078,3.023549,6.762401,1.8694259999999998,1.8694259999999998,0.32510300000000036,3.3486520000000004,529915.3227083333,0.49490863125161033,6.738779715034893,7.21
Sing,USC,250217 11:45:49.859,0.0,0.0,0.0,0.0,0.000906,5.0,0.0,5.367508,6.239926,0.967122,-5.118135,-5.654247,-21.468516,5.367508,6.239926,0.967122,-5.118135,-5.654247,-21.468516,4.803238,6.683991,0.967122,-4.605859,-6.078805,-21.468516,0.156916,0.322642,14.701009,67.995503,200.031091,0.324721,0.177632,1234267.265833,200.0,68.256863,-0.0,-0.0,-0.0,-0.0,-0.0,-0.0,-0.0,-0.0,1.014557,-0.003007,0.002323,0.021563,-0.038253,,,,,,200,20,False,"(200, 20, 5.0, False)",5.367508,3.1484570000000005,6.952399,1.9019709999999996,1.9019709999999996,0.3170799999999998,3.4655370000000003,529706.3682533292,0.5123522330890395,6.898841441923083,7.21
Sing,USC,250217 11:46:13.952,0.0,0.0,0.0,0.0,0.000906,6.0,0.0,5.591795,8.19939,1.194818,-6.506787,-6.068452,-28.925688,5.591795,8.19939,1.194818,-6.506787,-6.068452,-28.925688,4.704093,8.738975,1.194818,-5.836816,-6.715353,-28.925688,0.156918,0.32264,14.703183,68.036937,200.047692,0.324779,0.17764,1234308.379167,200.0,68.256863,-0.0,-0.0,-0.0,-0.0,-0.0,-0.0,-0.0,-0.0,1.014515,-0.003009,0.002485,0.020175,-0.040525,,,,,,200,20,False,"(200, 20, 6.0, False)",5.591795,3.3584879999999995,7.216526,1.9290190000000003,1.9290190000000003,0.30428800000000056,3.662776,529724.0127258375,0.5414157541747591,6.986118692975941,7.21
Sing,USC,250217 12:37:23.241,0.0,0.0,0.0,0.0,0.000945,-1.0,0.0,3.149048,-2.366657,0.103407,2.301264,-4.054201,9.9595,3.149048,-2.366657,0.103407,2.301264,-4.054201,9.9595,3.107265,-2.421255,0.103407,2.230158,-4.093746,9.9595,0.156926,0.181964,14.717948,66.912504,149.993259,0.183156,0.133334,929895.585417,150.0,68.256863,-0.0,-0.0,-0.0,-0.0,-0.0,-0.0,-0.0,-0.0,1.014145,-0.003036,0.002094,0.021108,-0.020691,,,,,,150,50,False,"(150, 50, -1.0, False)",3.149048,1.5665210000000003,3.661247,1.0473629999999998,1.0473629999999998,0.535164,2.1016850000000002,399080.18874146254,0.5508773847072999,7.666589958606874,33.37
Sing,USC,250217 12:37:48.842,0.0,0.0,0.0,0.0,0.000945,0.0,0.0,3.134383,-1.337266,0.041891,1.187734,-3.287962,5.91513,3.134383,-1.337266,0.041891,1.187734,-3.287962,5.91513,3.134383,-1.337266,0.041891,1.187734,-3.287962,5.91513,0.156904,0.181963,14.716609,66.923161,149.976868,0.183094,0.133318,929670.1175,150.0,68.256863,-0.0,-0.0,-0.0,-0.0,-0.0,-0.0,-0.0,-0.0,1.015719,-0.003039,0.002143,0.02101,-0.020749,,,,,,150,50,False,"(150, 50, 0.0, False)",3.134383,1.6143349999999996,3.630313,1.0079890000000002,1.0079890000000002,0.5120590000000003,2.126394,398983.4254270834,0.5575426496427908,7.881634307111176,33.37
Sing,USC,250217 12:38:14.446,0.0,0.0,0.0,0.0,0.000945,1.0,0.0,3.150193,-0.392938,0.05603,0.165148,-3.075713,2.408228,3.150193,-0.392938,0.05603,0.165148,-3.075713,2.408228,3.156571,-0.3379,0.05603,0.218801,-3.072362,2.408228,0.156929,0.181919,14.716547,66.93689,149.994379,0.183136,0.133332,929754.479583,150.0,68.256863,-0.0,-0.0,-0.0,-0.0,-0.0,-0.0,-0.0,-0.0,1.015044,-0.002987,0.002229,0.021121,-0.020999,,,,,,150,50,False,"(150, 50, 1.0, False)",3.150193,1.6192140000000004,3.642258,1.0115219999999998,1.0115219999999998,0.5194569999999996,2.138671,399019.6308210375,0.5606330875846042,9.587106829406505,33.37
Sing,USC,250217 12:38:40.045,0.0,0.0,0.0,0.0,0.000945,2.0,0.0,3.203537,0.557464,0.09429,-1.018163,-2.814363,-1.112815,3.203537,0.557464,0.09429,-1.018163,-2.814363,-1.112815,3.18213,0.668926,0.09429,-0.919322,-2.848182,-1.112815,0.15691,0.181917,14.71668,66.955178,149.984259,0.183117,0.133321,929697.96875,150.0,68.256863,-0.0,-0.0,-0.0,-0.0,-0.0,-0.0,-0.0,-0.0,1.014615,-0.002949,0.002278,0.021281,-0.021586,,,,,,150,50,False,"(150, 50, 2.0, False)",3.203537,1.6647740000000004,3.670978,1.0031019999999997,1.0031019999999997,0.5356609999999997,2.200435,398995.3782552083,0.576883807157966,5.454542954044268,33.37
Sing,USC,250217 12:39:05.642,0.0,0.0,0.0,0.0,0.000945,3.0,0.0,3.271961,1.518152,0.189221,-2.237587,-2.864017,-4.608869,3.271961,1.518152,0.189221,-2.237587,-2.864017,-4.608869,3.188023,1.687312,0.189221,-2.08463,-2.977198,-4.608869,0.156926,0.181981,14.717288,66.98173,150.017698,0.183191,0.133347,929831.324583,150.0,68.256863,-0.0,-0.0,-0.0,-0.0,-0.0,-0.0,-0.0,-0.0,1.014533,-0.003058,0.00218,0.020011,-0.022397,,,,,,150,50,False,"(150, 50, 3.0, False)",3.271961,1.675977,3.779609,1.051816,1.051816,0.544168,2.220145,399052.61013353756,0.5818160203638382,6.494174935491747,33.37
Sing,USC,250217 12:39:31.242,0.0,0.0,0.0,0.0,0.000945,4.0,0.0,3.352764,2.512214,0.291231,-3.475917,-3.028266,-8.320675,3.352764,2.512214,0.291231,-3.475917,-3.028266,-8.320675,3.169354,2.739971,0.291231,-3.256209,-3.263358,-8.320675,0.156923,0.182028,14.716479,67.005688,150.028074,0.183199,0.133353,929773.952083,150.0,68.256863,-0.0,-0.0,-0.0,-0.0,-0.0,-0.0,-0.0,-0.0,1.01745,-0.00305,0.002172,0.01922,-0.023321,,,,,,150,50,False,"(150, 50, 4.0, False)",3.352764,1.7444290000000002,3.837579,1.0465749999999998,1.0465749999999998,0.56176,2.3061890000000003,399027.9877689542,0.6043385062480574,6.770421793950144,33.37
Sing,USC,250217 12:39:56.848,0.0,0.0,0.0,0.0,0.000945,5.0,0.0,3.443831,3.615517,0.400602,-4.741683,-3.116653,-12.519004,3.443831,3.615517,0.400602,-4.741683,-3.116653,-12.519004,3.115614,3.901909,0.400602,-4.452005,-3.518058,-12.519004,0.156923,0.182017,14.716039,67.034567,150.012,0.183137,0.133335,929518.724583,150.0,68.256863,-0.0,-0.0,-0.0,-0.0,-0.0,-0.0,-0.0,-0.0,1.01691,-0.003035,0.002208,0.018874,-0.02435,,,,,,150,50,False,"(150, 50, 5.0, False)",3.443831,1.7763680000000006,3.964612,1.0941219999999996,1.0941219999999996,0.5733409999999997,2.3497090000000003,398918.4526335375,0.6159514102380373,6.920909778140535,33.37
Sing,USC,250217 12:40:22.442,0.0,0.0,0.0,0.0,0.000945,6.0,-0.0,3.602423,4.79175,0.554546,-6.020346,-3.278829,-17.124958,3.602423,4.79175,0.554546,-6.020346,-3.278829,-17.124958,3.081814,5.142056,0.554546,-5.644635,-3.890165,-17.124958,0.156932,0.181976,14.715045,67.061288,150.043891,0.183196,0.13336,929582.7125,150.0,68.256863,-0.0,-0.0,-0.0,-0.0,-0.0,-0.0,-0.0,-0.0,1.011373,-0.003022,0.002067,0.020429,-0.025868,,,,,,150,50,False,"(150, 50, 6.0, False)",3.602423,1.913818,4.087552,1.0868669999999998,1.0868669999999998,0.6017380000000001,2.515556,398945.91411458334,0.6592140760567243,7.032175457818125,33.37
Sing,USC,250217 11:19:16.759,0.0,0.0,0.0,0.0,0.000827,-1.0,0.0,9.356511,-5.81437,0.726262,2.875044,-10.460071,24.617556,9.356511,-5.81437,0.726262,2.875044,-10.460071,24.617556,9.253612,-5.976778,0.726262,2.692053,-10.508654,24.617556,0.156921,0.499594,14.680574,71.603381,249.948835,0.50283,0.221205,1521522.374167,250.0,68.256863,-0.0,-0.0,-0.0,-0.0,-0.0,-0.0,-0.0,-0.0,1.014938,-0.003096,0.002176,0.020485,-0.061564,,,,,,250,70,False,"(250, 70, -1.0, False)",9.356511,4.129694000000001,10.104348,2.9873269999999996,2.9873269999999996,2.239489999999999,6.369184,652986.6855800041,0.6080945118287507,7.692249647568582,58.37
Sing,USC,250217 11:19:40.264,0.0,0.0,0.0,0.0,0.000827,0.0,0.0,9.257029,-3.223905,0.640898,1.44312,-9.284742,14.65598,9.257029,-3.223905,0.640898,1.44312,-9.284742,14.65598,9.257029,-3.223905,0.640898,1.44312,-9.284742,14.65598,0.156896,0.499625,14.678402,71.555651,249.959601,0.502846,0.221224,1521610.996667,250.0,68.256863,-0.0,-0.0,-0.0,-0.0,-0.0,-0.0,-0.0,-0.0,1.011268,-0.003054,0.002164,0.022485,-0.061324,,,,,,250,70,False,"(250, 70, 0.0, False)",9.257029,4.1055589999999995,9.985799,2.9401200000000003,2.9401200000000003,2.2113499999999995,6.316908999999999,653024.7194029208,0.6030843934546625,8.00436679275599,58.37
Sing,USC,250217 11:20:03.756,0.0,0.0,0.0,0.0,0.000827,1.0,0.0,9.307384,-0.792816,0.695397,0.156256,-8.403689,5.563398,9.307384,-0.792816,0.695397,0.156256,-8.403689,5.563398,9.319803,-0.630259,0.695397,0.302896,-8.399682,5.563398,0.156916,0.499644,14.676639,71.505057,249.966554,0.502866,0.221241,1521740.203333,250.0,68.256863,-0.0,-0.0,-0.0,-0.0,-0.0,-0.0,-0.0,-0.0,1.013743,-0.003089,0.002369,0.021847,-0.062082,,,,,,250,70,False,"(250, 70, 1.0, False)",9.307384,4.180681,9.947079,2.8831990000000003,2.8831990000000003,2.2435040000000006,6.4241850000000005,653080.1705970792,0.6133017943395462,10.475595850739643,58.37
Sing,USC,250217 11:20:27.262,0.0,0.0,0.0,0.0,0.000827,2.0,0.0,9.417892,1.555872,0.827452,-1.137192,-8.213259,-3.142552,9.417892,1.555872,0.827452,-1.137192,-8.213259,-3.142552,9.357856,1.883604,0.827452,-0.849861,-8.247944,-3.142552,0.156906,0.499763,14.678504,71.45935,249.966572,0.502969,0.221251,1522155.145,250.0,68.256863,-0.0,-0.0,-0.0,-0.0,-0.0,-0.0,-0.0,-0.0,1.013938,-0.003133,0.002378,0.021792,-0.063451,,,,,,250,70,False,"(250, 70, 2.0, False)",9.417892,4.1938320000000004,10.051008,2.9285879999999995,2.9285879999999995,2.295472,6.489304000000001,653258.2497291667,0.6193916842426622,5.478134448077991,58.37
Sing,USC,250217 11:20:50.763,0.0,0.0,0.0,0.0,0.000827,3.0,0.0,9.556446,3.993124,1.000085,-2.619655,-8.321618,-12.119553,9.556446,3.993124,1.000085,-2.619655,-8.321618,-12.119553,9.334366,4.487798,1.000085,-2.180545,-8.447316,-12.119553,0.15692,0.499955,14.678967,71.41998,250.010072,0.503215,0.221297,1522721.4625,250.0,68.256863,-0.0,-0.0,-0.0,-0.0,-0.0,-0.0,-0.0,-0.0,1.015742,-0.003126,0.002167,0.019765,-0.065334,,,,,,250,70,False,"(250, 70, 3.0, False)",9.556446,4.228568000000001,10.157594,2.9645129999999993,2.9645129999999993,2.363364999999999,6.591933,653501.2943229167,0.6288798440026537,6.4934389298537525,58.37
Sing,USC,250217 11:21:14.261,0.0,0.0,0.0,0.0,0.000827,4.0,0.0,9.697863,6.47103,1.251065,-4.109161,-8.637274,-21.341177,9.697863,6.47103,1.251065,-4.109161,-8.637274,-21.341177,9.222843,7.131756,1.251065,-3.496645,-8.902875,-21.341177,0.156918,0.500116,14.678503,71.372963,250.045735,0.503369,0.221339,1523074.0175,250.0,68.256863,-0.0,-0.0,-0.0,-0.0,-0.0,-0.0,-0.0,-0.0,1.013413,-0.003103,0.002198,0.019193,-0.067253,,,,,,250,70,False,"(250, 70, 4.0, False)",9.697863,4.294212999999999,10.368729,3.0372580000000005,3.0372580000000005,2.3663920000000003,6.660604999999999,653652.5991770833,0.6352368481625573,6.7562900728323,58.37
Sing,USC,250217 11:21:37.762,0.0,0.0,0.0,0.0,0.000827,5.0,0.0,9.92982,9.036936,1.535076,-5.613086,-9.152556,-30.927684,9.92982,9.036936,1.535076,-5.613086,-9.152556,-30.927684,9.104413,9.867989,1.535076,-4.794029,-9.606941,-30.927684,0.156917,0.500058,14.677126,71.330166,250.029385,0.503317,0.221333,1523111.131667,250.0,68.256863,-0.0,-0.0,-0.0,-0.0,-0.0,-0.0,-0.0,-0.0,1.015349,-0.003154,0.002133,0.019745,-0.069826,,,,,,250,70,False,"(250, 70, 5.0, False)",9.92982,4.537067,10.630307,3.04662,3.04662,2.346132999999999,6.8831999999999995,653668.5273404209,0.6565340554665572,6.880697285008989,58.37
Sing,USC,250217 11:22:01.259,0.0,0.0,0.0,0.0,0.000827,6.0,0.0,10.226275,11.788693,1.852384,-7.179011,-9.97188,-41.349929,10.226275,11.788693,1.852384,-7.179011,-9.97188,-41.349929,8.938,12.79305,1.852385,-6.097338,-10.667664,-41.349929,0.156916,0.500156,14.677526,71.280409,250.049698,0.50346,0.221362,1523529.691667,250.0,68.256863,-0.0,-0.0,-0.0,-0.0,-0.0,-0.0,-0.0,-0.0,1.013397,-0.00305,0.00215,0.019291,-0.072907,,,,,,250,70,False,"(250, 70, 6.0, False)",10.226275,4.738027000000001,10.943359,3.1026659999999993,3.1026659999999993,2.3855819999999994,7.123609,653848.1593404209,0.679271778789072,6.9659256508192495,58.37
Sing,USC,250217 11:26:20.861,0.0,0.0,0.0,0.0,0.000866,-1.0,0.0,10.171164,-5.846809,0.705714,2.860619,-10.88558,24.805246,10.171164,-5.846809,0.705714,2.860619,-10.88558,24.805246,10.067575,-6.02343,0.705714,2.670204,-10.933846,24.805246,0.156918,0.500279,14.678546,70.706211,249.925367,0.503554,0.221371,1525847.53,250.0,68.256863,-0.0,-0.0,-0.0,-0.0,-0.0,-0.0,-0.0,-0.0,1.012919,-0.003024,0.002307,0.019112,-0.067001,,,,,,250,90,False,"(250, 90, -1.0, False)",10.171164,4.129694000000001,10.104348,2.9873269999999996,2.9873269999999996,3.054142999999999,7.183837,654842.8982916668,0.6848869462304038,7.700860496440594,93.89
Sing,USC,250217 11:26:44.558,0.0,0.0,0.0,0.0,0.000866,0.0,0.0,10.054539,-3.258704,0.637117,1.44699,-9.662382,14.803085,10.054539,-3.258704,0.637117,1.44699,-9.662382,14.803085,10.05454,-3.258703,0.637117,1.44699,-9.662382,14.803085,0.156906,0.500388,14.676313,70.655223,249.968428,0.503666,0.22142,1526038.408333,250.0,68.256863,-0.0,-0.0,-0.0,-0.0,-0.0,-0.0,-0.0,-0.0,1.013125,-0.002999,0.002527,0.01941,-0.066649,,,,,,250,90,False,"(250, 90, 0.0, False)",10.054539,4.1055589999999995,9.985799,2.9401200000000003,2.9401200000000003,3.0088600000000003,7.114419,654924.8169095792,0.6781180017221817,8.000962857217676,93.89
Sing,USC,250217 11:27:08.260,0.0,0.0,0.0,0.0,0.000866,1.0,0.0,10.117449,-0.813017,0.706301,0.135435,-8.731172,5.549206,10.117449,-0.813017,0.706301,0.135435,-8.731172,5.549206,10.130097,-0.636319,0.706301,0.287795,-8.727479,5.549206,0.15691,0.500548,14.678353,70.611766,249.965219,0.503759,0.221426,1526436.506667,250.0,68.256863,-0.0,-0.0,-0.0,-0.0,-0.0,-0.0,-0.0,-0.0,1.011957,-0.003028,0.002286,0.020045,-0.067473,,,,,,250,90,False,"(250, 90, 1.0, False)",10.117449,4.180681,9.947079,2.8831990000000003,2.8831990000000003,3.0535690000000004,7.23425,655095.6674445876,0.6894125166136039,10.283782247685679,93.89
Sing,USC,250217 11:27:31.956,0.0,0.0,0.0,0.0,0.000866,2.0,0.0,10.235267,1.542231,0.841746,-1.169148,-8.595446,-3.18728,10.235267,1.542231,0.841746,-1.169148,-8.595446,-3.18728,10.175209,1.898497,0.841746,-0.868459,-8.631013,-3.18728,0.156887,0.500584,14.679402,70.571111,249.952677,0.503792,0.221424,1526702.278333,250.0,68.256863,-0.0,-0.0,-0.0,-0.0,-0.0,-0.0,-0.0,-0.0,1.012662,-0.003054,0.002255,0.018895,-0.068904,,,,,,250,90,False,"(250, 90, 2.0, False)",10.235267,4.1938320000000004,10.051008,2.9285879999999995,2.9285879999999995,3.1128470000000004,7.306679000000001,655209.7277845792,0.6962692742225528,5.525001685869368,93.89
Sing,USC,250217 11:27:55.659,0.0,0.0,0.0,0.0,0.000866,3.0,0.0,10.373931,3.966576,1.03833,-2.65285,-8.725525,-12.146267,10.373931,3.966576,1.03833,-2.65285,-8.725525,-12.146267,10.152119,4.50407,1.03833,-2.192555,-8.852406,-12.146267,0.156917,0.50077,14.678788,70.53781,250.006296,0.50404,0.221478,1527200.6025,250.0,68.256863,-0.0,-0.0,-0.0,-0.0,-0.0,-0.0,-0.0,-0.0,1.012284,-0.003035,0.002433,0.019387,-0.070778,,,,,,250,90,False,"(250, 90, 3.0, False)",10.373931,4.228568000000001,10.157594,2.9645129999999993,2.9645129999999993,3.1808500000000004,7.409418000000001,655423.5919062501,0.7057120976202689,6.520487443074329,93.89
Sing,USC,250217 11:28:19.358,0.0,0.0,0.0,0.0,0.000866,4.0,0.0,10.548778,6.459081,1.271754,-4.13582,-8.99101,-21.380107,10.548778,6.459081,1.271754,-4.13582,-8.99101,-21.380107,10.072519,7.179192,1.271754,-3.498564,-9.257608,-21.380107,0.15692,0.500952,14.680724,70.510778,250.035694,0.50421,0.22151,1527596.6575,250.0,68.256863,-0.0,-0.0,-0.0,-0.0,-0.0,-0.0,-0.0,-0.0,1.012584,-0.003007,0.00213,0.019261,-0.072933,,,,,,250,90,False,"(250, 90, 4.0, False)",10.548778,4.294212999999999,10.368729,3.0372580000000005,3.0372580000000005,3.217307000000001,7.51152,655593.5655104168,0.7151956138041043,6.768418312914793,93.89
Sing,USC,250217 11:28:43.056,0.0,0.0,0.0,0.0,0.000866,5.0,0.0,10.7736,9.007478,1.565562,-5.627899,-9.561848,-30.959938,10.7736,9.007478,1.565562,-5.627899,-9.561848,-30.959938,9.94755,9.912182,1.565562,-4.773113,-10.015966,-30.959938,0.156914,0.501197,14.680936,70.482532,250.081209,0.504452,0.221556,1528112.67,250.0,68.256863,-0.0,-0.0,-0.0,-0.0,-0.0,-0.0,-0.0,-0.0,1.011996,-0.003061,0.002225,0.020016,-0.075451,,,,,,250,90,False,"(250, 90, 5.0, False)",10.7736,4.537067,10.630307,3.04662,3.04662,3.1899129999999998,7.72698,655815.020875,0.7353573017577314,6.895470565308809,93.89
Sing,USC,250217 11:29:06.757,0.0,0.0,0.0,0.0,0.000866,6.0,-0.0,11.045979,11.737693,1.863615,-7.176782,-10.331519,-41.31842,11.045979,11.737693,1.863615,-7.176782,-10.331519,-41.31842,9.758545,12.828012,1.863615,-6.057529,-11.0251,-41.31842,0.156917,0.50107,14.681635,70.451755,250.029717,0.504301,0.221517,1528040.561667,250.0,68.256863,-0.0,-0.0,-0.0,-0.0,-0.0,-0.0,-0.0,-0.0,1.01444,-0.003058,0.002177,0.020046,-0.078353,,,,,,250,90,False,"(250, 90, 6.0, False)",11.045979,4.738027000000001,10.943359,3.1026659999999993,3.1026659999999993,3.205286000000001,7.943313000000002,655784.0743820876,0.756171519041106,6.97848162823251,93.89
Sing,USC,250217 13:29:33.531,0.0,0.0,0.0,0.0,0.000827,-1.0,0.0,1.563395,-1.092524,-0.049578,2.276146,-2.097718,4.610712,1.563395,-1.092524,-0.049578,2.276146,-2.097718,4.610712,1.54409,-1.119642,-0.049578,2.239189,-2.137122,4.610712,0.080929,0.080891,14.724968,66.738648,99.986593,0.081456,0.088896,620554.479167,100.0,68.256863,-0.0,-0.0,-0.0,-0.0,-0.0,-0.0,-0.0,-0.0,1.012406,-0.003066,0.001946,0.02041,-0.010323,,,,,,100,70,False,"(100, 70, -1.0, False)",1.563395,0.7241790000000001,1.661561,0.46869099999999997,0.46869099999999997,0.370525,1.0947040000000001,266321.2973091709,0.6451817801652812,7.678571973399821,58.37
Sing,USC,250217 13:30:00.330,0.0,0.0,0.0,0.0,0.000827,0.0,0.0,1.54261,-0.614636,-0.075617,1.188545,-1.706137,2.789892,1.54261,-0.614636,-0.075617,1.188545,-1.706137,2.789892,1.54261,-0.614636,-0.075617,1.188545,-1.706137,2.789892,0.080911,0.080865,14.725707,66.741272,99.973922,0.081434,0.088885,620458.84875,100.0,68.256863,-0.0,-0.0,-0.0,-0.0,-0.0,-0.0,-0.0,-0.0,1.012591,-0.003168,0.001997,0.020771,-0.010239,,,,,,100,70,False,"(100, 70, 0.0, False)",1.54261,0.7485999999999999,1.650524,0.4509620000000001,0.4509620000000001,0.343048,1.091648,266280.255921875,0.6435544904469725,7.997429643995254,58.37
Sing,USC,250217 13:30:27.133,0.0,0.0,0.0,0.0,0.000827,1.0,0.0,1.547296,-0.178457,-0.093907,0.103579,-1.462662,1.135531,1.547296,-0.178457,-0.093907,0.103579,-1.462662,1.135531,1.550175,-0.151425,-0.093907,0.12909,-1.460631,1.135531,0.080946,0.080882,14.724717,66.74548,99.999016,0.081469,0.088907,620571.163333,100.0,68.256863,-0.0,-0.0,-0.0,-0.0,-0.0,-0.0,-0.0,-0.0,1.011054,-0.003122,0.002181,0.020955,-0.010324,,,,,,100,70,False,"(100, 70, 1.0, False)",1.547296,0.729776,1.660416,0.46531999999999996,0.46531999999999996,0.35220000000000007,1.081976,266328.45759707916,0.6375785697556772,9.821384376441758,58.37
Sing,USC,250217 13:30:53.937,0.0,0.0,0.0,0.0,0.000827,2.0,0.0,1.570244,0.255635,-0.063626,-1.0147,-1.237105,-0.467329,1.570244,0.255635,-0.063626,-1.0147,-1.237105,-0.467329,1.560366,0.31028,-0.063626,-0.970908,-1.271764,-0.467329,0.080917,0.080841,14.722367,66.747205,99.989468,0.081445,0.088898,620439.150417,100.0,68.256863,-0.0,-0.0,-0.0,-0.0,-0.0,-0.0,-0.0,-0.0,1.012192,-0.003062,0.002034,0.021175,-0.01057,,,,,,100,70,False,"(100, 70, 2.0, False)",1.570244,0.7743009999999997,1.672303,0.4490010000000002,0.4490010000000002,0.3469420000000001,1.1212429999999998,266271.80205396254,0.6609122267135854,5.286443725102849,58.37
Sing,USC,250217 13:31:20.733,0.0,0.0,0.0,0.0,0.000827,3.0,0.0,1.610373,0.713908,-0.042198,-2.156346,-1.195457,-2.117258,1.610373,0.713908,-0.042198,-2.156346,-1.195457,-2.117258,1.570803,0.79721,-0.042198,-2.090825,-1.306673,-2.117258,0.080969,0.080898,14.724914,66.751768,100.011644,0.081489,0.088917,620636.611667,100.0,68.256863,-0.0,-0.0,-0.0,-0.0,-0.0,-0.0,-0.0,-0.0,1.013308,-0.003074,0.001991,0.021383,-0.010989,,,,,,100,70,False,"(100, 70, 3.0, False)",1.610373,0.7783850000000001,1.702445,0.46202999999999994,0.46202999999999994,0.369958,1.1483430000000001,266356.5458404208,0.6765207290946987,6.424062811081167,58.37
Sing,USC,250217 13:31:47.528,0.0,0.0,0.0,0.0,0.000827,4.0,1e-06,1.646803,1.185294,0.005505,-3.292589,-1.183731,-3.874163,1.646803,1.185294,0.005505,-3.292589,-1.183731,-3.874163,1.560109,1.297282,0.005505,-3.201996,-1.410527,-3.874163,0.080928,0.080879,14.722752,66.756116,99.993611,0.081451,0.088901,620455.802917,100.0,68.256863,-0.0,-0.0,-0.0,-0.0,-0.0,-0.0,-0.0,-0.0,1.012166,-0.003104,0.002005,0.021543,-0.011395,,,,,,100,70,False,"(100, 70, 4.0, False)",1.646803,0.795302,1.759316,0.4820070000000001,0.4820070000000001,0.369494,1.164796,266278.9487518792,0.6865337928392133,6.726858273137298,58.37
Sing,USC,250217 13:32:14.336,0.0,0.0,0.0,0.0,0.000827,5.0,0.0,1.697022,1.677331,0.076936,-4.453602,-1.218006,-5.776833,1.697022,1.677331,0.076936,-4.453602,-1.218006,-5.776833,1.544376,1.818854,0.076936,-4.330498,-1.601528,-5.776833,0.080946,0.080942,14.721905,66.759564,100.012623,0.081476,0.088918,620527.040417,100.0,68.256863,-0.0,-0.0,-0.0,-0.0,-0.0,-0.0,-0.0,-0.0,1.014735,-0.003057,0.002041,0.022368,-0.011906,,,,,,100,70,False,"(100, 70, 5.0, False)",1.697022,0.8558729999999999,1.811687,0.4779070000000001,0.4779070000000001,0.36324200000000006,1.219115,266309.5215122958,0.7183290738609228,6.9023959542471545,58.37
Sing,USC,250217 13:32:41.134,0.0,0.0,0.0,0.0,0.000827,6.0,0.0,1.78461,2.220558,0.12486,-5.604452,-1.245413,-7.897478,1.78461,2.220558,0.12486,-5.604452,-1.245413,-7.897478,1.542722,2.394937,0.12486,-5.443569,-1.824415,-7.897478,0.080972,0.080967,14.72331,66.761302,100.020311,0.081495,0.088924,620619.57,100.0,68.256863,-0.0,-0.0,-0.0,-0.0,-0.0,-0.0,-0.0,-0.0,1.016424,-0.003114,0.002027,0.022567,-0.01269,,,,,,100,70,False,"(100, 70, 6.0, False)",1.78461,0.9404770000000002,1.887865,0.47369399999999984,0.47369399999999984,0.37043899999999996,1.3109160000000002,266349.232125,0.7722401352673434,7.014861917590084,58.37
Sing,USC,250217 11:29:50.455,0.0,0.0,0.0,0.0,0.000866,-1.0,0.0,10.472949,-5.845368,0.70691,2.880839,-10.910778,24.813301,10.472949,-5.845368,0.70691,2.880839,-10.910778,24.813301,10.369339,-6.027255,0.70691,2.689982,-10.959393,24.813301,0.15692,0.500788,14.680417,70.392624,249.967873,0.504077,0.221474,1527869.546667,250.0,68.256863,-0.0,-0.0,-0.0,-0.0,-0.0,-0.0,-0.0,-0.0,1.015096,-0.003029,0.002202,0.019566,-0.069014,,,,,,250,100,False,"(250, 100, -1.0, False)",10.472949,4.129694000000001,10.104348,2.9873269999999996,2.9873269999999996,3.3559279999999996,7.485622,655710.6804445876,0.7129178359260443,7.703284378331698,100.0
Sing,USC,250217 11:30:14.257,0.0,0.0,0.0,0.0,0.000866,0.0,0.0,10.338766,-3.25199,0.646586,1.446187,-9.820256,14.813161,10.338766,-3.25199,0.646586,1.446187,-9.820256,14.813161,10.338766,-3.25199,0.646586,1.446187,-9.820256,14.813161,0.156904,0.500847,14.679802,70.372596,249.968749,0.504067,0.221479,1527878.854167,250.0,68.256863,-0.0,-0.0,-0.0,-0.0,-0.0,-0.0,-0.0,-0.0,1.012615,-0.003062,0.002255,0.021664,-0.068547,,,,,,250,100,False,"(250, 100, 0.0, False)",10.338766,4.1055589999999995,9.985799,2.9401200000000003,2.9401200000000003,3.293087,7.398645999999999,655714.6749133376,0.7046483694319313,8.013439898851678,100.0
Sing,USC,250217 11:30:38.063,0.0,0.0,0.0,0.0,0.000866,1.0,0.0,10.386175,-0.790874,0.705392,0.135259,-8.867952,5.537414,10.386175,-0.790874,0.705392,0.135259,-8.867952,5.537414,10.398396,-0.60949,0.705392,0.290006,-8.864241,5.537414,0.156912,0.500719,14.678618,70.364257,249.942743,0.503951,0.221458,1527704.405,250.0,68.256863,-0.0,-0.0,-0.0,-0.0,-0.0,-0.0,-0.0,-0.0,1.010065,-0.00302,0.002247,0.020353,-0.069284,,,,,,250,100,False,"(250, 100, 1.0, False)",10.386175,4.180681,9.947079,2.8831990000000003,2.8831990000000003,3.3222949999999996,7.502975999999999,655639.8071458334,0.7147492612239127,10.459972026728236,100.0
Sing,USC,250217 11:31:01.857,0.0,0.0,0.0,0.0,0.000866,2.0,0.0,10.514001,1.554078,0.877279,-1.165211,-8.7963,-3.183931,10.514001,1.554078,0.877279,-1.165211,-8.7963,-3.183931,10.45336,1.920065,0.877279,-0.857515,-8.831607,-3.183931,0.156901,0.500828,14.679326,70.365623,249.976738,0.504106,0.221488,1527965.015833,250.0,68.256863,-0.0,-0.0,-0.0,-0.0,-0.0,-0.0,-0.0,-0.0,1.013936,-0.003089,0.002207,0.019496,-0.070775,,,,,,250,100,False,"(250, 100, 2.0, False)",10.514001,4.1938320000000004,10.051008,2.9285879999999995,2.9285879999999995,3.3915810000000004,7.585413000000001,655751.6526283292,0.7223802009061223,5.507092147241001,100.0
Sing,USC,250217 11:31:25.666,0.0,0.0,0.0,0.0,0.000866,3.0,0.0,10.662701,3.992013,1.018718,-2.656369,-8.868014,-12.252961,10.662701,3.992013,1.018718,-2.656369,-8.868014,-12.252961,10.439162,4.544585,1.018718,-2.188612,-8.994884,-12.252961,0.156917,0.500927,14.677599,70.369831,250.017658,0.504167,0.221523,1527889.55,250.0,68.256863,-0.0,-0.0,-0.0,-0.0,-0.0,-0.0,-0.0,-0.0,1.013637,-0.003003,0.002231,0.01998,-0.072719,,,,,,250,100,False,"(250, 100, 3.0, False)",10.662701,4.228568000000001,10.157594,2.9645129999999993,2.9645129999999993,3.46962,7.698188000000001,655719.2652083334,0.733031379729344,6.527702345909194,100.0
Sing,USC,250217 11:31:49.455,0.0,0.0,0.0,0.0,0.000866,4.0,0.0,10.839744,6.462102,1.273775,-4.145595,-9.196232,-21.46336,10.839744,6.462102,1.273775,-4.145595,-9.196232,-21.46336,10.362565,7.202503,1.273775,-3.494,-9.463013,-21.46336,0.156918,0.50111,14.677194,70.373605,250.063177,0.504387,0.221563,1528270.456667,250.0,68.256863,-0.0,-0.0,-0.0,-0.0,-0.0,-0.0,-0.0,-0.0,1.011657,-0.003075,0.002292,0.020985,-0.074877,,,,,,250,100,False,"(250, 100, 4.0, False)",10.839744,4.294212999999999,10.368729,3.0372580000000005,3.0372580000000005,3.508273,7.802485999999999,655882.7376529209,0.7426387093537479,6.779754134181108,100.0
Sing,USC,250217 11:32:13.260,0.0,0.0,0.0,0.0,0.000866,5.0,0.0,11.057966,9.007291,1.540167,-5.648536,-9.615588,-31.050525,11.057966,9.007291,1.540167,-5.648536,-9.615588,-31.050525,10.23085,9.936781,1.540167,-4.788988,-10.0713,-31.050525,0.156916,0.501048,14.678146,70.386913,250.035037,0.504309,0.221535,1528174.984167,250.0,68.256863,-0.0,-0.0,-0.0,-0.0,-0.0,-0.0,-0.0,-0.0,1.014721,-0.003036,0.002276,0.020692,-0.07734,,,,,,250,100,False,"(250, 100, 5.0, False)",11.057966,4.537067,10.630307,3.04662,3.04662,3.4742789999999992,8.011346,655841.7640383375,0.7626358895008503,6.905598998448405,100.0
Sing,USC,250217 11:32:37.064,0.0,0.0,0.0,0.0,0.000866,6.0,0.0,11.345925,11.750136,1.870331,-7.181308,-10.474548,-41.470096,11.345925,11.750136,1.870331,-7.181308,-10.474548,-41.470096,10.055547,12.87174,1.870331,-6.047079,-11.167819,-41.470096,0.156913,0.501112,14.678178,70.402887,250.047297,0.504308,0.221543,1528062.34,250.0,68.256863,-0.0,-0.0,-0.0,-0.0,-0.0,-0.0,-0.0,-0.0,1.014663,-0.003095,0.002214,0.021482,-0.080367,,,,,,250,100,False,"(250, 100, 6.0, False)",11.345925,4.738027000000001,10.943359,3.1026659999999993,3.1026659999999993,3.5052319999999995,8.243259,655793.4209166667,0.7847142821762828,6.987662355567629,100.0
Sing,USC,250217 12:01:41.157,0.0,0.0,0.0,0.0,0.000906,-1.0,0.0,6.100249,-4.011528,0.389693,2.542057,-7.420115,17.139338,6.100249,-4.011528,0.389693,2.542057,-7.420115,17.139338,6.029309,-4.117381,0.389693,2.412171,-7.46335,17.139338,0.156922,0.322331,14.701666,68.289212,199.997748,0.324432,0.177553,1232843.39,200.0,68.256863,-0.0,-0.0,-0.0,-0.0,-0.0,-0.0,-0.0,-0.0,1.015782,-0.003102,0.0022,0.019663,-0.04013,,,,,,200,70,False,"(200, 70, -1.0, False)",6.100249,2.8948160000000005,6.548904,1.827044,1.827044,1.3783889999999994,4.273205,529095.2882083333,0.6323223218192328,7.73085442753983,58.37
Sing,USC,250217 12:02:05.761,0.0,0.0,0.0,0.0,0.000906,0.0,0.0,6.045345,-2.240396,0.320808,1.270868,-6.206559,10.218979,6.045345,-2.240396,0.320808,1.270868,-6.206559,10.218979,6.045345,-2.240395,0.320808,1.270868,-6.206558,10.218979,0.156907,0.322182,14.700733,68.310782,199.955422,0.324252,0.177512,1232381.235833,200.0,68.256863,-0.0,-0.0,-0.0,-0.0,-0.0,-0.0,-0.0,-0.0,1.016868,-0.003113,0.002216,0.01886,-0.040043,,,,,,200,70,False,"(200, 70, 0.0, False)",6.045345,2.927441000000001,6.463677,1.7681179999999994,1.7681179999999994,1.349786,4.277227000000001,528896.9470449958,0.6332688199338401,8.019571168073263,58.37
Sing,USC,250217 12:02:30.351,0.0,0.0,0.0,0.0,0.000906,1.0,0.0,6.078855,-0.633356,0.326253,0.156066,-5.551479,4.051049,6.078855,-0.633356,0.326253,0.156066,-5.551479,4.051049,6.088983,-0.527169,0.326253,0.252929,-5.54791,4.051049,0.156921,0.322169,14.697307,68.334631,199.972277,0.324238,0.177523,1232180.044167,200.0,68.256863,-0.0,-0.0,-0.0,-0.0,-0.0,-0.0,-0.0,-0.0,1.01415,-0.003087,0.002434,0.019189,-0.040529,,,,,,200,70,False,"(200, 70, 1.0, False)",6.078855,2.9400130000000004,6.486373,1.77318,1.77318,1.3656619999999995,4.305675,528810.6022883375,0.6375082402651868,9.854497575876232,58.37
Sing,USC,250217 12:02:54.952,0.0,0.0,0.0,0.0,0.000906,2.0,0.0,6.141125,0.979514,0.417293,-1.088747,-5.360193,-1.927998,6.141125,0.979514,0.417293,-1.088747,-5.360193,-1.927998,6.103199,1.193239,0.417293,-0.901016,-5.394925,-1.927998,0.1569,0.322144,14.701284,68.357697,199.952416,0.324234,0.177501,1232243.48,200.0,68.256863,-0.0,-0.0,-0.0,-0.0,-0.0,-0.0,-0.0,-0.0,1.011884,-0.003066,0.002336,0.020327,-0.041363,,,,,,200,70,False,"(200, 70, 2.0, False)",6.141125,2.9818230000000003,6.506691,1.7624339999999998,1.7624339999999998,1.3968679999999996,4.378691,528837.8268333334,0.6483271569658293,5.4266543578414055,58.37
Sing,USC,250217 12:03:19.552,0.0,0.0,0.0,0.0,0.000906,3.0,1e-06,6.241193,2.605026,0.52879,-2.428547,-5.399147,-7.943871,6.241193,2.605026,0.52879,-2.428547,-5.399147,-7.943871,6.096304,2.928095,0.52879,-2.142649,-5.518848,-7.943871,0.156918,0.322282,14.699937,68.377426,200.015484,0.324385,0.177554,1232393.0025,200.0,68.256863,-0.0,-0.0,-0.0,-0.0,-0.0,-0.0,-0.0,-0.0,1.012962,-0.003031,0.002232,0.020644,-0.042652,,,,,,200,70,False,"(200, 70, 3.0, False)",6.241193,2.9482349999999995,6.640389,1.8460770000000002,1.8460770000000002,1.4468810000000003,4.395116,528901.99690625,0.6504561846908177,6.507773530859193,58.37
Sing,USC,250217 12:03:44.158,0.0,0.0,0.0,0.0,0.000906,4.0,0.0,6.353718,4.31373,0.708253,-3.790832,-5.537466,-14.357596,6.353718,4.31373,0.708253,-3.790832,-5.537466,-14.357596,6.03733,4.746435,0.708253,-3.395324,-5.788412,-14.357596,0.156918,0.322301,14.700439,68.391073,200.025335,0.324431,0.17756,1232483.489167,200.0,68.256863,-0.0,-0.0,-0.0,-0.0,-0.0,-0.0,-0.0,-0.0,1.01434,-0.003011,0.002314,0.021739,-0.044075,,,,,,200,70,False,"(200, 70, 4.0, False)",6.353718,3.023549,6.762401,1.8694259999999998,1.8694259999999998,1.460743,4.484292,528940.8307675042,0.6635597096623344,6.786681653696453,58.37
Sing,USC,250217 12:04:08.760,0.0,0.0,0.0,0.0,0.000906,5.0,0.0,6.506311,6.12872,0.936495,-5.160807,-5.86909,-21.233597,6.506311,6.12872,0.936495,-5.160807,-5.86909,-21.233597,5.947399,6.67246,0.936495,-4.629643,-6.29655,-21.233597,0.15692,0.322339,14.700878,68.402679,200.04551,0.324494,0.177576,1232576.463333,200.0,68.256863,-0.0,-0.0,-0.0,-0.0,-0.0,-0.0,-0.0,-0.0,1.015567,-0.003095,0.002194,0.021643,-0.04581,,,,,,200,70,False,"(200, 70, 5.0, False)",6.506311,3.1484570000000005,6.952399,1.9019709999999996,1.9019709999999996,1.455883,4.6043400000000005,528980.7321804125,0.6811914435379494,6.922938830076536,58.37
Sing,USC,250217 12:04:33.353,0.0,0.0,0.0,0.0,0.000906,6.0,0.0,6.75691,8.069658,1.14049,-6.538798,-6.321532,-28.674016,6.75691,8.069658,1.14049,-6.538798,-6.321532,-28.674016,5.876386,8.731741,1.14049,-5.842198,-6.970392,-28.674016,0.156923,0.322417,14.702798,68.412622,200.035779,0.324514,0.177566,1232695.865,200.0,68.256863,-0.0,-0.0,-0.0,-0.0,-0.0,-0.0,-0.0,-0.0,1.012324,-0.00303,0.002156,0.022671,-0.048248,,,,,,200,70,False,"(200, 70, 6.0, False)",6.75691,3.3584879999999995,7.216526,1.9290190000000003,1.9290190000000003,1.4694030000000007,4.827891,529031.9753958334,0.714220790339581,7.011645753760568,58.37
Sing,USC,250217 10:15:25.279,0.0,0.0,0.0,0.0,0.000354,-1.0,0.0,10.094845,-4.573367,1.006136,1.663578,-12.822959,20.198818,10.094845,-4.573367,1.006136,1.663578,-12.822959,20.198818,10.013492,-4.748849,1.006136,1.439534,-12.85004,20.198818,0.156925,0.720176,14.636674,69.361798,299.912503,0.724863,0.265985,1833954.336667,300.0,68.256863,-0.0,-0.0,-0.0,-0.0,-0.0,-0.0,-0.0,-0.0,1.018256,-0.002985,0.00205,0.020831,-0.066709,,,,,,300,0,False,"(300, 0, -1.0, False)",10.094845,6.068342999999999,14.121347,4.026502000000001,4.026502000000001,0.0,6.068342999999999,787072.0694862542,0.401904304316843,7.874951986505055,0.0
Sing,USC,250217 10:15:46.979,0.0,0.0,0.0,0.0,0.000354,0.0,0.0,10.102251,-1.146023,1.114727,0.209939,-11.526067,7.486404,10.102251,-1.146023,1.114727,0.209939,-11.526067,7.486404,10.102251,-1.146022,1.114727,0.209939,-11.526067,7.486404,0.156911,0.719623,14.637863,69.733678,299.890133,0.724303,0.265871,1831679.785,300.0,68.256863,-0.0,-0.0,-0.0,-0.0,-0.0,-0.0,-0.0,-0.0,1.013957,-0.002999,0.002038,0.019721,-0.067359,,,,,,300,0,False,"(300, 0, 0.0, False)",10.102251,6.103040000000002,14.101462,3.999210999999999,3.999210999999999,0.0,6.103040000000002,786095.9077291667,0.4045147867455947,9.99084097061461,0.0
Sing,USC,250217 10:16:08.678,0.0,0.0,0.0,0.0,0.000354,1.0,0.0,10.187562,2.106289,1.281059,-1.143238,-11.156984,-4.407702,10.187562,2.106289,1.281059,-1.143238,-11.156984,-4.407702,10.149251,2.283766,1.281059,-0.948348,-11.175237,-4.407702,0.156926,0.719694,14.639449,70.011671,299.973457,0.724398,0.265875,1830667.503333,300.0,68.256863,-0.0,-0.0,-0.0,-0.0,-0.0,-0.0,-0.0,-0.0,1.015518,-0.00299,0.002149,0.02157,-0.068832,,,,,,300,0,False,"(300, 0, 1.0, False)",10.187562,6.178186,14.196938,4.009376,4.009376,0.0,6.178186,785661.4701804126,0.4094418262025026,5.550972092781823,0.0
Sing,USC,250217 10:16:30.378,0.0,0.0,0.0,0.0,0.000354,2.0,0.0,10.288688,5.456027,1.540319,-2.743773,-11.398261,-16.564684,10.288688,5.456027,1.540319,-2.743773,-11.398261,-16.564684,10.092008,5.811773,1.540319,-2.344308,-11.487073,-16.564684,0.156926,0.719798,14.635987,70.042983,300.038269,0.724513,0.265925,1830479.2175,300.0,68.256863,-0.0,-0.0,-0.0,-0.0,-0.0,-0.0,-0.0,-0.0,1.01311,-0.003004,0.002106,0.021425,-0.070823,,,,,,300,0,False,"(300, 0, 2.0, False)",10.288688,6.174782,14.402594,4.113906,4.113906,0.0,6.174782,785580.6641770834,0.40915128192490696,6.49436742920566,0.0
Sing,USC,250217 10:16:52.078,0.0,0.0,0.0,0.0,0.000354,3.0,0.0,10.477484,8.438663,1.762887,-4.204643,-11.68821,-27.344093,10.477484,8.438663,1.762887,-4.204643,-11.68821,-27.344093,10.021479,8.975447,1.762887,-3.587167,-11.892246,-27.344093,0.156924,0.720071,14.636438,69.910778,300.043701,0.724713,0.265963,1831303.5325,300.0,68.256863,-0.0,-0.0,-0.0,-0.0,-0.0,-0.0,-0.0,-0.0,1.013801,-0.002995,0.002034,0.022088,-0.073272,,,,,,300,0,False,"(300, 0, 3.0, False)",10.477484,6.451284000000001,14.503684,4.026199999999999,4.026199999999999,0.0,6.451284000000001,785934.4326979168,0.4273547921638343,6.698668087784364,0.0
Sing,USC,250217 10:17:13.781,0.0,0.0,0.0,0.0,0.000354,4.0,0.0,10.647435,11.02178,2.041068,-5.472177,-12.382325,-36.839396,10.647435,11.02178,2.041068,-5.472177,-12.382325,-36.839396,9.852658,11.737659,2.041068,-4.595099,-12.733883,-36.839396,0.15693,0.720132,14.634568,69.816362,300.04876,0.724819,0.265991,1831794.960833,300.0,68.256863,-0.0,-0.0,-0.0,-0.0,-0.0,-0.0,-0.0,-0.0,1.016243,-0.003029,0.002205,0.022358,-0.07542,,,,,,300,0,False,"(300, 0, 4.0, False)",10.647435,6.613040999999999,14.681829,4.034394000000001,4.034394000000001,0.0,6.613040999999999,786145.3373574959,0.43800605607730175,6.800751345668909,0.0
Sing,USC,250217 10:17:35.480,0.0,0.0,0.0,0.0,0.000354,5.0,0.0,10.827147,13.307028,2.271971,-6.548342,-12.771969,-45.405747,10.827147,13.307028,2.271971,-6.548342,-12.771969,-45.405747,9.626162,14.200039,2.271971,-5.410273,-13.294093,-45.405747,0.156926,0.719989,14.638144,69.853483,299.975813,0.724547,0.265917,1831452.551667,300.0,68.256863,-0.0,-0.0,-0.0,-0.0,-0.0,-0.0,-0.0,-0.0,1.014617,-0.003101,0.002119,0.022228,-0.077534,,,,,,300,0,False,"(300, 0, 5.0, False)",10.827147,6.7451170000000005,14.909177,4.08203,4.08203,0.0,6.7451170000000005,785998.3867570875,0.4469216504348744,6.87049621448155,0.0
Sing,USC,250217 10:17:57.184,0.0,0.0,0.0,0.0,0.000354,6.0,0.0,11.097383,16.163028,2.572642,-7.81545,-12.917784,-56.182687,11.097383,16.163028,2.572642,-7.81545,-12.917784,-56.182687,9.347094,17.234478,2.572642,-6.42236,-13.663956,-56.182687,0.156929,0.720332,14.639139,69.909537,300.084867,0.72506,0.266,1831933.290833,300.0,68.256863,-0.0,-0.0,-0.0,-0.0,-0.0,-0.0,-0.0,-0.0,1.015513,-0.003037,0.002219,0.022113,-0.080492,,,,,,300,0,False,"(300, 0, 6.0, False)",11.097383,6.973601000000002,15.221165,4.1237819999999985,4.1237819999999985,0.0,6.973601000000002,786204.7039824958,0.4617337475424742,6.934333436779297,0.0
Sing,USC,250217 11:12:21.959,0.0,0.0,0.0,0.0,0.000787,-1.0,0.0,8.680172,-5.841064,0.729282,2.853258,-10.241708,24.689104,8.680172,-5.841064,0.729282,2.853258,-10.241708,24.689104,8.57691,-5.991664,0.729282,2.674081,-10.289944,24.689105,0.156922,0.499196,14.674711,72.005423,249.980076,0.502378,0.221149,1519077.381667,250.0,68.256863,-0.0,-0.0,-0.0,-0.0,-0.0,-0.0,-0.0,-0.0,1.016434,-0.003098,0.002176,0.021468,-0.057039,,,,,,250,50,False,"(250, 50, -1.0, False)",8.680172,4.129694000000001,10.104348,2.9873269999999996,2.9873269999999996,1.5631510000000004,5.692845000000001,651937.3762987542,0.5440104170522072,7.685149543530654,33.37
Sing,USC,250217 11:12:45.262,0.0,0.0,0.0,0.0,0.000787,0.0,1e-06,8.600369,-3.238239,0.618725,1.444245,-9.067861,14.697872,8.600369,-3.238239,0.618725,1.444245,-9.067861,14.697872,8.600369,-3.238239,0.618725,1.444244,-9.067861,14.697872,0.156911,0.499025,14.671355,72.034911,249.977678,0.502223,0.221141,1518559.025833,250.0,68.256863,-0.0,-0.0,-0.0,-0.0,-0.0,-0.0,-0.0,-0.0,1.020613,-0.002985,0.002289,0.019579,-0.056948,,,,,,250,50,False,"(250, 50, 0.0, False)",8.600369,4.1055589999999995,9.985799,2.9401200000000003,2.9401200000000003,1.5546900000000008,5.660249,651714.9152533292,0.5410624664080742,7.997180527749805,33.37
Sing,USC,250217 11:13:08.562,0.0,0.0,0.0,0.0,0.000787,1.0,1e-06,8.62407,-0.798694,0.65987,0.148717,-8.119668,5.552345,8.62407,-0.798694,0.65987,0.148717,-8.119668,5.552345,8.636695,-0.648062,0.65987,0.290402,-8.115835,5.552345,0.156914,0.499104,14.674154,72.051672,249.982581,0.502379,0.221142,1518963.0975,250.0,68.256863,-0.0,-0.0,-0.0,-0.0,-0.0,-0.0,-0.0,-0.0,1.014951,-0.003059,0.002091,0.021278,-0.05751,,,,,,250,50,False,"(250, 50, 1.0, False)",8.62407,4.180681,9.947079,2.8831990000000003,2.8831990000000003,1.5601899999999995,5.740870999999999,651888.32934375,0.5485987077365168,10.410113364233778,33.37
Sing,USC,250217 11:13:31.867,0.0,0.0,0.0,0.0,0.000787,2.0,0.0,8.715189,1.557296,0.83287,-1.121205,-8.055508,-3.096712,8.715189,1.557296,0.83287,-1.121205,-8.055508,-3.096712,8.655531,1.860503,0.83287,-0.839389,-8.08973,-3.096712,0.156911,0.49911,14.676115,72.066045,249.98025,0.502399,0.221137,1519004.983333,250.0,68.256863,-0.0,-0.0,-0.0,-0.0,-0.0,-0.0,-0.0,-0.0,1.010944,-0.003123,0.002136,0.020539,-0.05876,,,,,,250,50,False,"(250, 50, 2.0, False)",8.715189,4.1938320000000004,10.051008,2.9285879999999995,2.9285879999999995,1.5927690000000005,5.786601000000001,651906.3053470792,0.552946661971431,5.4468518937097805,33.37
Sing,USC,250217 11:13:55.162,0.0,0.0,0.0,0.0,0.000787,3.0,0.0,8.850321,3.977217,1.010073,-2.601235,-8.116967,-11.987036,8.850321,3.977217,1.010073,-2.601235,-8.116967,-11.987036,8.63004,4.434957,1.010073,-2.17286,-8.241981,-11.987036,0.156922,0.499206,14.676359,72.08413,249.984348,0.502396,0.221136,1518933.0825,250.0,68.256863,-0.0,-0.0,-0.0,-0.0,-0.0,-0.0,-0.0,-0.0,1.012533,-0.00304,0.002231,0.020978,-0.060611,,,,,,250,50,False,"(250, 50, 3.0, False)",8.850321,4.228568000000001,10.157594,2.9645129999999993,2.9645129999999993,1.657239999999999,5.885808,651875.44790625,0.5624298825344726,6.472258899878986,33.37
Sing,USC,250217 11:14:18.459,0.0,0.0,0.0,0.0,0.000787,4.0,0.0,9.022417,6.46068,1.254304,-4.071994,-8.44078,-21.185726,9.022417,6.46068,1.254304,-4.071994,-8.44078,-21.185726,8.549765,7.074314,1.254304,-3.473275,-8.704267,-21.185726,0.156917,0.499409,14.677587,72.104471,250.050064,0.502676,0.22119,1519335.008333,250.0,68.256863,-0.0,-0.0,-0.0,-0.0,-0.0,-0.0,-0.0,-0.0,1.01402,-0.002977,0.002295,0.019796,-0.062744,,,,,,250,50,False,"(250, 50, 4.0, False)",9.022417,4.294212999999999,10.368729,3.0372580000000005,3.0372580000000005,1.6909460000000012,5.985159,652047.9410762459,0.5716049892453616,6.737512305206263,33.37
Sing,USC,250217 11:14:41.764,0.0,0.0,0.0,0.0,0.000787,5.0,0.0,9.245069,9.041227,1.549055,-5.580143,-9.018632,-30.866969,9.245069,9.041227,1.549055,-5.580143,-9.018632,-30.866969,8.421894,9.812583,1.549055,-4.772883,-9.470655,-30.866969,0.156915,0.499479,14.678615,72.106406,250.056166,0.502716,0.221195,1519414.839167,250.0,68.256863,-0.0,-0.0,-0.0,-0.0,-0.0,-0.0,-0.0,-0.0,1.014652,-0.003084,0.002271,0.019722,-0.065255,,,,,,250,50,False,"(250, 50, 5.0, False)",9.245069,4.537067,10.630307,3.04662,3.04662,1.6613820000000006,6.198449000000001,652082.2018091709,0.5919278769684705,6.8723576687470995,33.37
Sing,USC,250217 11:15:05.062,0.0,0.0,0.0,0.0,0.000787,6.0,0.0,9.49901,11.816015,1.862626,-7.139353,-9.796762,-41.377993,9.49901,11.816015,1.862626,-7.139353,-9.796762,-41.377993,8.211863,12.744202,1.862627,-6.076203,-10.48936,-41.377993,0.156915,0.499593,14.679837,72.096764,250.080667,0.502881,0.221219,1519785.8325,250.0,68.256863,-0.0,-0.0,-0.0,-0.0,-0.0,-0.0,-0.0,-0.0,1.014964,-0.003054,0.002261,0.020075,-0.06807,,,,,,250,50,False,"(250, 50, 6.0, False)",9.49901,4.738027000000001,10.943359,3.1026659999999993,3.1026659999999993,1.6583170000000003,6.396344000000001,652241.4197812501,0.6106256653507277,6.960190177624746,33.37
Sing,USC,250217 13:50:34.836,0.0,0.0,0.0,0.0,0.000787,-1.0,0.0,0.324492,-0.247271,-0.143676,2.193707,-0.912374,1.130489,0.324492,-0.247271,-0.143676,2.193707,-0.912374,1.130489,0.320127,-0.252897,-0.143676,2.17745,-0.950521,1.130489,0.020254,0.019869,14.724135,66.114856,49.991954,0.020387,0.044473,310912.487708,50.0,68.256863,-0.0,-0.0,-0.0,-0.0,-0.0,-0.0,-0.0,-0.0,1.012385,-0.003024,0.001999,0.021129,-0.002199,,,,,,50,10,False,"(50, 10, -1.0, False)",0.324492,0.21483099999999994,0.430429,0.10779900000000003,0.10779900000000003,0.0018620000000000303,0.21669299999999997,133433.27597468335,0.5102699913145272,8.030195783843098,3.76
Sing,USC,250217 13:51:02.135,0.0,0.0,0.0,0.0,0.000787,0.0,0.0,0.333719,-0.12005,-0.159164,1.129408,-0.623975,0.646047,0.333719,-0.12005,-0.159164,1.129408,-0.623975,0.646047,0.333719,-0.12005,-0.159164,1.129408,-0.623975,0.646047,0.020256,0.019902,14.725012,66.081602,49.994632,0.020389,0.044477,310954.683125,50.0,68.256863,-0.0,-0.0,-0.0,-0.0,-0.0,-0.0,-0.0,-0.0,1.017192,-0.002994,0.002004,0.020148,-0.002254,,,,,,50,10,False,"(50, 10, 0.0, False)",0.333719,0.22978500000000002,0.435805,0.10300999999999999,0.10300999999999999,0.0009239999999999804,0.230709,133451.38484114583,0.543221662179354,8.839816048868528,3.76
Sing,USC,250217 13:51:29.434,0.0,0.0,0.0,0.0,0.000782,1.0,0.0,0.339029,-0.003785,-0.173914,0.056546,-0.372649,0.211995,0.339029,-0.003785,-0.173914,0.056546,-0.372649,0.211995,0.339044,0.002133,-0.173914,0.063041,-0.371606,0.211995,0.020261,0.01992,14.723526,66.0468,49.996532,0.020391,0.04448,310982.611458,50.0,68.256863,-0.0,-0.0,-0.0,-0.0,-0.0,-0.0,-0.0,-0.0,1.018522,-0.003064,0.001977,0.019915,-0.002283,,,,,,50,10,False,"(50, 10, 1.0, False)",0.339029,0.23042900000000005,0.440625,0.10509799999999997,0.10509799999999997,0.003502000000000005,0.23393100000000006,133463.370750725,0.550754078458964,59.46758036107441,3.76
Sing,USC,250217 13:51:56.725,0.0,0.0,0.0,0.0,0.000748,2.0,0.0,0.346659,0.122732,-0.179531,-1.027782,-0.218514,-0.222439,0.346659,0.122732,-0.179531,-1.027782,-0.218514,-0.222439,0.342165,0.134755,-0.179531,-1.01953,-0.25425,-0.222439,0.02026,0.019835,14.725771,66.017169,49.994125,0.020394,0.044479,311058.439167,50.0,68.256863,-0.0,-0.0,-0.0,-0.0,-0.0,-0.0,-0.0,-0.0,1.016155,-0.003098,0.002158,0.019376,-0.002345,,,,,,50,10,False,"(50, 10, 2.0, False)",0.346659,0.245102,0.447188,0.101043,0.101043,0.0005140000000000144,0.245616,133495.91347583753,0.5781795257780686,5.270729448445937,3.76
Sing,USC,250217 13:52:24.031,0.0,0.0,0.0,0.0,0.000748,3.0,0.0,0.361637,0.241618,-0.167478,-2.106282,-0.11631,-0.656732,0.361637,0.241618,-0.167478,-2.106282,-0.11631,-0.656732,0.348496,0.260214,-0.167478,-2.097308,-0.226385,-0.656732,0.020278,0.019913,14.726023,65.989595,50.008648,0.020406,0.044493,311160.860625,50.0,68.256863,-0.0,-0.0,-0.0,-0.0,-0.0,-0.0,-0.0,-0.0,1.01428,-0.003081,0.00203,0.019682,-0.002465,,,,,,50,10,False,"(50, 10, 3.0, False)",0.361637,0.250245,0.452679,0.101217,0.101217,0.01017499999999999,0.26042,133539.8693515625,0.6126676105966897,6.176392418335279,3.76
Sing,USC,250217 13:52:51.336,0.0,0.0,0.0,0.0,0.000748,4.0,0.0,0.376172,0.368856,-0.153284,-3.1998,-0.070102,-1.115077,0.376172,0.368856,-0.153284,-3.1998,-0.070102,-1.115077,0.349525,0.394197,-0.153284,-3.187115,-0.293138,-1.115077,0.020288,0.019934,14.726275,65.965353,50.027718,0.020423,0.044511,311313.745625,50.0,68.256863,-0.0,-0.0,-0.0,-0.0,-0.0,-0.0,-0.0,-0.0,1.014152,-0.003052,0.002078,0.021194,-0.002587,,,,,,50,10,False,"(50, 10, 4.0, False)",0.376172,0.27927,0.464534,0.09263199999999999,0.09263199999999999,0.004269999999999996,0.28354,133605.48249739583,0.666504777639469,6.481401956318997,3.76
Sing,USC,250217 13:53:18.627,0.0,0.0,0.0,0.0,0.000748,5.0,0.0,0.388143,0.511919,-0.124636,-4.284258,-0.018059,-1.631909,0.388143,0.511919,-0.124636,-4.284258,-0.018059,-1.631909,0.34205,0.5438,-0.124636,-4.266381,-0.391388,-1.631909,0.020259,0.019923,14.725634,65.941185,49.989601,0.020392,0.044479,311088.4875,50.0,68.256863,-0.0,-0.0,-0.0,-0.0,-0.0,-0.0,-0.0,-0.0,1.009525,-0.00311,0.002098,0.019254,-0.002697,,,,,,50,10,False,"(50, 10, 5.0, False)",0.388143,0.296596,0.482488,0.09294599999999997,0.09294599999999997,-0.0013989999999999836,0.29519700000000004,133508.80921875002,0.6949612446310018,6.64615992308679,3.76
Sing,USC,250217 13:53:45.932,0.0,0.0,0.0,0.0,0.000748,6.0,0.0,0.409874,0.644735,-0.124315,-5.382222,0.035013,-2.188408,0.409874,0.644735,-0.124315,-5.382222,0.035013,-2.188408,0.340235,0.684046,-0.124315,-5.356398,-0.527774,-2.188408,0.020269,0.019905,14.728451,65.918449,49.997742,0.020403,0.044487,311224.0925,50.0,68.256863,-0.0,-0.0,-0.0,-0.0,-0.0,-0.0,-0.0,-0.0,1.014406,-0.003046,0.002014,0.020694,-0.002871,,,,,,50,10,False,"(50, 10, 6.0, False)",0.409874,0.327167,0.501299,0.08706600000000003,0.08706600000000003,-0.004359000000000002,0.322808,133567.00636458336,0.7595541286293632,6.852608500650138,3.76
Sing,USC,250217 10:32:29.672,0.0,0.0,0.0,0.0,0.00046,-1.0,0.0,12.256017,-4.468135,1.026993,1.688101,-12.918937,20.009053,12.256017,-4.468135,1.026993,1.688101,-12.918937,20.009053,12.176171,-4.68135,1.026993,1.462378,-12.946431,20.009053,0.156923,0.718559,14.639669,70.817777,299.948104,0.723235,0.265651,1825735.983333,300.0,68.256863,-0.0,-0.0,-0.0,-0.0,-0.0,-0.0,-0.0,-0.0,1.012795,-0.003031,0.002207,0.020515,-0.081157,,,,,,300,50,False,"(300, 50, -1.0, False)",12.256017,6.068342999999999,14.121347,4.026502000000001,4.026502000000001,2.1611720000000005,8.229515,783545.0261804126,0.5462648739065831,7.93649995094896,33.37
Sing,USC,250217 10:32:51.971,0.0,0.0,0.0,0.0,0.000472,0.0,0.0,12.259915,-1.119513,1.071831,0.200659,-11.905704,7.394855,12.259915,-1.119513,1.071831,0.200659,-11.905704,7.394855,12.259915,-1.119513,1.071831,0.200659,-11.905704,7.394855,0.156907,0.718618,14.640926,70.833051,299.976708,0.723347,0.265672,1825804.168333,300.0,68.256863,-0.0,-0.0,-0.0,-0.0,-0.0,-0.0,-0.0,-0.0,1.01257,-0.002983,0.002191,0.021462,-0.081757,,,,,,300,50,False,"(300, 50, 0.0, False)",12.259915,6.103040000000002,14.101462,3.999210999999999,3.999210999999999,2.1576639999999987,8.260704,783574.2889095792,0.5482502586655721,10.063754619196025,33.37
Sing,USC,250217 10:33:14.273,0.0,0.0,0.0,0.0,0.000472,1.0,0.0,12.409509,2.047916,1.225047,-1.168018,-11.604422,-4.333625,12.409509,2.047916,1.225047,-1.168018,-11.604422,-4.333625,12.371878,2.26418,1.225047,-0.965315,-11.623039,-4.333625,0.156928,0.718434,14.640573,70.849972,299.934293,0.723131,0.265631,1825472.415833,300.0,68.256863,-0.0,-0.0,-0.0,-0.0,-0.0,-0.0,-0.0,-0.0,1.016791,-0.002968,0.002155,0.021104,-0.083613,,,,,,300,50,False,"(300, 50, 1.0, False)",12.409509,6.178186,14.196938,4.009376,4.009376,2.221947,8.400133,783431.9117949959,0.5576704746375601,5.574447959128532,33.37
Sing,USC,250217 10:33:36.571,0.0,0.0,0.0,0.0,0.000472,2.0,0.0,12.544713,5.244135,1.474254,-2.749555,-11.721798,-15.950994,12.544713,5.244135,1.474254,-2.749555,-11.721798,-15.950994,12.354053,5.678744,1.474254,-2.338795,-11.810615,-15.950995,0.156923,0.718743,14.639016,70.869064,300.01172,0.72341,0.265694,1825654.191667,300.0,68.256863,-0.0,-0.0,-0.0,-0.0,-0.0,-0.0,-0.0,-0.0,1.015833,-0.002997,0.002014,0.020447,-0.085791,,,,,,300,50,False,"(300, 50, 2.0, False)",12.544713,6.174782,14.402594,4.113906,4.113906,2.2560249999999993,8.430807,783509.9239237542,0.5594910050222509,6.5000158987135155,33.37
Sing,USC,250217 10:33:58.873,0.0,0.0,0.0,0.0,0.000472,3.0,0.0,12.69482,7.130915,1.65958,-3.67484,-11.869598,-22.780832,12.69482,7.130915,1.65958,-3.67484,-11.869598,-22.780832,12.304218,7.785538,1.65958,-3.048596,-12.045658,-22.780832,0.156922,0.718772,14.637221,70.900215,300.059505,0.723508,0.265729,1825529.463333,300.0,68.256863,-0.0,-0.0,-0.0,-0.0,-0.0,-0.0,-0.0,-0.0,1.0186,-0.003005,0.002154,0.019485,-0.087537,,,,,,300,50,False,"(300, 50, 3.0, False)",12.69482,6.451284000000001,14.503684,4.026199999999999,4.026199999999999,2.2173359999999995,8.66862,783456.3946804125,0.5751949932901226,6.652990961421734,33.37
Sing,USC,250217 10:34:21.170,0.0,0.0,0.0,0.0,0.000472,4.0,0.0,12.837748,9.438825,1.905176,-4.861606,-12.240881,-31.252592,12.837748,9.438825,1.905176,-4.861606,-12.240881,-31.252592,12.148057,10.311349,1.905176,-3.995883,-12.550191,-31.252592,0.156928,0.71854,14.638429,70.954957,300.011898,0.723221,0.265673,1824949.498333,300.0,68.256863,-0.0,-0.0,-0.0,-0.0,-0.0,-0.0,-0.0,-0.0,1.021382,-0.00301,0.002305,0.020069,-0.089393,,,,,,300,50,False,"(300, 50, 4.0, False)",12.837748,6.613040999999999,14.681829,4.034394000000001,4.034394000000001,2.1903129999999997,8.803353999999999,783207.4930345793,0.5843668981618563,6.769401395300792,33.37
Sing,USC,250217 10:34:43.469,0.0,0.0,0.0,0.0,0.000472,5.0,0.0,13.03587,12.340246,2.228799,-6.264307,-12.922044,-42.017956,13.03587,12.340246,2.228799,-6.264307,-12.922044,-42.017956,11.910741,13.429439,2.228799,-5.114239,-13.418842,-42.017956,0.156927,0.718613,14.637457,71.029438,300.051618,0.723284,0.26569,1824668.266667,300.0,68.256863,-0.0,-0.0,-0.0,-0.0,-0.0,-0.0,-0.0,-0.0,1.0158,-0.002984,0.002335,0.020812,-0.091888,,,,,,300,50,False,"(300, 50, 5.0, False)",13.03587,6.7451170000000005,14.909177,4.08203,4.08203,2.208722999999999,8.95384,783086.797777921,0.5943043932448142,6.863286200561426,33.37
Sing,USC,250217 10:35:05.771,0.0,0.0,0.0,0.0,0.000472,6.0,0.0,13.353077,15.859443,2.612156,-7.83133,-13.274292,-55.276081,13.353077,15.859443,2.612156,-7.83133,-13.274292,-55.276081,11.622164,17.16834,2.612156,-6.400888,-14.020171,-55.276081,0.156924,0.718615,14.639504,71.097879,300.042654,0.723259,0.265664,1824478.725833,300.0,68.256863,-0.0,-0.0,-0.0,-0.0,-0.0,-0.0,-0.0,-0.0,1.015635,-0.003086,0.002237,0.02157,-0.095425,,,,,,300,50,False,"(300, 50, 6.0, False)",13.353077,6.973601000000002,15.221165,4.1237819999999985,4.1237819999999985,2.255694,9.229295000000002,783005.4531699959,0.6126086861764171,6.9437067477716585,33.37
Sing,USC,250217 14:27:29.916,0.0,0.0,0.0,0.0,0.000669,-1.0,0.0,0.454942,-0.249839,-0.168781,2.194749,-0.920356,1.139108,0.454942,-0.249839,-0.168781,2.194749,-0.920356,1.139108,0.450512,-0.25774,-0.168781,2.178352,-0.95852,1.139108,0.020279,0.019864,14.719286,65.657852,50.008239,0.02041,0.044507,311382.028958,50.0,68.256863,-0.0,-0.0,-0.0,-0.0,-0.0,-0.0,-0.0,-0.0,1.013336,-0.003066,0.001948,0.020164,-0.00307,,,,,,50,100,False,"(50, 100, -1.0, False)",0.454942,0.21483099999999994,0.430429,0.10779900000000003,0.10779900000000003,0.13231200000000004,0.347143,133634.78742780836,0.8165332546478083,8.017701566475477,100.0
Sing,USC,250217 14:27:58.223,0.0,0.0,0.0,0.0,0.000669,0.0,0.0,0.458766,-0.122691,-0.174892,1.128344,-0.652178,0.662431,0.458766,-0.122691,-0.174892,1.128344,-0.652178,0.662431,0.458766,-0.122691,-0.174892,1.128344,-0.652178,0.662431,0.020277,0.01986,14.720221,65.659717,50.000621,0.020405,0.0445,311348.271875,50.0,68.256863,-0.0,-0.0,-0.0,-0.0,-0.0,-0.0,-0.0,-0.0,1.010809,-0.003052,0.002012,0.019401,-0.003089,,,,,,50,100,False,"(50, 100, 0.0, False)",0.458766,0.22978500000000002,0.435805,0.10300999999999999,0.10300999999999999,0.125971,0.355756,133620.30001302084,0.8369973895240207,8.85751501740144,100.0
Sing,USC,250217 14:28:26.514,0.0,0.0,0.0,0.0,0.000669,1.0,0.0,0.468201,-0.005472,-0.162464,0.061616,-0.432937,0.224601,0.468201,-0.005472,-0.162464,0.061616,-0.432937,0.224601,0.468225,0.0027,-0.162464,0.069162,-0.431796,0.224601,0.020279,0.019899,14.72107,65.666268,50.006736,0.020411,0.044505,311400.809375,50.0,68.256863,-0.0,-0.0,-0.0,-0.0,-0.0,-0.0,-0.0,-0.0,1.01157,-0.003069,0.002054,0.021567,-0.003146,,,,,,50,100,False,"(50, 100, 1.0, False)",0.468201,0.23042900000000005,0.440625,0.10509799999999997,0.10509799999999997,0.13267399999999996,0.363103,133642.84735677086,0.8540317638074878,44.50383771929825,100.0
Sing,USC,250217 14:28:54.817,0.0,0.0,0.0,0.0,0.000669,2.0,0.0,0.483055,0.105771,-0.157149,-1.019995,-0.282824,-0.202358,0.483055,0.105771,-0.157149,-1.019995,-0.282824,-0.202358,0.47907,0.122565,-0.157149,-1.009503,-0.318249,-0.202358,0.020275,0.019832,14.718917,65.670958,50.002827,0.020405,0.044502,311332.684167,50.0,68.256863,-0.0,-0.0,-0.0,-0.0,-0.0,-0.0,-0.0,-0.0,1.010841,-0.003076,0.001998,0.021853,-0.00325,,,,,,50,100,False,"(50, 100, 2.0, False)",0.483055,0.245102,0.447188,0.101043,0.101043,0.13691000000000003,0.382012,133613.6102883375,0.8987706370851094,5.371504240292708,100.0
Sing,USC,250217 14:29:23.116,0.0,0.0,0.0,0.0,0.000669,3.0,0.0,0.495056,0.225151,-0.145375,-2.106174,-0.15539,-0.647979,0.495056,0.225151,-0.145375,-2.106174,-0.15539,-0.647979,0.482595,0.250752,-0.145375,-2.095155,-0.265406,-0.647979,0.020269,0.019888,14.72042,65.680599,49.996972,0.020402,0.044496,311315.003333,50.0,68.256863,-0.0,-0.0,-0.0,-0.0,-0.0,-0.0,-0.0,-0.0,1.013359,-0.00303,0.001991,0.019986,-0.00335,,,,,,50,100,False,"(50, 100, 3.0, False)",0.495056,0.250245,0.452679,0.101217,0.101217,0.143594,0.393839,133606.02226374584,0.9267326115002905,6.336308558848654,100.0
Sing,USC,250217 14:29:51.317,0.0,0.0,0.0,0.0,0.000669,4.0,-0.0,0.512303,0.354503,-0.128428,-3.181638,-0.057519,-1.11081,0.512303,0.354503,-0.128428,-3.181638,-0.057519,-1.11081,0.486326,0.389376,-0.128428,-3.169875,-0.279318,-1.11081,0.020276,0.019859,14.721963,65.688163,50.002169,0.020408,0.0445,311377.755625,50.0,68.256863,-0.0,-0.0,-0.0,-0.0,-0.0,-0.0,-0.0,-0.0,1.011654,-0.002996,0.001981,0.021026,-0.003491,,,,,,50,100,False,"(50, 100, 4.0, False)",0.512303,0.27927,0.464534,0.09263199999999999,0.09263199999999999,0.14040099999999994,0.41967099999999996,133632.95345572918,0.9872269063816819,6.591762387530336,100.0
Sing,USC,250217 14:30:19.626,0.0,0.0,0.0,0.0,0.000669,5.0,-0.0,0.530118,0.490907,-0.137155,-4.277717,-0.029725,-1.617689,0.530118,0.490907,-0.137155,-4.277717,-0.029725,-1.617689,0.485315,0.535242,-0.137155,-4.258848,-0.40244,-1.617689,0.020284,0.019868,14.720113,65.695402,50.018395,0.020419,0.044515,311428.113542,50.0,68.256863,-0.0,-0.0,-0.0,-0.0,-0.0,-0.0,-0.0,-0.0,1.014127,-0.003007,0.002028,0.020727,-0.003639,,,,,,50,100,False,"(50, 100, 5.0, False)",0.530118,0.296596,0.482488,0.09294599999999997,0.09294599999999997,0.14057599999999998,0.437172,133654.56539510834,1.0278419492041453,6.753639776305221,100.0
Sing,USC,250217 14:30:47.817,0.0,0.0,0.0,0.0,0.000669,6.0,0.0,0.55833,0.631747,-0.108152,-5.36476,0.022002,-2.173646,0.55833,0.631747,-0.108152,-5.36476,0.022002,-2.173646,0.489236,0.686648,-0.108152,-5.337671,-0.538889,-2.173646,0.02026,0.019922,14.721557,65.704747,49.998047,0.020403,0.044496,311310.54625,50.0,68.256863,-0.0,-0.0,-0.0,-0.0,-0.0,-0.0,-0.0,-0.0,1.013369,-0.003051,0.002021,0.019714,-0.003859,,,,,,50,100,False,"(50, 100, 6.0, False)",0.55833,0.327167,0.501299,0.08706600000000003,0.08706600000000003,0.14409699999999998,0.47126399999999996,133604.10943229168,1.1088650742063029,6.899023989561223,100.0
